latitude,longitude,name,elevation
53.89745,91.404816,Кюн-Таг,589.0
53.52667,90.73522,Сорах,891.0
53.51315,90.811935,Тасхаза,735.0
53.577408,90.51466,Сын,713.0
53.5061,91.23347,Изых,590.0
54.064728,90.59695,Березовая,1142.0
