latitude,longitude,name,elevation
18.982151,104.51223,Phu Mate,1841.0
19.326115,104.9277,Núi Pù Huống,1103.0
19.422235,104.80845,Núi Pù Lon,1557.0
18.775936,105.21813,Núi Đại Càn,529.0
19.111454,104.57738,Núi Phu Lon,1561.0
18.839771,104.93619,Núi Cao Vều,1342.0
18.529081,105.1959,Núi Ba Mu,1357.0
18.941042,104.55725,Phu Den Din,1710.0
18.70164,105.46972,Núi Đụn,263.0
