latitude,longitude,name,elevation
-33.61634,136.52316,Mount Nest,385.0
-33.57578,136.79745,Mount Olinthus,425.0
-33.66,136.80806,Mount Parapet,312.0
-33.59743,136.71046,Sheoak Hill,422.0
-33.61507,136.82681,The Brothers,310.0
