latitude,longitude,name,elevation
35.334488,8.079066,Djebel Anoual,1560.0
35.131454,8.05881,Djebel Bou Djellal,1495.0
35.111553,7.7254868,Hamaima Souda,1166.0
34.662193,8.254848,Djebel Zerga,1163.0
35.085537,8.310294,Djebel Bou Gaffer,1199.0
35.111797,8.426509,جبل طم صميدة,1233.0
34.713997,7.9594183,Djebel Onk,1358.0
35.108192,7.9038153,Jbel el Outed,1314.0
35.383427,7.9457884,Djebel Tazbent,1276.0
