latitude,longitude,name,elevation
-26.44,148.3964,Mount Bindango,570.0
-25.85,148.33333,Mount Hutton,940.0
-25.983334,148.06667,Mount Kennedy,704.0
-26.27861,147.60056,Mount Lonsdale,562.0
-26.182222,147.97917,Mount Sowerby,524.0
-26.4395,147.69395,Lowan Hills,491.0
