latitude,longitude,name,elevation
48.682613,131.43364,Дуриловская,671.4
48.881298,131.20398,Лысая,496.0
48.84857,131.07977,Тяжелая,705.2
48.850723,130.63155,保兴山,527.0
48.643803,131.4914,Сафониха,460.8
