latitude,longitude,name,elevation
32.382557,-113.89438,Buck Peak,785.0
32.38839,-114.247444,Butler Mountains,242.0
32.28867,-113.80854,Cabeza Prieta Peak,752.0
32.39478,-113.726036,Devil Hills,299.0
32.331165,-113.61269,Isla Pinta,575.0
32.10138,-113.5131,Monument Bluff,306.0
32.416443,-113.65964,Point of the Pintas,373.0
32.404198,-114.10927,Raven Butte,541.0
32.265617,-113.87187,Tordillo Mountain,629.0
32.247303,-113.978294,Sierra de la Lechuguilla,521.0
