latitude,longitude,name,elevation
-7.2205925,146.82086,Mount Missim,2962.0
-7.293598,146.64351,Mount Selk,2135.0
-7.1611905,147.02434,Mount Tambu,899.0
-6.7335873,147.00952,Mount Lunaman,96.0
-6.5136905,147.32037,Mount Rawlinson,2265.0
-7.4262104,146.55135,Mount Amung,3278.0
-6.61891,146.76024,Mount Ngaroneno,340.0
-6.8638268,146.71555,Mount Shungol,2735.0
-6.5367155,146.9545,Busu Mountain,1335.0
