latitude,longitude,name,elevation
9.623088,14.959987,Mont réseau télephonique,300.0
9.620148,14.961382,Mont,400.0
9.625055,14.960009,Mont Rituel,250.0
9.645428,14.978248,Mont Blanc,150.0
9.6203165,14.957562,Mont Hyène,400.0
9.623914,14.95885,Mont,250.0
9.6226225,14.963313,Mont,300.0
9.622009,14.964879,Mont,300.0
9.625923,14.960759,Mont,250.0
9.638954,14.943207,Mont éléphant,250.0
