latitude,longitude,name,elevation
1.3721762,-71.17169,Mesa Cubitú,365.0
0.7726457,-70.786194,Cerros De Muñata,272.2
0.8370082,-70.796875,Cerro Circasia,502.0
0.7896246,-70.812515,Cerro Diamaco,572.0
1.107134,-70.59736,Cerros de Mandi,525.0
0.603502,-71.142784,Tepuy,379.2
1.2704186,-71.35442,Montaña Rocosa,406.0
1.374076,-70.9107,Meseta Rocosa,375.0
1.1453128,-70.64027,Cerro,375.0
0.5986955,-71.147835,Tepuy,491.0
