latitude,longitude,name,elevation
50.629555,11.107306,Barigauer Höhe,665.0
50.731075,11.049513,Singer Berg,583.0
50.668125,11.101531,Mühlberg,424.4
50.658363,10.744492,Großer Beerberg,983.0
50.802334,10.910079,Haartberg,440.0
50.666435,10.906954,Lindenberg,749.0
51.006874,11.203529,Wartenberg,255.0
50.974766,11.204487,Utzberg,324.0
51.026978,11.027002,Roter Berg,234.0
50.608673,10.872108,Großer Hundskopf,824.2
50.924446,10.787072,Großer Seeberg,409.5
50.858345,10.876177,Wachsenburg,420.8
50.880497,10.838452,Burgberg,370.0
50.70161,10.953906,Wüsteberg,494.0
50.665833,10.881065,Kickelhahn,861.0
50.674835,10.89168,Hohe Schlaufe,735.0
50.66266,10.893484,Gabelbachskopf,704.0
50.664875,10.862072,Dachskopf,686.0
50.647606,10.876714,Hohe Tanne,805.0
50.64196,10.884548,Vorderer Erbskopf,721.0
50.65764,10.922498,Aechtlersberg,697.0
50.64999,10.931345,Kienberg,774.0
50.64701,10.920645,Heidertalskopf,766.0
50.651997,10.910291,Mittelberg,725.0
50.640625,10.904633,Pferdeberg,805.0
50.63151,10.916855,Köhlerberg,751.0
50.63399,10.891322,Kleiner Helmsberg,744.0
50.622177,10.887767,Großer Helmsberg,828.0
50.61836,10.901582,Hundsrück,808.0
50.613804,10.881711,Kleiner Hader,817.0
50.618023,10.877356,Großer Hader,802.0
50.63695,10.8001375,Großer Finsterberg,944.0
50.658707,10.977221,Großer Tragberg,588.0
50.647884,10.961092,Hexenstein,659.0
50.638016,10.972567,Hinterer Brandkopf,727.0
50.6389,10.981147,Vorderer Brandkopf,655.0
50.635635,10.994631,Wohlroser Berg,604.0
50.639683,10.953419,Vorderer Stechberg,705.0
50.63504,10.941121,Steinberg,758.0
50.618286,10.918505,Fürstenberg,818.0
50.619625,10.936294,Zipersberg,691.0
50.611454,10.938204,Kämpfenberg,717.0
50.60573,10.898381,Großer Dreiherrnstein,838.0
50.601562,10.906316,Bühlsroder Kopf,812.0
50.610226,10.850939,Kleine Hohe Warte,764.0
50.618435,10.842232,Große Hohe Warte,746.0
50.63289,10.868171,Schloßberg,680.0
50.70579,10.979812,Wolfsberg,527.0
50.709957,10.983083,Eichenberg,533.0
50.72398,10.982505,Die Heide,479.0
50.72988,10.984944,Die Marke,461.0
50.74056,10.997656,Ebene,473.0
50.766045,11.010721,Kanzel,500.0
50.75963,11.010196,Willinger Berg,502.0
50.7132,10.957618,Kienberg,503.0
50.722366,10.9580765,Wipferkopf,449.0
50.687683,10.881124,Hangeberg,701.6
50.689335,10.870477,Großer Spiegelsberg,700.9
50.688744,10.85673,Heidelberg,769.0
50.687305,10.840685,Rumpelsberg,799.0
50.687843,10.813882,Mittelberg,739.0
50.68313,10.809072,Wüstrumnei,751.0
50.568638,10.910872,Truckentanner Kopf,673.0
50.722466,10.638895,Donnershauk,893.0
50.721344,10.635123,Kachelofen,835.0
50.711796,10.636339,Hohe Möst,888.0
50.749905,10.932756,Halskappe,606.0
50.683796,10.638935,Ruppberg,866.0
50.73133,10.863552,Weißer Stein,532.0
50.730152,10.846683,Bringeberg,484.0
50.740005,10.8465395,Ziegenberg,489.0
50.607613,11.196496,Quittelsberg,709.0
50.61373,11.18795,Telegraph,685.0
50.61748,11.180659,Keilsburg,649.0
50.62318,11.169345,Passeider Ebene,555.0
50.696785,10.644658,Hoher Stein,860.0
50.591232,10.766585,Adlersberg,850.0
50.595905,10.884683,Hinterer Arolsberg,779.2
50.642254,10.864676,Rabentalskopf,710.0
50.816914,10.981188,Schloßberg,388.0
50.501034,10.596306,Steinerner Berg,497.0
51.405315,11.117868,Gietenkopf,426.8
51.404797,11.100827,Kautsberge,452.6
50.76938,10.938918,Reinsburg,604.0
50.762543,10.9305525,Rabenberg,587.0
50.783108,10.958662,Haselkoppe,586.0
50.779724,10.972138,Mittelberg,540.0
50.778072,10.981842,Gottlobsberg,544.0
50.798035,10.965418,Kuhberg,485.0
50.752754,10.924147,Walsberg,571.0
50.753258,10.812646,Burglehne,460.0
50.881706,11.129116,Riechheimer Berg,513.0
50.57295,11.108826,Meuselbacher Kuppe,786.1
50.57193,11.021526,Vitzberg,696.0
50.608974,11.152573,Ulrichsfelsen,538.0
50.611008,10.888762,Kleiner Dreiherrnstein,825.0
50.78749,11.00521,Spielberg,371.0
50.724754,10.5164585,Hohe Rod,558.0
50.714825,10.526958,Heftenberg,619.0
50.708332,10.515265,Stiller Stein,646.0
50.718666,10.504082,Hirschberg,562.0
50.71152,10.500585,Ringberg,540.0
50.703762,10.553515,Arzberg,618.0
51.460648,11.033132,Roßberg,176.0
51.474785,10.96754,Rodeberg,251.0
51.470833,11.07446,Weinberg,228.0
51.485046,11.043164,Kuhberg,349.0
51.47137,11.042551,Silberberg,221.0
51.47112,11.017395,Friedrichsberg,216.0
51.488125,10.923398,Schmiedekopf,227.0
51.488335,10.962528,Distelkopf,278.9
51.47498,11.0055485,Weinberg,243.0
50.876293,10.714107,Abtsberg,375.0
50.602592,10.698616,Hohe Loh,528.3
51.18547,11.434765,Mühlberg,310.0
50.886127,10.839653,Kallenberg,332.0
50.836117,10.500289,Großer Jagdberg,806.0
50.866196,10.885981,Rückberg,328.9
51.24975,10.689379,Galgenberg,320.0
50.873104,10.86944,Längel,321.0
50.913986,11.345616,Hainberg,376.0
50.901543,11.3163,Buchhügel,451.0
50.898724,11.324327,Vogelherd,468.0
50.86983,11.317136,Vogelherd,428.6
50.771786,11.172005,Großer Kalmberg,547.0
50.782833,11.163654,Kleiner Kalmberg,467.0
51.097797,10.808287,Vargulaer Hügel,252.0
50.580273,11.175134,Urianfelsen,526.0
50.628025,10.659323,Bock,681.0
50.68956,10.670055,Gebrannter Stein,897.0
50.7069,10.648422,Finsterbachkopf,898.0
50.71332,10.674715,Greifenberg,901.0
50.64626,10.573557,Passberg,530.0
50.765285,10.562189,Krämerod,765.0
50.783684,10.550399,Glasberg/ Hohe Leite,761.0
50.704967,11.277134,Kaiserstuhl,480.0
50.70182,11.289459,Liske,452.0
50.75422,10.800021,Läusebühl,490.0
50.767567,10.832487,Gisselgrund,395.0
50.643425,11.288907,Eisenberg,639.0
50.79267,10.931029,Burgstieg,494.0
50.729603,10.905028,Veronikaberg,552.0
50.76543,10.909271,Strubbelsberg,458.0
50.75676,10.910013,Mückenberg,520.0
50.752087,10.911294,Kahler Berg,536.0
50.74695,10.912257,Viehberg,551.0
50.740143,10.919615,Heydaer Berg,576.0
50.739967,10.788048,Wintersruhe,516.0
50.731266,10.76526,An der kleinen Hohe Warte,652.0
50.85049,10.523088,Simmetsberg,713.0
50.846836,10.511832,Tenneberg,729.0
50.652454,10.79173,Sachsenstein,915.0
50.726963,10.774612,Waldsberg,701.0
50.57877,11.212227,Meuraberg,676.0
50.592377,11.210535,Roter Berg,561.0
50.565773,11.213069,Aßberg,706.0
50.568382,11.185117,Rehhecke,720.0
50.578773,11.184382,Mühlberg,609.0
50.56131,10.658372,Schneeberg,692.0
50.6031,10.768348,Neuhäuser Hügel,891.0
51.485207,11.058056,Hoher Kopf,351.1
51.487415,11.018985,Jägersberg,340.0
51.488724,11.012917,Geiersberg,339.8
51.473915,11.011765,Peterskopf,230.0
51.448845,10.765811,Ritterberg,247.4
51.415836,11.061364,Bärenköpfe,445.0
51.424805,11.040996,Kahler Berg,314.0
51.4201,11.040499,Altendorfer Klippen,424.0
51.4234,11.052101,Tannenberg,350.0
50.67422,10.702809,Spitziger Berg,882.0
50.753082,10.501123,Großer Steinberg,497.0
50.64219,10.757845,Zuckerhut,760.0
51.134632,11.174439,Galgenhügel,232.0
51.13569,11.191798,Widerberg,220.0
51.11557,11.166265,Stahlshügel,229.0
51.09963,11.19737,Großer Warthügel,253.0
51.117687,11.207154,Mittelberg,236.9
51.129173,11.202176,Mühlberg,222.0
50.682365,10.946784,Ehrenberg,528.0
50.675602,10.94526,Tragberg,534.0
51.483196,11.248986,Butterberg,307.6
50.88932,10.908074,Thöreyer Höhe,283.0
51.102886,11.187743,Schieferberg,244.0
51.099377,11.191154,Kleiner Warthügel,252.0
51.1036,11.22227,Marke,248.0
50.85778,10.8990135,Ziegenberg,332.6
50.84945,10.922063,Weinberg,338.0
51.422813,10.976483,Schlossberg,251.0
50.860435,11.30653,Tafelhöhe,389.0
50.614807,11.158016,Kaffenbergkopf,482.0
50.617565,11.203011,Hammerberg,490.0
50.63294,11.156703,Ziegenberg,497.0
50.606983,11.163786,Zwei Gelenkköpfe,562.0
50.75853,10.541205,Wiesenberg,665.0
50.76461,10.51496,Mönchstein,701.0
50.78181,10.524492,Mittlerer Höhenberg,836.0
50.743664,10.574085,Sperrhügel,882.0
50.61645,10.721942,Ringberg,745.0
51.422504,11.076395,Goldener Mann,391.0
50.661186,10.6314745,Reisinger Stein,662.0
51.344337,11.008446,Michelsberg,251.3
50.54931,10.81395,Brunnenhügel,704.0
51.394497,11.03801,Kippenberg,256.0
50.855568,10.502931,Aschenbergstein,565.0
51.405743,11.02772,Kahler Berg,263.0
50.642525,10.641221,Schwarzer Kopf,749.0
50.549206,10.839583,Sommerberg,712.0
50.738953,11.303654,Pulverholzkopf,430.0
50.598213,11.240033,Burgberg,568.0
50.61954,11.226366,Pfarrberg,539.0
50.60969,11.231603,Gartenberg,517.0
50.60638,11.244187,Talberg,601.0
50.595398,11.262567,Mühl-Berg,599.0
50.599236,11.270189,Mühl-Berg,668.0
50.611202,11.255959,Schwarzer Berg,582.0
50.60779,11.270305,Klingeberg,593.0
50.64017,10.939238,Hinterer Stechberg,693.0
50.5656,10.917854,Tannenglasbachskopf,698.0
50.578224,10.902659,Kleiner Burgberg,758.6
50.574608,10.917816,Großer Suckenberg,729.0
50.58027,10.915656,Kleiner Suckenberg,730.0
50.591682,10.9073,Großer Burgberg,817.4
50.573696,10.89548,Kleiner Gabelskopf,722.7
50.57648,10.881865,Vorderer Arolsberg,717.8
51.445965,11.077192,Haardt,186.3
50.64891,10.887248,Nördlicher Erbskopf,738.0
50.51046,10.970203,Eselsberg,841.5
50.59738,10.815869,Hückel,747.0
50.5861,10.819329,Volkmarskopf,726.0
50.629078,10.865805,Teichkopf,688.0
51.419006,10.995216,Walpergebirge,157.0
50.500927,11.136679,Bornhügel,846.0
50.928276,11.450804,Schwabhäuser Berg,347.0
50.934036,11.428969,Lauenberg,319.0
50.52749,11.055529,Jagdschirm,813.0
50.6855,10.609292,Brand,702.0
50.673958,10.6185,Mittelberg,691.0
50.68209,10.621349,Schuchardstein,686.0
50.67975,10.635532,Braukopf,811.0
50.694855,10.592497,Dicker Berg,679.0
50.841175,10.537074,Regenbergstein,734.0
50.70027,10.613944,Oberer Hermannsbergstein,868.0
50.7005,10.614021,Großer Hermannsberg,867.0
51.360683,10.517459,Kleines Rondel,516.0
50.86744,11.170026,Vorderer Forsthügel,408.3
50.683346,11.369282,Kulm,482.0
50.64198,11.325542,Spitzberg,412.0
50.618393,11.343769,Hintere Gartenkuppe,577.0
50.612793,11.353967,Schwarzer Berg,523.0
50.605766,11.370103,Holzberg,520.0
50.706512,10.860511,Hirtenberg,549.0
50.975075,11.481172,Sperlingsberg,314.0
50.942097,11.471988,Hausberg,340.0
50.963562,11.427785,Lehnstedter Höhe,313.0
50.96648,11.395255,Taubacher Höhe,303.0
50.986668,11.398834,Sonnenberg,282.0
50.92057,11.409925,Ottstedter Berg,334.0
50.899464,11.449622,Schanze,316.0
50.907745,11.489104,Steinhügel,420.0
50.878105,11.390142,Holzberg,468.0
50.86375,11.402588,Wachenberg,465.0
50.847332,11.418381,Kesselberg,462.9
50.844894,11.398296,Mittelberg,450.0
50.84457,11.330404,Schafholzberg,440.0
50.84148,11.314611,Gottesberg,428.0
50.871765,11.36508,Bombenberg,462.0
50.81748,11.471264,Schönberg,452.0
50.800007,11.473871,Hopfberg,445.0
50.758705,11.456874,Kulmsen,375.0
50.74578,11.434086,Kreuzenberg,404.0
50.719437,11.443388,Elsterberg,366.4
50.716377,11.463212,Scheitberg,425.0
50.72294,11.475413,Krossener Berg,413.6
50.534176,11.410314,Käppele,610.0
50.62081,11.389485,Gleitsch,401.0
50.562035,11.44292,Wandslebhütte,441.0
50.65985,10.7328415,Dietzen-Lorenz-Stein,900.0
50.66474,11.2550125,Hünenkuppe,485.0
50.686348,10.669201,Kaltenbrunner Stein,849.0
50.63885,11.292835,Zipptannskuppe,657.0
50.61028,11.327543,Talberg,609.0
50.62453,11.33927,Mittlere Gartenkuppe,566.0
50.613533,11.378237,Mühlberg,333.0
50.632317,11.32455,Vorderer Breiteberg,547.0
50.62374,11.321245,Hinterer Breiteberg,551.0
50.620174,11.324936,Stäbenberg,542.0
50.660328,11.316764,Obere Höhe,324.0
50.65621,11.2985,Eichköpfe,572.0
50.64625,11.298328,Schautalskopf,637.0
50.598885,11.322342,Goldberg,622.0
50.600082,11.294404,Hornberg,611.0
50.58656,11.322266,Drachenberg,660.0
50.583523,11.304519,Beerhügel,677.0
50.61969,11.292215,Sommerberg,669.0
50.667995,11.308106,Sandberg,329.0
50.590717,11.3885975,Soolse,494.0
50.596424,11.399062,Kulmhügel,496.0
50.58515,11.378592,Eckertsberg,465.0
50.598965,11.426313,Schmittenberg,529.0
50.57534,11.364603,Mardberg,460.0
50.62696,11.388975,Pfaffenberg,361.0
50.60149,11.460052,Vogelherd,565.0
50.59814,11.453872,Schliefert,561.0
50.61516,11.482582,Steinhügel,522.0
50.61883,11.488026,Klinkhardtshöhe,516.0
50.58451,10.614837,Auberg,609.0
50.70181,11.33781,Mühlberg,311.0
50.67504,11.353409,Kellerberg,332.0
50.518494,11.351099,Ratzenberg,678.0
50.557987,11.312192,Haderberg,523.0
50.569897,11.319974,Utenberg,551.0
50.984264,11.202192,Rammelsberg,260.0
50.989655,11.196241,Flachshügel,254.0
50.975468,11.232016,Steinel,310.0
50.993347,11.162747,Großer Hasenberg,227.0
50.97384,11.167237,Auf der Kümmel,280.0
50.975952,11.243523,Stiefvater,303.0
50.513153,11.398814,Rodern,525.0
50.505737,11.446131,Schieferberg,644.0
50.55629,11.478759,Mönchsberg,573.0
50.565113,11.477451,Hohe Schleife,550.0
50.57517,11.473061,Tannberg,557.0
50.668655,11.425386,Kalmskopf,336.0
50.539547,11.477573,Großer Mittelberg,547.0
50.59582,11.367143,Rabenhügel,583.0
50.56312,10.629956,Kesselberg,644.0
50.67983,11.440077,Sorgenkopf,399.0
50.706825,11.450227,Teufelsberg,415.0
50.694035,11.4600115,Johannihut,451.0
50.67781,11.45171,Espentalkopf,402.0
50.76799,11.356915,Heidenberg,399.0
50.74481,11.342904,Brand,407.0
50.77335,11.272809,Viehberg,508.0
50.540054,11.200426,Mutzenberg,770.0
50.543392,11.21679,Rauhhügel,802.0
50.514446,11.232905,Hirschstein,755.0
50.506252,11.2247095,Rodeberg,761.0
50.552612,11.190954,Spitzer Berg,790.0
50.555145,11.25695,Rotschnabel,751.0
50.627136,11.223417,Keil,677.0
51.426342,10.560549,Gebraer Kopf,446.0
50.729324,10.796656,Dörrberg,568.0
50.56983,11.25816,Töpfersbühl,763.0
50.56902,11.231624,Kirchberg,725.0
50.740864,11.239354,Kunitzberg,508.0
50.750706,11.227939,Lohberg,415.0
50.540985,11.294979,Gösselberg,675.0
50.549892,11.292285,Mittelberg,617.0
50.553677,11.367826,Kolditzberg,584.0
50.54013,10.511179,Stedtberg,482.0
50.609592,10.61556,Sandersberg,510.0
50.582073,10.584502,Windberg,530.0
50.58738,10.574854,Silbachshöhe,531.0
50.593643,10.575209,Buchberg,494.0
50.690273,11.263116,Greifenstein,392.0
50.611755,10.649963,Heiliger Berg,513.0
50.661564,11.272357,Hainberg,583.0
50.675365,11.241104,Silberberg,520.0
51.31898,11.026173,Arnsberg,298.0
50.691208,11.302736,Gemeindeberg,327.0
50.824757,11.4947815,Michelsberg,415.0
50.913906,11.208339,Rüttelsberg,470.4
50.680634,10.822695,Himmelreichskopf,771.0
50.539684,10.794778,Silbacher Kuppe,627.0
50.516884,10.951032,Fehrenberg,835.0
50.76732,11.163567,Kleiner Kalm,511.0
50.691532,10.6199465,Steinhauck,786.0
50.728107,10.605525,Hellenberg,799.0
50.721302,10.593095,Unterlaudenberg,684.0
50.72251,10.618694,Petersberg,775.0
50.689053,10.541995,Rödelsberg,513.0
51.001022,10.928781,Alacher Höhe,329.0
50.622307,10.781379,Großer Eisenberg,907.0
51.35752,10.869962,Spatenberg,366.0
50.866554,10.573564,Reinhardsberg,483.0
51.376926,10.834165,Frauenberg,411.0
50.54022,10.560435,Starkenberg,451.0
50.703148,10.907638,Oberpörlitzer Höhe,581.0
50.63815,10.787826,Blauer Stein,783.0
50.60531,10.725528,Döllberg,760.0
50.537792,11.432517,Brühl,629.0
50.518135,11.432093,Mühlberg,594.0
50.770325,11.053696,Tännreissig,443.0
51.367428,10.82526,Eichenberg,370.0
50.713577,11.234103,Kolmberg,481.0
50.697437,11.26657,Kesselberg,520.0
50.851334,10.562816,Gottlob,571.7
50.883343,10.56852,Geizenberg,417.0
50.889885,10.5589,Burgberg,434.0
50.671505,11.3705015,Mäuseberg,339.0
50.641838,10.842286,Rosenkopf,672.0
50.7964,11.096677,Schweinskopf,480.0
50.78498,11.0828705,Weinberg,435.0
50.650604,10.770418,Fichtenkopf,944.0
50.653637,10.760163,Rosenkopf,939.0
50.882996,10.831653,Kaffberg,399.0
50.561268,10.7731905,Erdeberg,529.0
50.672184,10.805047,Gabelbachskopf,772.0
50.666595,10.726998,Sommerbachskopf,941.0
50.661842,10.725244,Wildekopf,943.0
50.62783,11.33759,Vordere Gartenkuppe,551.0
51.06207,10.907429,Walschberg,208.0
50.61705,10.685774,Domberg,675.0
50.751305,10.633187,Großer Buchenberg,813.0
50.752476,10.620993,Kleiner Buchenberg,745.0
50.734394,10.590591,Oberlaudenberg,856.0
51.332947,10.567993,Watte,443.0
51.105137,11.070449,Hinterer Berg,169.0
51.101692,11.080234,Vorderer Berg,170.0
51.349594,10.836342,Kanzlerberg,370.0
51.356884,10.877112,Fürstenberg,286.0
51.344315,10.885047,Kohlberg,385.0
51.350212,10.8679285,Lindenberg,403.0
51.030575,10.953873,Schwellenburg,227.0
51.384453,10.742524,Wettenburg (Hainleite),463.2
50.650944,10.75029,Hoher Geiersberg,907.0
50.65389,10.73696,Unterer Beerberg,891.0
50.645245,10.733765,Unterer Geiersberg,746.0
51.40965,10.707217,Wöbelsburg,429.0
51.378807,10.6526,Löhchen,428.0
51.333286,10.735673,Mittelberg,352.1
51.33678,10.901094,Wolfshof,441.0
51.339138,10.859756,Possen,431.0
51.32175,11.010773,Kuhberg,405.0
51.324757,10.978377,Heidelberg,403.0
51.31758,10.834075,Große Haardt,331.0
51.32083,11.051144,Pfarrkopf,309.0
51.297733,11.16035,Wächterberg,302.0
51.341293,10.946674,Filsberg,319.0
51.39811,10.90716,Wildemann,367.0
51.069725,10.829687,Sommerberg,190.0
50.59047,11.240868,Eichberg,613.0
50.583344,11.255394,Glanzberg,698.0
50.72568,11.350043,Viehberg,289.0
51.31495,11.399579,Engesberg,188.0
51.31372,11.40663,Galgenberg,206.0
51.310543,11.412822,Leimberg,188.0
51.30713,11.419422,Neun Hügel,169.0
51.30236,11.42169,Weinberg,163.0
51.32464,11.463735,Sandberg,286.0
51.31613,11.479325,Kuckucksberg,263.0
51.312363,11.474845,Buchberg,258.0
51.360023,11.499379,Eichberg,268.0
51.374874,11.496549,Pfaffenberg,243.0
51.34777,11.425724,Kahler Berg,296.0
51.3336,11.446184,Aspenbornberg,282.0
50.580433,10.961533,Vordere Haube,789.8
50.576927,10.951864,Hintere Haube,810.8
51.321106,11.390658,Lausehügel,156.0
51.325165,11.376768,Schieferhügel,143.0
51.3436,11.394334,Goldberg,176.0
50.74102,10.644342,Nähertalskopf,791.0
51.26252,11.40324,Galgenberg,211.0
51.26331,11.34643,Buchberg,350.0
51.24725,11.36742,Heidenkopf,353.0
51.248775,11.378433,Palmberg,335.0
51.277557,11.3403015,Wolfsberg,344.0
51.2735,11.32335,Beerberg,363.0
51.27866,11.32998,Mittelberg,337.0
51.28112,11.31722,Saukopf,327.0
51.30392,11.31118,Schlachtberg,237.0
51.297268,11.295834,Schulzenberg,320.0
51.29211,11.31254,Weinberg,301.0
51.223648,11.426192,Aschenberg,326.0
51.22527,11.457796,Wolfsanger,327.0
51.311493,11.262371,Heidelberg,267.0
51.31637,11.2807,Kummersberg,231.0
51.31391,11.28665,Sattlersberg,240.0
51.32882,11.26996,Sperlingsberg,187.0
51.37053,11.29643,Weinberg,191.0
50.854065,10.513557,Aschenberg,685.0
50.852013,10.504745,Bärenbruch,610.5
50.86,10.515548,Übelberg,713.0
50.857933,10.5430355,Tannenkopf,621.7
50.55536,11.157195,Brandberg,626.8
50.835167,10.515437,Kleiner Jagdberg,726.0
50.828804,10.527604,Heuberg,719.0
50.726707,11.2608795,Gehegeberg,410.0
50.720985,11.271584,Brotkopf,341.1
50.712154,11.302521,Heldenberg,315.1
50.71344,11.312146,Justinshöhe,280.0
50.71555,11.278813,Katzhügel,285.5
50.722244,11.281357,Pörzberg,407.0
50.709827,11.296644,Wachtelberg,350.8
50.728462,11.238475,Krähenhügel,472.9
50.686382,11.383034,Lindingberg,405.3
50.716972,11.439484,Brandberg,370.8
51.08676,11.192419,Sandberg,215.0
51.088673,11.201388,Nußberg,236.0
51.097393,11.182828,Herrenberg,232.0
50.856133,11.433036,Wachenberg,448.9
50.702923,11.217476,Schippche,367.2
50.664536,11.179494,Buchenberg,456.1
50.654865,11.169232,Kalkberg,471.8
50.658024,11.194868,Kienberg,525.8
50.65188,11.189909,Trippstein,490.2
50.65711,11.168557,Wachkuppe,444.8
50.535786,10.835219,Roter Berg,693.0
50.52861,10.824798,Salzleckenkopf,640.0
51.216053,11.144727,Wasserberg,164.0
50.555157,10.8604145,Schmiedswiesenkopf,784.0
50.683132,11.13416,Buchberg,439.0
50.661594,11.114943,Gleisberg,405.4
50.68242,11.147308,Metzelberg,413.0
50.71632,11.092785,Arlsberg,441.8
50.6936,11.103157,Buchwaldskopf,488.4
50.657684,11.068175,Eierberg,467.3
50.684605,11.089433,Kahleberg,471.7
50.64585,11.140759,Röderberg,489.0
50.65252,11.095968,Schieferberg,482.2
51.371346,10.922663,Jechaer Dickkopf,300.0
50.735485,11.111782,Frankenberg,538.0
50.727203,11.139205,Kleinliebringer Berg,502.2
50.741673,11.330993,Roter Berg,336.7
50.83853,11.1531515,Achelstädter Berg,433.1
50.69674,11.040343,Brandberg,498.5
50.702927,11.0333395,Hopfberg,487.0
50.591156,11.113303,Birkenberg,609.0
50.590797,11.125274,Hopfberg,648.4
50.794052,11.317954,Steinberg,476.2
51.424088,11.400522,Galgenberg,227.0
50.62219,11.100642,Nosseberg,635.2
50.621033,11.130065,Viehberg,576.4
51.21071,11.354682,Katzenberg,321.0
51.207935,11.362096,Kreuzberg,320.0
50.67474,10.653348,Schwarzberg,678.0
50.67302,10.641506,Rechberg,698.0
50.632122,10.766863,Hoffnungskopf,787.0
50.62215,10.712311,Lauterkopf,561.0
50.62883,10.716701,Vorderer Bocksberg,609.0
50.626793,10.737787,Zeisighügel,573.0
50.56643,10.819752,Hohe Buche,748.0
50.74589,10.643456,Falkenstein,770.0
50.65959,10.665284,Lerchenberg,548.0
50.664303,10.619232,Metze,655.0
50.67336,10.597714,Sattelberg,596.0
50.67982,10.607927,Sonnenberg,656.0
50.6875,10.60187,Ziegenloh,694.0
50.670166,10.679044,Alte Straße,677.0
50.685673,10.694537,Sternberg,840.0
50.539124,10.72865,Bruchkopf,584.0
50.52976,10.738269,Kohlberg,466.0
51.0339,10.948757,Kippelhorn,197.0
51.036003,10.942894,Marolsberg,194.0
50.61997,10.764388,Salzberg,866.0
50.733322,11.2878,Mittelbühl,389.2
50.728172,11.288499,Roter Berg,424.0
50.731018,11.293494,Scherrenhügel,392.4
50.75414,11.466699,Hirtenbühl,312.6
50.828354,11.426449,Angerberg,418.0
50.823555,11.430827,Bock,422.0
50.819492,11.421749,Hainberg,391.0
50.820957,11.449696,Vorwerkshügel,451.0
50.61894,11.014391,Stiefelkopf,807.0
51.04086,11.077467,Nicolausberg,212.0
51.06431,11.118983,Stünzbergshügel,182.2
50.70988,10.655716,Brand,901.0
50.710327,10.603542,Kleiner Hermannsberg,674.0
50.855755,10.609209,Querberg,463.0
50.85235,10.626507,Schlossberg,446.0
50.623405,10.907673,Roter Stein,784.0
50.66312,10.606368,Spitzelbachskopf,596.0
50.686016,10.653881,Hundsrück,772.0
50.67172,10.662126,Mittelrain,559.0
50.643177,10.702412,Höchstkopf,569.0
50.648113,10.693465,Kleiner Brand,577.0
50.65218,10.686542,Finkenhügel,611.0
50.65807,10.69089,Hochwald,647.0
50.65615,10.70926,Königsknübel,738.0
50.65482,10.697445,Mühlenwasserkopf,638.0
50.74152,10.550929,Kernberg,752.0
50.678276,10.845086,Bundschildskopf,786.0
50.703354,10.897827,Habichtsberg,573.0
50.680313,10.955671,Hammerberg,502.0
50.650726,10.869659,Kesselshaupt,790.0
50.64671,10.849697,Kleiner Rödel,638.0
50.66908,10.851308,Moosbachskopf,669.0
50.656273,10.8551035,Schneidenmüllerskopf,678.0
50.68674,10.898143,Sturmheide,620.0
50.659245,10.838852,Wilhelmsleite,723.0
50.654877,10.830944,Zigeunerkopf,708.0
50.640846,10.771572,Goldlauterberg,874.0
51.092434,11.310359,Sperlingsberg,195.2
50.664783,10.817976,Schnepfkopf,748.0
50.71178,10.809798,Arlesberg,651.0
50.58181,10.674538,Steinsburg,640.9
50.583897,10.66413,Diestel,552.2
51.494404,11.286071,Schachthalde Hohe Linde,400.0
50.577717,10.890972,Drechslerskamm,661.3
50.583946,10.882661,Vorderer Arolsberg,731.1
50.55613,10.882423,Haschbachskopf,636.4
50.55304,10.891775,Hohenofenkopf,736.3
51.03072,10.922292,Haderberg,246.0
50.680992,10.753808,Dörrkopf,844.0
50.604527,10.735098,Beerberg,808.0
50.59184,10.739101,Großer Dröhberg,729.0
50.582096,10.740915,Kalkhügel,643.0
50.57707,10.7358,Kleiner Dröhberg,565.0
50.593735,10.723822,Spitzberg,649.0
50.545345,10.700398,Donnersberg,625.0
50.525627,10.780206,Silbacher Berg,516.0
50.614044,10.757043,Kleiner Erleshügel,806.0
50.551636,11.134446,Hettstädt,808.0
50.635086,10.654632,Dürrberg,692.0
50.696693,10.659834,Mittelhauk,736.0
50.70192,10.66418,Jägerhausberg,874.0
50.69973,10.673701,Dürrer Kopf,832.0
50.63358,10.573803,Bettstall,490.0
50.640167,10.575911,Brand,497.0
50.637318,10.561088,Bauerberg,438.0
50.660645,10.573918,Unkenberg,476.0
50.6633,10.589968,Vogelherd,537.0
50.653698,10.589874,Rotebühl,516.0
50.67346,10.590744,Heidelberg,564.0
50.66108,10.564586,Benshausener Berg,437.0
50.542564,11.036103,Kieslerstein,656.0
50.730625,10.620759,Zimmerkopf,773.6
50.709206,10.581185,Arnsberg,684.5
50.739532,10.616573,Roßkopf,851.0
51.493557,11.188111,Ankenberg,321.1
51.484306,11.129056,Armsberg,281.8
51.495724,11.118944,Burgberg,280.0
51.474724,11.189097,Großer Buchberg,320.4
51.48425,11.147139,Haardtberg,286.8
51.494556,11.129723,Hoher Kopf,332.0
51.49291,11.270744,Schlößchenkopf,310.3
51.495804,10.947416,Reesberg,325.2
50.704636,11.306121,Zeigerheimer Berg,368.0
51.426807,11.356598,Abraumhalde Niederröblingen,125.0
50.702904,11.393498,Pfarberg,343.0
50.904747,10.657467,Boxberg,359.0
50.849575,10.644814,Kummelberg,430.0
50.86928,10.645897,Hardhöch,378.0
50.874996,10.638995,Reitenberg,369.0
50.92273,10.633788,Pfaffenberg,350.0
50.87781,10.688157,Katzenhügel,360.0
50.823685,10.678112,Finkenberg,464.0
50.840656,10.642113,Ziegelberg,519.0
50.832645,10.632389,Steinbühl,471.0
50.628998,10.7523775,Kirchberg,720.6
50.645447,10.785654,Mittelrain,849.2
50.659927,10.783743,Seiffartsburg,865.3
50.576595,11.150171,Kirchberg,784.4
51.300003,11.309686,Kuckucksberg,238.0
50.527817,10.86136,Buchenkopf,717.5
50.505737,10.868098,Hohe Warth,718.1
50.5414,10.891582,Hoher Hügel,731.2
50.52403,10.913445,Holzberg,740.0
50.537647,10.869162,Kreiseberg,716.9
50.528076,10.88697,Köpflein,612.0
50.545723,10.907764,Schwefelkopf,773.7
50.54043,10.899543,Sommerberg,756.0
50.809593,10.699431,Knöpfelsberg,519.0
50.801723,10.712089,Schlossberg,542.0
50.79152,10.718551,Steiniger Berg,594.0
50.76775,10.739865,Turmberg,659.0
50.815025,10.752283,Goldberg,454.0
50.826893,10.770359,Harth,451.0
51.29668,11.187192,Stubenberg,198.0
51.28954,11.185392,Scharfer Berg,249.0
50.50269,10.893662,Simmersberg,781.0
50.92785,11.1344,Fuchshügel,428.0
50.690258,10.997611,Wümberg,504.0
50.71399,11.030911,Dörnfelder Berg,466.0
50.77538,10.63019,Kirchberg,627.0
50.79634,10.624504,Gallberg,491.0
51.33273,11.24557,Leidenberg,186.0
51.33761,11.24212,Mühlberg,158.0
50.65921,10.815949,Aschbach,768.0
50.661297,10.829913,Großer Rödel,746.0
50.654213,10.80853,Spielmannsleite,784.0
50.666603,10.838482,Hirschkopf,772.0
50.67011,10.824793,Leimbühl,784.0
50.502308,10.962411,Sommerberg,800.5
50.946156,11.115243,Haarberg,316.0
50.73953,11.295129,Rosenbühl,453.0
50.860973,10.594419,Dachsberg,490.0
50.86011,10.602969,Dörrberg,435.0
50.83858,10.602644,Ölberg,528.0
50.84812,10.571636,Körnberg,633.0
50.63948,11.160431,Rabenhügel,506.0
50.644444,11.173974,Roderberg,502.0
50.63897,11.168512,Sommerberg,493.0
50.630768,11.126844,Johannisberg,592.0
50.61041,11.081148,Allersdorfer Höhe,595.0
50.847187,10.88454,Heiliger Berg,367.0
50.503788,10.991246,Goldberg,736.0
50.52951,10.995505,Hinterer Schmiedebacher Kopf,672.0
50.51058,10.9081335,Höheberg,780.0
50.512684,10.893308,Schnetter Berg,757.0
50.630363,10.727821,Hinterer Bocksberg,598.0
50.531948,10.662124,Burgberg,506.0
50.77277,10.98838,Mäuseberg,503.0
50.782352,10.98812,Osterberg,436.0
50.905373,10.921789,Kirchberg,279.0
50.910393,10.934774,Großer Holzberg,286.0
50.91881,10.851419,Galgenberg,293.0
50.91684,10.863884,Geierhügel,301.0
50.906067,10.862528,Stiedenberg,283.0
50.915455,10.941034,Hausterberg,272.0
50.96209,10.907404,Gottstedter Höhe,299.0
50.842903,10.894297,Eulenberg,412.3
50.84176,10.887781,Kirchberg,415.6
50.815228,10.905782,Götzberg,416.0
50.825977,10.904129,Sonnenberg,392.0
50.804424,10.8713,Ebanotte,518.0
50.79513,10.88915,Schweinsberg,473.0
50.77596,10.869833,Plauescher Berg,462.0
50.774734,10.859298,Ziegenberg,472.0
50.787357,10.933355,Eichenberg,531.0
50.885494,10.821422,Röhnberg,383.0
50.9154,10.764878,Rothebühl,332.0
50.92088,10.767995,Maikopf,371.0
50.863293,10.7634115,Hainberg,460.0
50.854904,10.770745,Musketierberg,461.0
50.894226,10.899744,Laitenberg,264.0
50.869453,10.914772,Zettelberg,304.0
50.862938,10.919828,Steinberg,298.0
50.82428,10.920513,Wüster Berg,390.0
50.94061,10.925562,Katzenberg,305.0
50.949776,10.929536,Schmiraer Höhe,312.0
51.06934,10.94902,Morgenberg,164.0
51.025078,10.842415,Bienstädter Berg,384.0
51.000507,10.84619,Bienstädter Höhe,345.0
50.988735,10.857492,Hopfenberg,314.0
51.007446,10.835937,Kiesberg,354.0
51.014866,10.909181,Katzenberg,304.0
51.00388,10.903334,Rodeberg,313.0
51.00502,10.911827,Schweinsberge,320.0
50.837364,10.909607,Pfennigsberg,431.2
50.86368,10.87416,Roter Berg,361.5
50.949284,11.22488,Isserröder Höhe,386.0
50.89365,11.2245655,Steinberg,381.0
50.896076,11.200182,Galgenberg,402.0
50.933914,11.083002,Buchenberg,391.0
50.94268,11.109138,Hahnberg,317.0
50.936546,11.0456,Stunzelberg,348.0
50.94257,11.101375,Wartberg,306.0
50.927124,11.088431,Zeisigberg,402.0
50.902466,10.984879,Elsterberg,293.0
50.91001,11.00111,Mittelberg,300.0
50.68685,11.098721,Finsterlohkopf,501.0
50.980366,11.295034,Galgenberg,270.0
50.971348,11.30679,Kirschberg,282.0
50.7625,10.559664,Gabelskopf,743.0
50.66816,10.779791,Brand,885.0
50.802853,10.948195,Pappelberg,419.0
50.509888,11.380351,Spitzberg,594.0
50.993282,10.9428,Salomonsborner Höhe,318.0
50.881958,10.991092,Schülzenburg,267.0
50.864193,10.843303,Schloßleite,400.0
50.637432,10.852606,Diebskamm,696.0
50.634624,10.847815,Lauersberg,747.0
50.64019,10.867703,Mühlberg,652.0
50.82435,10.962678,Kübelberg,318.0
50.667915,10.96398,Knieberg,508.0
50.923943,11.015261,Raffenberg,305.0
50.718513,10.628759,Kuhstein,625.0
50.718964,10.622274,Sportplatzfelsen,636.0
50.740246,11.384776,Hoher Berg,401.0
50.54181,11.176917,Dürrer Berg,661.0
50.53776,11.174911,Geiersbachkopf,718.0
50.543682,11.172369,Hühnertalskopf,656.0
50.536583,11.167786,Langer Berg,716.0
50.53209,11.166337,Langer Berg,725.0
50.525307,11.162334,Rückersbiel,756.0
50.53217,11.180396,Sauhügel,722.0
50.57611,10.855356,Großes Riesenhaupt,764.0
50.835747,11.192316,Langer Berg,451.0
50.827072,11.195324,Windberg,484.0
50.82627,11.232237,Langer Stein,473.0
50.82706,11.220316,Salzberg,479.0
50.845913,11.21894,Ruhmberg,411.0
50.84734,11.160029,Reinhardtsberg,460.0
50.84837,11.245564,Böttelborner Berg,403.0
50.781193,11.191741,Weidenberg,490.0
50.754,11.191711,Buchenberg,469.0
50.89472,10.800235,Schmallhügel,312.0
50.617428,11.379815,Heiliger Berg,305.0
50.50531,11.034316,Großer Farmdenkopf,868.0
50.822872,10.94104,Alteburg,398.0
51.323627,11.091504,Buchberg,245.0
51.33179,11.055741,Dietzberg,226.0
51.32659,11.096574,Fürstenberg,253.0
51.315063,11.101055,Hostienberg,364.0
51.31726,11.078367,Lauberkopf,390.0
51.317516,11.111416,Mittelberg,248.0
51.32002,11.115389,Scharfenberg,276.0
51.31776,11.123502,Wartenberg,293.0
51.439846,10.626566,Galgenberg,311.0
50.94685,10.7549715,Sankt Peter,309.0
51.02124,10.95588,Krähenberg,219.0
51.04141,10.926049,Steinberg,198.0
51.035686,10.925363,Geiersberg,221.0
51.035408,10.948751,Hühnerbiel,190.0
50.76516,10.760459,Siegelberg,734.0
50.98272,10.952877,Rosenberg,321.0
50.667667,10.518028,Buchenberg,561.0
50.627068,10.665677,Glaskopf,709.0
50.70905,11.231084,Steiger,502.0
50.68907,11.345522,Preilipper Kuppe,405.5
50.672443,10.514439,Kleiner Dolmar,574.0
50.66459,10.516859,Dicker Berg,535.0
50.657974,10.535864,Steinrücke,538.0
50.660973,10.543855,Gleichen Berg,497.0
50.6744,10.535438,Breiter Berg,474.0
50.678246,10.546515,Erlesberg,471.0
50.68126,10.535225,Kuhlkopf,434.0
50.690838,10.518499,Mühlberg,413.0
50.644493,10.532321,Ochsenbachskopf,502.0
50.63968,10.534941,Tellerberg,513.0
50.642178,10.50759,Beckenschlagskopf,514.0
50.91675,11.325316,Buhrhügel,296.4
50.92122,11.342852,Heiliger Berg,338.3
50.92324,11.317905,Rosenberg,379.9
51.446445,10.5252495,Krajaer Kopf,459.7
51.427197,10.533331,Teichkopf,430.7
51.426376,10.515693,Egelskopf,446.9
50.66613,10.764061,Schneekopf,978.0
51.329254,11.002818,Kahler Berg,376.0
50.724457,11.274295,Schirmberg,395.0
50.735146,11.399044,Kirchberg,317.0
50.724396,11.320573,Hain,343.0
50.67839,11.345786,Lositz,353.0
50.69751,11.340836,Laubberg,286.0
50.741272,11.255172,Wolfsberg,458.0
50.74619,11.255644,Mittelberg,426.0
50.737507,11.243842,Vogelberg,478.0
50.704773,11.243231,Geiersleite,517.0
50.710396,11.264881,Steinberg,473.0
50.69371,11.277461,Hofelberg,415.0
50.696175,10.830538,Hohe Warte,765.0
50.904633,11.221319,Kesselberg,471.0
51.411793,11.076542,Kulpenberg,473.6
51.413734,11.1063795,Kyffhäuserburgberg,439.7
51.42427,11.064856,Berg der Rothenburg,350.0
51.368088,11.104065,Schlachtberg,271.0
51.377026,10.832885,Frauenberg,411.3
51.43173,10.872266,Eichenberg,272.8
51.417336,10.939788,Heidemaul,311.4
51.42269,10.941525,Eichenbiel,246.7
51.424118,10.947677,Eisberg,204.5
51.43269,11.40122,Abraumhalde Nienstedt,100.0
50.517456,11.038242,Wurzelberg,843.0
50.82003,10.556989,Brandkopf,632.1
50.57352,10.698044,Steinige Bössel,637.0
50.591003,10.658186,Haardt,558.4
50.590073,10.636285,Haak,546.8
50.59659,10.633693,Vorderer Haak,471.1
50.585987,10.641052,Oberer Haak,583.2
50.57236,10.640899,Kirchberg,651.8
50.578796,10.655408,Dorntalskopf,578.0
50.60579,11.218672,Sommerberg,425.0
51.014908,11.259231,Großer Ettersberg,481.6
50.698742,11.428142,Johannesberg,411.0
50.69757,11.407328,Schatzberg,387.0
50.683517,11.462345,Sachsenkopf,422.0
50.688274,11.496463,Dachsberg,400.0
50.69915,11.494832,Steinrücken,418.0
50.733223,11.49024,Schafberg,361.0
50.706978,11.359424,Langer Berg,354.0
50.740833,11.360603,Haselberge,355.0
50.720417,10.757306,Hohe Warte,776.0
50.700912,10.752166,Eckardtskopf,815.0
50.70416,10.776165,Ausgebrannter Stein,695.0
50.65831,11.262113,Schwarzer Berg,576.0
50.65704,11.271382,Lerchenhügel,555.0
50.650543,11.268877,Trebenkopf,571.0
50.644207,11.264162,Brandhügel,623.0
50.640244,11.268936,Wetzstein,625.0
50.653557,11.281242,Mittelberg,504.0
50.651134,11.231219,Dittersdorfer Höhe,572.0
50.67295,11.227619,Ebene,512.0
50.69618,11.24124,Heidenberg,381.0
50.712086,11.21268,Gölitzberg,500.0
50.718975,11.250869,Kirschberg,461.0
50.655304,11.126458,Milchberg,437.0
51.286774,11.303388,Enzianberg,333.0
50.577755,10.632082,Ehrenberg,657.8
50.726337,10.672049,Saukopf,869.0
50.72053,10.684152,Alter Berg,852.0
50.716927,10.713621,Mittelberg,748.0
50.721214,10.721789,Wadeberg,773.0
50.722343,10.739826,Lärchenkopf,762.0
50.717503,10.761535,Sieglitzkopf,764.0
50.638268,10.604564,Albrechtser Berg,505.0
50.62849,10.626948,Aschenkopf,556.0
50.696102,10.790176,Bettelmannskopf,703.0
50.63508,10.668097,Böhmerberg,668.0
50.684753,10.724713,Brandleite,879.0
50.636963,10.643027,Brautfelsen,608.0
50.693672,10.736669,Buchskopf,825.0
50.61228,10.602061,Eulskopf,514.0
50.642002,10.806423,Finsterberger Köpfchen,875.0
50.643097,10.65568,Fuchsstein,696.0
50.712456,10.745933,Gabelkopf,771.0
50.660183,10.791163,Geraweg,844.0
50.612892,10.745114,Großer Erleshügel,839.0
50.584827,10.795617,Großer Herrenhügel,699.0
50.553513,10.696857,Hoherod,621.0
50.555798,10.726869,Kahler Berg,503.0
50.668907,10.5682,Kirchberg,463.0
50.58828,10.787579,Kleiner Herrenhügel,713.0
50.582794,10.778459,Lange Leite,763.0
50.559113,10.7220335,Lange Scheit,587.0
50.60611,10.667777,Lautenberg,506.0
50.617332,10.582584,Mühlbachs Kopf,520.0
50.631668,10.827644,Leitelstaler Kopf,736.0
50.619644,10.62937,Lenkberg,486.0
50.706104,10.735002,Löffelbühl,812.0
50.690056,10.723531,Pfanntalskopf,868.0
50.599483,10.802379,Pechhüttenhügel,691.0
50.61128,10.569907,Pelzkopf,544.0
50.64923,10.647087,Regenberg,706.0
50.702843,10.8021555,Rainweg,655.0
50.56143,10.675628,Rückbreche,630.0
50.566994,10.750012,Rühschlagberg,577.0
50.640003,10.62691,Schäfersberg,632.0
50.68902,10.592938,Scheitelkopf,646.0
50.616474,10.701438,Schelrod,497.0
50.55206,10.688551,Schinglerskopf,545.0
50.5598,10.6889515,Schleusinger Berg,663.0
50.71238,10.72886,Schlossbergkopf,827.0
50.624527,10.593043,Schorn,574.0
50.59598,10.7697935,Schüsslers Höhe,859.0
50.569115,10.683013,Sommerberg,565.0
50.584896,10.620263,Steinbühl,609.0
50.646786,10.6273775,Steinrücke,716.0
50.687576,10.793903,Steiniger Hügel,702.0
50.62197,10.5808525,Steinbruch,524.0
50.65813,10.770557,Teufelskreis,967.0
50.711563,10.770611,Tragberg,731.0
50.651455,10.579059,Türle,490.0
50.573498,10.788508,Ziegenrück,682.0
51.240345,11.280169,Künzelsberg,380.1
50.723183,10.577348,Hoher Berg,723.0
51.21931,11.360149,Schockholzberg,344.0
50.61995,11.336475,Grenzberg,540.0
50.902306,11.300206,Adelsberg,416.0
50.914528,11.272374,Hexenberg,434.0
50.893066,11.364681,Kötsch,497.0
50.74686,11.33277,Hohefahrtskopf,391.0
50.757298,11.316948,Riesenberg,397.0
50.753983,11.311283,Schenkenberg,346.0
50.74607,11.290555,Kuppe,456.0
50.702328,11.139836,Wolfsgrube,467.0
50.703403,11.152582,Platte,466.0
50.71881,11.149578,Cossau,492.0
50.733597,11.176539,Fuchswarte,497.0
50.719044,11.203598,Forstberg,465.0
50.727184,11.201269,Geiersberg,444.0
50.725494,11.189897,Mittelberg,469.0
50.71854,11.170198,Wache,506.0
50.710426,11.187258,Bohr,420.0
50.850292,10.504065,Hirschstein,613.0
50.864532,10.865908,Blumenberg,290.0
51.12537,10.960317,Henschleber Berg,183.0
51.10069,10.971137,Kantorberg,174.0
51.124,10.932583,Klausberg,171.0
50.73087,10.803465,Schiebigenberg,517.0
51.044147,10.51294,Beerberg,393.0
50.52596,10.61652,Burgberg,427.0
50.74727,10.561429,Salzkopf,815.0
50.53428,10.67701,Kuhberg,501.0
50.76225,10.925938,Rabenkopf,572.0
50.918518,10.503682,Krackenberg,413.0
50.793827,10.656451,Vogelherdskopf,633.0
50.64334,10.613487,Regenberg,640.0
51.052338,10.773244,Abtsberg,413.0
50.69812,10.540692,Altersbacher Berg,497.0
50.92131,11.305629,Herlitzenberg,370.6
50.87208,10.582225,Wachkopf,456.0
50.67076,10.918843,Floßberg,638.0
51.010372,10.543857,Leichberg,325.0
51.01784,10.568517,Tüngedaer Höhe,328.0
51.017834,10.584976,Lohberg,333.0
51.000267,10.566568,Einhög,283.0
50.962395,10.543228,Hainberg,391.0
50.938766,10.613409,Alsberg,351.0
50.958286,10.642514,Kriegberg,410.0
50.95927,10.673599,Galberg,363.0
50.96735,10.650985,Krahnberg,431.0
50.92125,10.511308,Steinberg,373.0
50.902756,10.514778,Ölberg,381.0
50.905075,10.534013,Kalkberg,362.8
50.88767,10.502767,Töpfersberg,422.0
50.94596,10.597992,Hessenberg,326.0
50.592613,10.94652,Edelmannskopf,816.0
50.53494,10.805067,Eisenhügel,589.0
50.50666,10.652286,Apfelberg,469.0
50.555,10.807828,Audeberg,701.0
50.624157,10.964753,Bärenkopf,671.0
50.552612,10.801637,Burgberg,644.0
50.60252,10.834873,Gersheit,761.0
50.62661,10.992011,Gyckelberg,598.0
50.510452,10.837826,Glasersberg,544.0
50.63197,10.843795,Lauersberg,747.0
50.62556,10.841774,Reifberg,743.0
50.613194,10.843245,Kleine Hohe Warte,760.0
50.602444,10.856228,Meisenhügel,789.0
50.593987,10.871024,Rennwegkopf,751.0
50.61426,10.955561,Silberberg,771.0
50.60872,10.957377,Hohe Schlaufe,747.0
50.602745,10.9579315,Rehmhügel,771.0
50.623928,10.981404,Vorderes Schmiedenhaupt,669.0
50.62238,10.972084,Hinteres Schmiedenhaupt,680.0
50.597424,11.016996,Mühlberg,648.0
50.56313,10.786675,Saaleberg,605.0
50.564533,10.807461,Wagenberg,698.0
50.5697,10.862392,Kleines Riesenhaupt,761.0
50.56496,10.934222,Kohlhieb,790.0
50.59018,10.955268,Reichelberg,821.0
50.550747,10.643268,Sandberg,533.0
50.55875,10.795397,Mittelbühl,540.0
50.55361,10.843157,Trockentalskopf,666.0
50.54715,10.86979,Mittelberg,704.0
50.552925,10.874627,Schleuseberg,658.0
50.550636,10.913544,Märterskopf,747.0
50.555454,10.923904,Kahr,741.0
50.557224,10.932741,Neubrunnskopf,770.0
50.549675,11.002566,Oelzer Rain,698.0
50.561546,11.02095,Oelzer Stieg,672.0
50.537895,10.64411,Wiesenberg,518.0
50.542778,10.68085,Heerlesberg,507.0
50.52619,10.678283,Steinberg,495.0
50.535896,10.843459,Schoppenkopf,646.0
50.540047,10.854993,Kalter Staudenkopf,768.0
50.52749,10.927134,Löffelberg,710.0
50.500034,10.706906,Rappelsdorfer Kuppe,486.0
50.500122,10.840301,Hornkuppe,578.0
50.50199,10.856616,Schreibersberg,619.0
50.500423,11.023656,Pechseifenberg,794.0
50.519665,10.659352,Katzenberg,503.0
50.51824,10.666743,Neuhofer Berg,524.0
50.51846,10.709722,Neuer Berg,534.0
50.512238,10.712631,Hoher Berg,494.0
50.51074,10.729241,Haardt,472.0
50.504337,10.75932,Weißer Berg,426.0
50.516937,10.843033,Katzenstirn,603.0
50.509483,10.84831,Steinberg,552.0
50.508816,10.859408,Herrnberg,607.0
50.921635,10.502376,Fießbacher Kopf,391.0
50.893032,10.526627,Sommerberg,419.0
50.8848,10.526785,Tabarzer Berg,440.3
50.887398,10.541175,Striemelsberg,451.0
50.87593,10.542395,Finstere Tanne,519.9
50.879543,10.551903,Hohe Wurzel,467.0
50.884747,10.555919,Eichberg,432.0
50.881527,10.562446,Ziegelberg,426.0
50.880352,10.708904,Bornberg,366.0
50.898327,10.546207,Ziegenberg,410.0
50.91605,10.638011,Memelberg,346.0
50.865147,10.519385,Zimmerberg,629.7
50.865227,10.611915,Eichberg,397.0
50.850662,10.630306,Dammberg,444.0
50.85066,10.670907,Hirzberg,401.0
50.852673,10.744933,Hühnernest,402.0
50.841274,10.979151,Kirchberg,295.0
50.85449,10.537909,Abtsberg,697.0
50.846645,10.553242,Schauenburg,633.0
50.848763,10.5821705,Heidelberg,584.0
50.82122,10.539282,Spießberg,749.0
50.835857,10.655853,Wachkopf,485.0
50.804485,10.547981,Oberer Pirschhauskopf,735.0
50.800537,10.5960655,Gänseberg,571.0
50.80475,10.596861,Dritteberg,528.0
50.815342,10.606772,Seeberger Kopf,541.0
50.819622,10.634027,Knie,489.0
50.808754,10.662413,Totenkopf,633.0
50.804638,10.671151,Brandkopf,672.0
50.800613,10.679304,Ziegelberg,673.0
50.803696,10.897185,Haart,451.0
50.81892,10.97982,Käfernburg,383.0
50.811806,11.016832,Hopfenberg,352.0
50.790752,10.530583,Hinterer Höhenberg,814.0
50.795597,10.60417,Köpfchen,524.0
50.78681,10.65205,Mittelrain,623.0
50.793022,10.67422,Steinkopf,688.0
50.788063,10.706308,Ziegenböhler,558.0
50.781837,10.939448,Ilmsenberg,575.0
50.781315,10.508536,Bärentalkopf,616.0
50.77604,10.520075,Vorderer Höhenberg,793.0
50.779507,10.583157,Großer Mittelrain,662.0
50.77143,10.635716,Stummelberg,649.0
50.780174,10.650292,Hohe Schlaufe,673.0
50.780804,10.666247,Auerhahnsbalze,739.0
50.770687,10.673614,Spitze,742.0
50.778847,10.741492,Kienberg,720.0
50.773445,10.745303,Querberg,706.0
50.776295,11.004806,Osterberg,412.0
50.74846,10.538999,Lichtenbachstein,726.0
50.751625,10.530866,Rödersberg,691.0
50.766094,10.639256,Steinbühl,648.0
50.762814,10.648908,Nadelöhr,687.0
50.754627,10.6695795,Trockentalskopf,755.0
50.757824,10.683727,Matteböhler,728.0
50.751495,10.695933,Kleiner Böhler,715.0
50.766304,10.7005205,Streitberg,699.0
50.754726,10.730919,Krippenkopf,639.0
50.758568,10.7648115,Eisenberg,712.0
50.75201,10.76468,Steiger,702.0
50.748905,10.7587595,Ensebachskopf,699.0
50.753124,10.829069,Oberkopf,456.0
50.76365,10.848418,Hoher Berg,449.0
50.752373,10.875549,Rippersdorfer Berg,439.0
50.764194,10.968492,Schnakenhügel,431.0
50.749073,10.994442,Sandberg,476.0
50.75416,11.013341,Trassdorfer Berg,470.0
50.741013,10.524367,Rinderberg,565.0
50.74258,10.626099,Hubenstein,791.0
50.744034,10.636348,Ölberg,760.0
50.740402,10.681945,Großer Münzeberg,774.0
50.73359,10.6890745,Kleiner Münzeberg,794.0
50.743473,10.700635,Kammerbacher,714.0
50.74719,10.704466,Großer Böhler,712.0
50.739338,10.769612,Borzelberg,677.0
50.733093,10.76716,Kleine Hohe Warte,666.0
50.738167,10.7834425,Bergmannskopf,616.0
50.74288,10.795956,Waldsberg,483.0
50.73595,10.81494,Weiße Steine,539.0
50.73713,10.979193,Lange Leite,448.0
50.709106,10.506044,Franzenberg,535.0
50.711845,10.511696,Dörnberg,624.0
50.707417,10.538611,Kohlberg,570.0
50.707436,10.8255205,Kieferleite,606.0
50.704384,10.884739,Henneberger Leite,560.0
50.6775,10.503015,Tenneberg,500.0
50.681698,10.544892,Hergeser Berg,481.0
50.692287,10.544074,Steinbacher Berg,513.0
50.67661,11.110182,Wolfsberg,466.0
50.66507,11.05861,Buchenberg,499.0
50.66223,11.131457,Mühlberg,407.0
50.669575,11.156937,Burgberg,389.0
50.66308,11.161341,Weinberg,411.0
50.63248,10.509258,Engegrundkopf,521.0
50.625397,10.515755,Haardtberg,511.0
50.6205,10.514698,Großer Sandberg,510.0
50.62503,10.545003,Lodenberg,468.0
50.62426,11.01198,Schieferrand,744.0
50.618793,11.019759,Langer Berg,808.0
50.621426,11.072492,Milchberg,579.0
50.617714,11.084997,Fichtig,629.0
50.641354,11.137153,Geiersberg,522.0
50.62374,11.128725,Talberg,577.0
50.62199,11.198481,Eichberg,487.0
50.62284,11.24532,Winterleite,603.0
50.629326,11.253929,Schaßbachshügel,616.0
50.62087,11.465364,Gössitzberg,515.0
50.560715,10.523305,Hölschberg,503.0
50.55739,10.53097,Hetzert,492.0
50.551308,10.54782,Hohenrod,471.0
50.56581,10.552749,Griesberg,407.0
50.567432,10.605267,Eichenberg,614.0
50.5632,10.622187,Galgenberg,632.0
50.604137,10.534703,Gickelberg,471.0
50.60912,10.541437,Meisenbachskopf,506.0
50.613125,10.536433,Osterkuppe,488.0
50.609024,10.562675,Schulzenkopf,531.0
50.538715,10.519393,Rotenberg,474.0
50.542904,10.5311985,Kienberg,444.0
50.531876,10.539189,Krayenberg,428.0
50.519184,10.5143385,Michelsberg,496.0
50.5137,10.525586,Schattenberg,468.0
50.505444,10.522181,Rosengarten,483.0
50.512077,10.5349865,Wolfsberg,458.0
50.520367,10.61842,Windberg,444.0
50.61538,11.06606,Hasenberg,631.0
50.60739,11.054962,Ehrenberg,601.0
50.59874,11.055586,Beerberg,667.0
50.61113,11.094187,Wehfuß,589.0
50.613163,11.119323,Stinberg,587.0
50.599136,11.1208515,Lichtenhainer Höhe,606.0
50.600048,11.150885,Roter Steinberg,627.0
50.59813,11.038731,Milchberg,676.0
50.589764,11.072151,Hirschkamm,543.0
50.590668,11.1362705,Falkenhügel,697.0
50.595272,11.225924,Hoher Berg,575.0
50.59154,11.284618,Mittelberg,665.0
50.59635,11.378072,Lübs,504.0
50.589638,11.4552555,Langerodberg,551.0
50.59119,11.480444,Quitschen,567.0
50.595417,11.48462,Spitze Telle,516.0
50.582592,11.041688,Kirchberg,635.0
50.589527,11.048812,Große Grube,648.0
50.58164,11.054692,Mühlleite,620.0
50.58109,11.113283,Meilerberg,627.0
50.577957,11.119079,Mittelberg,697.0
50.58136,11.124431,Steinbruchsberg,671.0
50.58315,11.134843,Galgenhügel,695.0
50.57896,11.156666,Wurmberg,749.0
50.581966,11.193323,Hundewarte,556.0
50.577995,11.228085,Hasenhügel,698.0
50.580948,11.3343525,Eichenstock,540.0
50.58246,11.348714,Hundsberg,567.0
50.583344,11.364656,Oberstein,456.0
50.58264,11.427082,Pfaffenberg,493.0
50.57502,11.453946,Löhmberg,501.0
50.585064,11.4642515,Biel,551.0
50.58825,11.488909,Jakobshügel,558.0
50.568066,11.037054,Metzenhain,681.0
50.56377,11.054749,Ungeheuer,573.0
50.563595,11.280679,Lange Wand,642.0
50.563046,11.301665,Schmiedeberg,570.0
50.57358,11.324962,Speckhügel,548.0
50.571503,11.330561,Weinberg,546.0
50.5694,11.404127,Scheitingshügel,570.0
50.569126,11.438748,Mühlberg,467.0
50.5581,11.046066,Scheffelsberg,608.0
50.55143,11.044596,Birkenhaupt,575.0
50.560368,11.085746,Viehberg,640.0
50.56208,11.149235,Schanze,760.0
50.56018,11.173647,Poppenberg,703.0
50.55105,11.307396,Ebenwand,632.0
50.551704,11.321784,Talberg,561.0
50.558002,11.345341,Schabs,400.0
50.55996,11.358981,Druidenkuppe,544.0
50.558666,11.399185,Bühl,596.0
50.55041,11.416218,Katzenhügel,586.0
50.55898,11.426328,Eichelberg,462.0
50.557472,11.442945,Rodaer Berg,506.0
50.551548,11.44159,Kubel,551.0
50.55352,11.457468,Schleifberg,504.0
50.559853,11.489168,Fauler Berg,553.0
50.558434,11.4948015,Buchenhügel,578.0
50.54772,11.083329,Rosenberg,716.0
50.538822,11.094271,Sautenburg,629.0
50.536697,11.127676,Selig,730.0
50.533485,11.139654,Steinbiel,745.0
50.54816,11.152663,Köhlersheide,672.0
50.534035,11.194145,Petersburg,640.0
50.532898,11.238538,Kippenbühl,710.0
50.5391,11.242058,Mainholzberg,691.0
50.538864,11.256353,Hingberg,697.0
50.53352,11.277221,Börskuppe,549.0
50.535606,11.285438,Stachelberg,615.0
50.535892,11.318722,Spitzberg,605.0
50.536793,11.326924,Bocksberg,592.0
50.54733,11.329958,Kirchberg,489.0
50.53734,11.34197,Bocksberg,573.0
50.533463,11.346257,Frauenstein,522.0
50.546665,11.394494,Gabelsberg,518.0
50.543755,11.486942,Kleiner Mittelberg,537.0
50.547398,11.34176,Pfarrberg,522.0
50.531124,11.0211935,Haspiseifenberg,621.0
50.526833,11.082951,Lindigkopf,739.0
50.522377,11.12201,Schloßhügel,758.0
50.531406,11.198332,Spitzberg,691.0
50.528156,11.218611,Sommerberg,701.0
50.520767,11.243198,Winterberg,700.0
50.52469,11.257157,Bühl,595.0
50.523136,11.268253,Mühlberg,647.0
50.523075,11.2923565,Winterberg,558.0
50.53114,11.297978,Hainkuppe,571.0
50.53066,11.3078785,Kindelberg,573.0
50.531174,11.338025,Pfergberg,501.0
50.53154,11.356416,Kuppenhügel,496.0
50.520943,11.368531,Alte Burg,622.0
50.525127,11.400699,Pöhlberg,543.0
50.521248,11.421289,Reichelrod,590.0
50.526566,11.46643,Kuppe,576.0
50.527184,11.493728,Mittelberg,595.0
50.512188,11.046761,Jungferbornskopf,758.0
50.515087,11.155807,Apelsberg,785.0
50.511986,11.192629,Mittelberg,804.0
50.51776,11.259317,Zapfenberg,729.0
50.51831,11.27839,Eichberg,615.0
50.51062,11.304785,Friedlersberg,649.0
50.510895,11.319577,Beerhügel,725.0
50.507248,11.327566,Kohlstatt,726.0
50.5183,11.399336,Hopfsberg,508.0
50.500847,11.379216,Schwarzer Berg,627.0
50.503654,11.422795,Hofgelänge,628.0
50.502235,11.478637,Steinbühl,622.0
51.128113,11.086101,Kranichborner Hügel,204.0
51.135532,11.063676,Die Burg,175.0
51.230137,10.706569,Lehdenberg,368.0
51.43216,10.567597,Vogelbergklippen,430.0
51.212418,10.769305,Großer Horn,356.5
50.701363,10.609763,Sonnenplatte,770.0
50.700874,10.612189,Sonniger Hermann,810.0
50.702976,10.608926,Unterer Hermannsbergstein,760.0
50.88049,10.543155,Mittelberg,472.7
51.265427,11.18994,Himmelberg,159.9
51.252365,11.2119875,Wallsberg,174.2
51.246143,11.215727,Segelberg,191.0
51.499577,10.67537,Haferunger Berg,228.0
51.49553,10.668691,Wiestädter Steinberg,238.0
51.488224,10.706914,Riethberg,239.0
51.499157,10.618118,Strutberg,248.0
51.465633,10.697889,Schernberg,291.7
51.417572,10.893703,Lehnberg,343.0
51.479504,10.678538,Sonnenberg,236.0
51.481003,10.654423,Molkenberg,270.0
51.4766,10.625526,Erster Berg,289.0
51.470493,10.631968,Kronberg,266.7
51.46026,10.584723,Großer Windberg,282.0
51.456776,10.583947,Kl. Windberg,271.0
51.489746,10.555342,Himbeerberg,329.0
51.470478,10.554527,Heidelberg,295.0
51.473106,10.579677,Stäcksberg,303.0
51.493317,10.602678,Ziegenberg,263.0
51.48052,10.643206,Strutberg,278.0
51.47625,10.723715,Rangenberg,251.0
51.462738,10.713553,Butterberg,298.8
51.436333,10.769135,Turmberg,281.0
51.444885,10.760074,Turmheide,264.0
50.74026,10.638827,Bärgrabenwächter,670.0
50.742256,10.640476,Gothaer Turm,670.0
50.751038,10.653971,Röllchen,610.0
51.00815,10.641498,Steinbühl,267.0
50.803745,10.7957115,Wachhügel,462.0
50.661453,10.90068,Schwarzbrunnerkopf,715.0
50.654774,10.882156,Langebachskopf,780.0
51.234985,11.378551,Seligenbornsberg,355.4
50.739113,10.58143,Schmalkalder Loibe,886.0
50.700554,10.705277,Schützenberg,904.0
50.80189,10.98004,Vogelsberg,365.0
50.854492,10.869202,Heckenberg,384.0
50.95236,10.976452,Langer Berg,298.0
51.12305,11.131098,Katzenhügel,189.0
51.114277,11.135833,Lautershügel,193.0
50.738285,10.654978,Liliputaner,745.0
50.750877,10.65369,Speckröllchen,610.0
50.75148,10.648281,Altenfels,650.0
50.68294,11.123656,Wasserturm Horba,477.0
51.403553,10.714104,Teilberg,443.0
51.397346,10.731285,Rauchenberg,416.0
51.39341,10.760079,Sargberg,409.0
51.38907,10.774755,Stufenberg,387.0
51.38495,10.787049,Kirchberg,368.0
51.432007,10.81565,Kirchberg,307.0
51.446217,10.786684,Sternberg,278.0
51.42491,10.799763,Lichter Kopf,320.0
51.41462,10.8008375,Steinpiel,298.0
51.421696,10.827087,Heiliger Berg,331.0
51.417316,10.841826,Paßberg,354.0
51.418083,10.863616,Ameisenkopf,326.0
51.40745,10.881346,Hammaer Steinberg,360.0
51.411278,10.909182,Triebelsberg,285.0
51.406006,10.92605,Königslehde,341.0
51.408432,10.963225,Gartenberg,276.0
51.418606,10.981429,Stöckei,309.0
50.680687,10.667646,Heinrichsbacher Stein,750.0
51.133335,11.418265,Donnersberg,198.0
50.771297,10.821311,Habichtsleite,490.0
51.021484,11.3496275,Schanze,344.0
51.37585,11.049328,Spatenberg,266.1
51.30818,11.297787,Hessenköpfchen,226.8
51.174652,11.062277,Galgenberg,207.0
51.17243,11.069342,Tunzenhäuser Höhe,199.0
51.170746,11.109719,Bersdorfer Höhe,138.0
51.151997,11.087208,Luthershöhe,141.0
51.409874,10.647016,Der Berg,451.0
51.40198,10.679674,Steckenberg,423.0
51.39501,10.672812,Dornberg,431.0
51.38136,10.686361,Galgenberg,414.7
51.373882,10.655743,Sperlingsberg,418.0
51.366608,10.653071,Nonnenburg,408.0
51.402866,10.577015,Katzenburg,476.0
51.403996,10.503205,Galgenberg,328.0
51.390682,10.520401,Hohe Eiche,355.0
51.378914,10.506465,Sandberg,350.0
51.097813,10.631802,Sülzenberg,242.0
51.054123,11.082758,Galgenhügel,222.0
51.04246,11.021443,Osterberg,183.0
51.043327,11.013955,Kirchberg,180.0
51.024246,11.081255,Schwabenberg,234.0
51.0314,11.077539,Schinderberg,220.0
51.02829,11.067604,Fuchsberg,204.0
51.020943,11.09505,Großer Katzenberg,236.0
51.01643,11.078414,Herrschaftsberg,230.0
51.028736,11.104702,Kleiner Katzenberg,236.0
50.69862,10.767513,Pökerkopf,645.0
50.891865,11.116266,Wolfsberg,478.4
50.888702,11.139992,Katzenberg,487.6
50.620834,11.375347,Kulm,336.0
50.853893,10.755658,Hundsbrunn,426.0
50.84649,10.776858,Günthersberg,458.0
51.11725,11.24442,Stöllborner Berg,238.0
51.403862,10.723691,Zengenberg,416.0
51.067604,11.264709,Kornberg,221.0
51.433212,10.843773,Steinberg,309.0
50.53371,10.5346775,Gründelberg,423.0
50.766903,11.041047,Griesheimer Berg,433.0
50.755867,11.0251045,Traßdorfer Berg,453.0
50.766083,11.077114,Buchberg,458.0
50.769733,11.024702,Polsenberg,405.0
50.78981,11.038635,Mittelhöhe,420.0
50.781895,11.049725,Andreasberg,413.0
50.783463,11.07572,Sperlingsberg,425.0
50.75666,11.087636,Edelmannsberg,495.0
50.76031,11.087342,Hamsterberg,485.0
50.748848,11.081717,Läuseberg,457.0
50.746918,11.08997,Eichberg,440.0
50.764366,11.098286,Spitzer Hügel,509.0
50.768288,11.105671,Kleiner Hund,500.0
50.767017,11.119977,Großer Hund,525.0
50.773895,11.109707,Haunberg,506.0
50.771748,11.128484,Döllstedter Berg,527.0
50.7716,11.138684,Weinberg,488.0
50.795105,11.135157,Osterberg,422.0
50.799652,11.130885,Hettstedter Berg,446.0
50.737747,11.067618,Kaffenberg,460.0
50.75442,11.166365,Galgenberg,461.0
51.024715,11.388412,Bärenhügel,313.0
51.49423,10.644754,Kirchberg bei Immenrode,240.3
51.478107,10.610041,Kirchberg bei Kehmstedt,278.3
51.487633,10.613363,Hühnerberg,260.0
51.494053,10.62149,Wenkeberg,245.7
51.49739,10.601322,Schweinsberg,253.0
51.495876,10.513208,Bauerberg,361.0
51.486526,10.509811,Teichmühlberg,336.0
51.405144,10.76531,Sonnenlieten,231.0
51.40791,10.757723,Sauberg,229.0
51.4057,10.743507,Weinberg,250.0
51.46408,10.669526,Hinterster Berg,289.0
51.482903,10.722146,Wechsunger Berg,234.0
51.47408,10.734009,Kramberg,232.0
51.468903,10.76572,Warteberg,241.0
51.47056,10.755945,Stadtberg,231.0
51.4674,10.793446,Kesselberg,214.0
51.496174,10.866456,Kirchberg,221.0
51.488873,10.8709545,Linsenberg,207.0
51.47875,10.929112,Kahler Berg,209.6
51.436436,10.849367,Lindey,281.0
51.42948,10.835169,Mittelberg (Windleite),302.0
51.431118,10.821899,Radeberg,303.0
51.433624,10.878415,Galgenberg,245.0
51.42406,10.894404,Hühnerberg bei Hamma,240.5
51.4152,10.884695,Gartenberg,348.0
51.413193,10.9005,Steinberg,317.0
51.405224,10.895089,Heidelberg (Windleite),361.0
51.408035,10.910369,Mittelberg bei Auleben,278.0
51.40796,10.922085,Kolberg,338.0
51.310978,10.993254,Kranichberg,382.0
51.32616,10.96904,Sperberecke,382.0
51.332214,10.955147,Rippolde,298.0
51.329063,10.986846,Spitalsberg,363.0
51.322235,11.023152,Schloßberg,354.0
51.314034,11.033389,Kohnstein,242.0
51.33501,10.907074,Steinberg,398.0
51.340088,10.905679,Zwieselköpfe,361.0
51.33895,10.913481,Heldenstein,351.0
51.342197,10.896227,Großer Gehrenberg,375.0
51.330685,10.815299,Schalkenberg,358.0
51.351627,10.805979,Westerberg,366.0
51.379642,10.806411,Hagenberg,393.0
51.371487,10.806952,Mittelberg,385.0
51.41705,10.811612,Wickenkopf,290.0
51.416367,10.782879,Mühlenberg,244.0
51.464504,10.603185,Leimberg,273.0
51.46571,10.599076,Windberg bei Kehmstedt,273.5
51.45047,10.52656,Kirchberg,340.0
51.4793,10.518736,Hardt,334.0
51.445175,10.631553,Kupferberg,261.5
51.44514,10.615822,Kirschberg,279.0
51.440998,10.6159725,Mittelberg,250.5
51.42813,10.579645,Dachsberg,318.0
51.428635,10.636031,Kalkberg,282.0
51.432693,10.644148,Soldenberg,273.0
51.38941,10.535782,Kriegsberg,471.0
51.400322,10.552177,Kattstein,460.7
51.40712,10.58011,Goldkopf,316.0
51.37096,10.522345,Schönberg,498.2
51.377796,10.532668,Nußberg,466.0
51.36987,10.510135,Kornberg,373.0
51.386887,10.50009,Trumpenberg,360.0
51.401012,10.50821,Mittelberg,308.0
51.390423,10.57767,Mittelberg bei Friedrichsrode,441.0
51.38552,10.598061,Feuerkopf,435.0
51.04894,11.028262,Stotternheimer Höhe,184.0
51.447693,10.745523,Schatberg,242.0
51.427162,10.755224,Die Warte,236.7
51.395386,10.739695,Gemeindeberg,407.3
51.397892,10.717211,Mittelberg bei Wernrode,419.4
51.3754,10.946891,Schöne Leite,356.2
51.373924,10.954947,Hohe Berge,354.3
51.36712,10.961229,Kannawurfer Kopf,317.1
51.363667,10.968331,Papenbielskopf,307.3
51.360382,10.976301,Kiebitzkopf,282.1
51.358612,10.982147,Kämmersberg,302.3
51.356052,10.988835,Kuhberg,271.4
51.35477,10.992521,Ziegenberg,270.1
51.352074,10.993822,Rettenberg,267.4
51.34737,10.995496,Unterer Rettenberg,242.5
51.342907,11.029391,Heideberg,256.4
51.343445,11.035434,Mittelkopf,257.2
51.343994,11.058811,Seegaer Berg,287.4
51.355152,11.027039,Rottleber Berg,212.7
51.363667,10.930248,Kutschersberg,284.8
51.383564,10.930097,Zimmerberg,374.4
51.389767,10.938851,Winterkopf,351.5
51.387604,10.964951,Hundsberg,330.1
51.38027,10.986089,Weinberg,220.2
51.375053,11.021744,Sperlingslehde,187.8
51.381714,11.019666,Mittelberg,181.7
51.40239,11.009418,Schorn,241.7
51.412167,10.992114,Leede,265.6
51.4148,10.988784,Hohnberg,264.0
51.395164,10.986844,Eichenbiel,310.6
51.39211,11.099515,Rehkopf,361.3
51.381542,11.107491,Hüttenberg,355.8
51.384098,11.08821,Wehbank,375.2
51.38001,11.073999,Großer Schweinskopf,303.3
51.3794,11.082514,Kleiner Schweinskopf,317.4
51.38306,11.059022,Großer Herrnkopf,330.6
51.38524,11.054164,Spionskopf,318.4
51.389072,11.0458765,Ochsenburg,288.5
51.380207,11.042446,Falkenburg,282.7
51.37388,11.059885,Breitenberg,271.6
51.373356,11.065623,Königsberg,247.5
51.36647,11.083121,Kosackenberg,222.7
51.368446,11.095761,Klocksberg,258.2
51.4359,11.160483,Mittelkopf,244.0
51.417744,11.105516,Bärenköpfe,308.1
51.441826,11.128804,Mondskopf,228.6
51.438347,11.117474,Kleiner Weinberg,217.2
51.432194,11.15904,Weinberge,235.9
51.453876,11.057733,Hornissenberg,177.7
51.453266,11.068273,Beyersberg,167.2
51.41683,11.086312,Sittendorfer Köpfe,462.8
51.408237,11.12128,Brandberg,369.0
51.39801,11.128281,Schneeberge,393.5
51.37303,11.151664,Wendelhügel,225.8
51.364758,11.139662,Lückenhügel,209.1
51.36345,11.168921,Tonberg,180.1
51.37487,11.194656,Riemberg,185.3
51.39122,11.161983,Rote Sole,296.5
51.354523,10.858334,Dorn,411.0
51.162193,10.804513,Großurlebener Berg,218.3
50.700146,10.668249,Kleiner Falkenstein,810.0
51.251457,10.857434,Sperlingsberg,259.6
51.249878,10.758372,Schorfberg,300.3
51.270935,10.759207,Ebeleber Berg,277.0
51.27183,10.723573,Mark,282.1
51.31782,10.737236,Hotzenberg,315.9
51.31202,10.728807,Feuerkuppe,310.5
51.30599,10.735705,Großer Weinberg,309.6
51.300575,10.756115,Kleiner Weinberg,299.7
51.30707,10.750604,Körnersberg,290.6
51.303562,10.919267,Sandberg,386.0
51.26915,10.9899025,Polarsch,234.8
51.27756,11.031376,Galgenberg,206.2
51.28914,11.002796,Trebraer Höhe,263.0
51.252563,10.9144,Güntherberg,225.3
51.25416,10.888675,Querberg,201.8
51.264927,10.880219,Alte Burg,232.2
51.26641,10.870556,Burg,203.3
51.230915,10.904093,Zengenhöck,235.5
51.247433,10.880884,Rotenberg,245.4
51.240814,10.858888,Hasenberg,265.8
51.237667,10.854929,Spangenberg,268.4
51.23925,10.975827,Sauberg,178.1
51.233395,11.015554,Plündershügel,214.8
51.229603,11.018918,Wolfsberg,193.6
51.23266,11.031096,Pfingstberg,209.2
51.225704,11.046733,Totenhügel,189.1
51.23715,11.042851,Schwummberg,191.4
51.247623,11.0511265,Lohberg,219.7
51.251606,11.042138,Angerberg,220.8
51.253437,11.001685,Rainberg,204.3
51.252487,10.987788,Weinberg (b. Niedertopfstedt),194.0
51.32307,10.800603,Butterberg,313.1
51.31983,10.755528,Seeberg,330.5
51.296402,10.771733,Kastenberg,300.8
51.287975,10.775361,Roter Berg,271.3
51.256966,10.519749,Forstberg,395.4
51.26174,10.543273,Hopfenberg,335.5
51.305202,10.535753,Harnisch,463.2
51.31224,10.5395355,Heiligenberg,453.0
51.318073,10.586377,Steinberg,403.2
