latitude,longitude,name,elevation
-24.05,142.8,Commissioner Mountain,319.0
-24.395834,142.92555,Mount Affleck,305.0
-24.378334,142.92473,Mount Doubletop,272.0
-24.213333,142.57056,Mount Fairview,243.0
-24.163889,142.80722,Mount Felix,355.0
-24.151388,142.7561,Mount Flat Top,319.0
-24.262222,142.685,Mount Senex,249.0
-23.52861,142.8689,Mount Vergemont,319.0
-24.25361,142.93083,Mount Warbreccan,264.0
