latitude,longitude,name,elevation
50.255478,8.544139,Herzberg,591.4
50.2466,8.537979,Bleibeskopf,480.0
49.64612,8.648497,Schloßberg,295.0
49.976883,9.177862,Godelsberg,252.0
49.971874,9.18739,Büchelberg,269.0
50.268475,8.589099,Gickelsburg,471.0
50.116154,9.38501,Erkelshöhe,517.0
50.188065,9.2491,Galgenberg,393.0
49.932846,9.240342,Pfaffenberg,432.0
49.729935,8.684426,Felsberg,514.0
49.96907,9.2287445,Hommelshorn,311.0
49.98893,8.591797,Oberwaldberg,145.0
50.200916,8.518231,Hünerberg,375.0
50.23462,8.520594,Lindenberg,541.0
49.836956,8.665549,Prinzenberg,241.0
49.84941,8.672469,Herrgottsberg,227.0
50.402946,8.600809,Brüler Berg,424.0
49.74123,9.264763,Ospis,439.0
50.26862,8.599657,Hesselberg,461.0
50.124264,9.060099,Buchenkopf,220.0
49.990532,9.192104,Kugelberg,234.0
49.72496,8.636892,Melibokus,517.4
49.687443,8.626505,Kirchberg,220.6
50.270348,8.635587,Bornberg,301.0
50.2724,8.603564,Gaulskopf,434.0
50.28934,8.605793,Graueberg,456.0
50.264652,8.541128,Hollerkopf,616.0
50.26147,8.536579,Kieshübel,633.0
50.258343,8.527477,Roßkopf,632.4
50.257137,8.5191555,Einsiedler,606.6
50.254173,8.511431,Eichkopf,620.2
50.266754,8.612713,Rehköpfe,385.0
50.3115,9.015259,Glauberg,276.0
50.320866,8.598225,Heßberg,337.0
50.312645,8.581144,Schlink,380.0
50.312016,8.59795,Süßeberg,390.0
50.39963,8.568451,Hesselberg,518.0
50.402813,8.566872,Gickel,505.0
50.409588,8.576176,Hainbuchenkopf,493.0
50.382206,8.561459,Mühlkopf,383.0
50.373337,8.548841,Hasenberg,420.0
50.396404,8.546463,Donnerskopf,486.0
50.39439,8.535369,Vorderer Köppel,460.0
50.411552,8.615448,Hausberg,486.0
50.01382,9.158707,Grauer Stein,312.0
50.36424,8.559926,Eichkopf,395.0
50.247707,8.503062,Klingenkopf,682.7
49.626854,8.711101,Zigeunerkopf,359.0
49.586243,8.751124,Hemgesberg,291.0
49.618202,8.735152,Bismarkskopf,264.0
49.532696,8.683428,Geiersberg,340.0
49.512436,8.676664,Hundskopf,283.0
50.487003,9.277025,Herchenhainer Höhe,733.0
50.495968,9.202914,Bilstein,666.0
49.522247,8.803833,Stiefelhöhe,589.0
50.18744,9.367298,Bieberhöhe,533.0
49.53908,8.803744,Hardberg,593.0
49.51875,8.762826,Daumberg,462.0
49.679882,8.699324,Heiligenberg,496.0
50.098473,9.441805,Wellersberg,479.0
50.206093,9.319651,Geiersberg,385.0
50.20934,9.336894,Hubertsberg,408.0
50.189186,9.384421,Horst,541.0
50.148075,9.225072,Franzosenkopf,481.0
49.72479,9.309395,Wannenberg,482.0
50.078907,9.481548,Ernsthöhe,460.0
49.615696,8.697165,Großes Köpfchen,376.0
50.49427,9.248867,Rehberg,670.0
49.68834,8.785895,Schenkenberg,481.0
49.696976,8.77863,Das Buch,535.0
49.683525,8.797656,Heidelberg,321.0
49.680126,8.791311,Knabenberg,327.0
49.67509,8.808917,Großes Köpfchen,315.9
49.67627,8.831288,Stotz,476.2
49.675526,8.780353,Kapp,347.0
49.604446,8.802739,Tromm,576.8
49.71102,8.771467,Raupenstein,545.0
49.718914,8.770098,Neunkircher Höhe,605.0
49.684113,8.730904,Krehberg,575.0
49.69667,8.710744,Knodener Kopf,511.2
49.852325,9.259705,Faulenberg,384.0
49.846626,9.258876,Hesselsberg,397.0
49.855583,9.239525,Eichelsberg,416.0
49.86214,9.25608,Häuschenshöhe,410.0
50.3652,8.5433035,Pfaffenkopf,397.0
49.968937,9.493863,Hirschhöhe,536.0
49.737553,9.227392,Nebelkappe,267.0
49.93103,9.457963,Hoher Knuck,539.0
49.783607,9.289979,Geiersberg,512.0
49.94574,9.154152,Erbig,285.0
49.949368,9.151841,Sternberg,256.0
49.933334,9.214253,Spiesknückl,358.0
49.93604,9.223297,Weißberg,358.0
49.938793,9.241004,Meisberg,404.0
49.922073,9.224939,Altmannshöhe,346.0
49.939526,9.261699,Hägberg,355.0
49.953724,9.20463,Findberg,360.0
49.94495,9.222332,Rehberg,353.0
50.143085,9.276019,Tanzplatz,457.0
50.0199,9.318141,Lindenberg,402.0
50.13692,9.0778,Kirchberg,250.0
50.103367,8.800976,Schneckenberg,179.0
49.98822,9.368132,Miesberg,470.0
50.01058,9.362041,Hirschberg,416.0
50.007576,9.368514,Hetzberg,434.0
50.474957,9.252463,Ernstberg,626.0
49.998253,9.31478,Rindberg,434.0
50.00238,9.314594,Borberg,433.0
50.021824,8.751004,Ebertsberg,192.0
49.62868,8.690382,Kohlplatte,345.0
49.636116,8.709319,Salzkopf,391.0
49.621254,8.7283745,Taschengrube,297.0
49.656452,8.705795,Silbergrubenkopf,400.0
49.661003,8.675574,Lindenstein,455.0
49.56588,8.681082,Hirschkopf,345.7
49.708813,9.0448475,Schmalberg,380.5
49.985283,9.324327,Kreuzberg,457.0
49.98577,9.302751,Brandberg,410.0
49.700424,8.721834,Jennys Höhe,508.0
50.0266,9.101976,Langenberg,310.0
50.032986,9.114443,Königsstein,380.0
50.299248,8.997374,Enzheimer Kopf,220.0
49.543373,8.72911,Geiersberg,415.0
49.611202,8.750001,Wäschberg,218.0
49.809376,8.726018,Hoher Rodberg,337.0
49.6267,8.804983,Fahrenbacher Kopf,529.0
50.245007,9.335553,Eisenberg,286.0
50.029396,9.318685,Amberg,447.0
49.955677,9.445003,Roßelberg,405.0
49.978115,9.441174,Hengstkopf,506.0
49.91766,9.422109,Geierskopf,549.0
49.906654,9.430534,Geiersberg,586.0
50.20347,9.267989,Erkberg,252.0
50.199013,9.349343,Pfarrküppel,461.0
50.015232,9.372375,Schwarzkopf,460.0
50.241257,9.392937,Haselberg,388.0
49.88037,9.18258,Plattenberg,275.0
50.21236,9.150915,Herzberg,255.0
49.698,8.686927,Hohberg,372.0
50.22054,9.323235,Hühnerberg,340.0
49.68859,8.845912,Dachsberg,385.0
50.32693,8.660654,Steinkopf,518.0
50.226807,9.433778,Markberg,516.0
50.21994,9.373619,Wintersberg,434.0
50.409462,9.486879,Hoher Berg,467.7
50.170216,9.402992,Beilstein,499.5
49.893723,9.332622,Eselshöhe,433.0
49.754047,9.305384,Burgberg,363.0
49.767467,9.299755,Rotenberg,452.0
49.73698,9.333208,Schlossberg,441.0
49.728596,9.329148,Wannenhöhe,466.0
49.754696,9.339812,Tannenbuckel,400.0
49.76177,9.3543215,Ziegelberg,426.0
49.772507,9.284421,Schöllesberg,482.0
49.782726,9.346189,Fechenberg,312.0
49.787937,9.322412,Spreunersberg,426.0
49.804237,9.294017,Spitzenstein,484.0
49.668907,8.639422,Hemsberg,262.0
50.19248,9.429478,Schwarzer Berg,521.0
49.5618,8.815782,Galgenhöhe,451.0
50.31297,8.961681,Eichzipf,230.0
50.3188,8.944898,Krebsberg,209.0
50.342426,8.983803,Steinknarre,259.0
49.533264,8.706866,Gorxenkopf,312.0
49.90493,9.49055,Mittlere Bauhöhe,502.0
49.91223,9.47418,Hintere Bauhöhe,533.0
49.925053,9.449418,Bayerskopf,523.0
49.900593,9.418862,Lärchhöhe,573.0
49.885693,9.406631,Sonnhöh,572.0
49.862656,9.394014,Querberg,567.0
49.859776,9.406546,Kropfschnabel,550.0
49.844635,9.408252,Steinhirschel,511.0
49.86487,9.417618,Heideberg,539.0
50.463955,9.243475,Alte Burg,612.0
49.929245,9.407806,Bühl,404.0
49.9193,9.396734,Steinmarksrück,406.0
49.919773,9.441322,Weiherberg,517.0
49.897934,9.443083,Heinrichsruck,555.0
49.88714,9.459113,Palmshöhe,514.0
49.89011,9.443769,Aalberg,528.0
49.872158,9.40051,Hockenhöhe,568.0
49.872303,9.409652,Schwarzkopf,557.0
49.870117,9.395189,Hockenhöhe,558.0
49.858025,9.376207,Schneckenhöhe,509.0
49.848232,9.386778,Dachsbuckel,458.0
49.84458,9.388666,Bösberg,427.0
49.836555,9.366736,Hundsrückkopf,478.0
49.82955,9.361715,Dammberg,455.0
49.822437,9.364548,Müßhöhe,465.0
49.813244,9.360085,Nonnenbild,474.0
49.802414,9.358025,Nollberg,424.0
49.800808,9.375749,Kühebuckel,336.0
49.78496,9.361458,Heidenberg,313.0
49.658516,8.646993,Hubenhecke,269.0
49.803635,9.399357,Langenrainberg,321.0
49.811558,9.393263,Innerer Schilzberg,402.0
49.81056,9.422188,Hoher Berg,452.0
49.81416,9.413433,Kollenberg,430.0
49.794827,9.446735,Grohberg,237.0
49.824734,9.456049,Kirchelberg,395.0
49.779865,9.463043,Heckenkopf,336.0
49.79732,9.4736,Klosterberg,362.0
49.811058,9.471455,Klosterhöhe,399.0
49.818977,9.483471,Klosterberg,322.0
49.823353,9.488535,Hurstberg,342.0
49.83927,9.492397,Rehberg,380.0
49.842316,9.439654,Kropfberg,454.0
49.85404,9.461502,Pennberg,431.0
49.83243,9.426823,Eichhöhe,455.0
49.83205,9.40715,Tannenberg,423.0
49.76075,9.371778,Viermärker,392.0
49.76853,9.378388,Vorderer Berg,410.0
49.8411,9.321669,Geißhöhe,521.0
49.557243,8.73448,Hohe Harth,382.0
50.130684,9.201659,Kreuzberg,388.0
49.53298,8.694244,Goldkopf,324.0
49.772423,9.197591,Steig,306.0
49.7818,9.21286,Eicher,313.0
49.768425,9.200846,Hoberg,296.0
50.279,9.421126,Schönbornkopf,428.0
50.2729,9.458613,Schnepfenkopf,490.0
50.280224,9.341785,Münsterberg,351.0
50.306377,9.38167,Streuflingskopf,317.0
50.32165,9.405313,Katzenstein,382.0
50.31542,9.391206,Sandkopf,298.0
50.309456,9.490872,Bellinger Berg,344.8
49.612206,8.758609,Kreuzberg,215.0
49.606277,8.779848,Bannelshöhe,304.4
49.673187,8.686019,Eselsberg,441.0
49.679768,8.68778,Eichelberg,396.0
50.42517,8.558219,Altenwald,421.2
50.424202,8.586145,Gaulskopf,474.0
50.43135,8.531902,Höchstbaum,386.0
50.339066,8.642851,Gaulskopf,397.0
49.94472,9.195901,Stengerts,346.0
50.46698,8.521159,Köhlerberg,425.0
50.475452,8.569873,Schals Berg,353.0
50.412342,8.950247,Sommerberg,221.0
50.422077,8.950333,Schieferberg,219.0
50.395714,8.947586,Wannkopf,254.0
50.346977,8.91633,Hoher Berg,216.0
49.536358,8.77781,Hohberg,531.0
49.95054,9.298363,Buckelmanns Kreuz,464.0
49.543877,8.837908,Toter Mann,554.0
49.550385,8.829388,Kottenberg,551.0
49.553787,8.7565975,Kisselbusch,502.0
49.618034,8.659677,Taubenberg,257.0
49.634285,8.6508255,Essigkamm,231.0
50.44921,8.579839,Kümmelberg,356.0
49.73871,8.800717,Rimdidim,498.0
50.133858,9.464383,Widdehuh,508.0
50.111774,9.495744,Heiligenküppel,546.0
50.006126,9.4968605,Steckenlaubshöhe,542.0
50.085148,9.339393,Buchsohl,522.0
50.067196,9.4563055,Heuberg,364.0
50.131973,9.433978,Flörsbacher Höhe,531.0
50.119633,9.348844,Hoher Sang,482.0
50.11846,9.400772,Hirschberg,535.0
50.182575,9.410428,Hoher Berg,521.0
50.054195,9.38219,Sandkopf,483.0
50.042343,9.304813,Steigkoppe,502.0
50.03237,9.32927,Efflingsberg,447.0
50.022938,9.347171,Falkenberg,444.0
50.06876,9.320263,Spindelberg,518.0
50.068043,9.350589,Berg,476.0
50.07264,9.367384,Sandkaute,492.0
50.07998,9.412703,Sauberg,454.0
50.17279,9.483685,Königsberg,456.0
50.242996,9.497043,Stackenberg,464.0
49.539913,8.544993,Glockenbuckel,110.5
50.154797,9.470398,Hamberg,485.0
50.1675,9.49347,Querberg,460.0
50.14527,9.42561,Hohe Sohl,515.0
50.16768,9.461283,Wildfeldhöhe,464.0
50.14684,9.47214,Lernhöhe,526.0
50.137295,9.490723,Weicherstaler Höhe,476.0
50.031185,9.446027,Mühlkopf,377.0
50.026836,9.442529,Gräfberg,374.0
50.034832,9.405256,Baßhöhe,419.0
50.003025,9.407939,Rauhöhe,428.0
49.992073,9.410593,Valtinshöh,419.0
49.993214,9.475139,Weikertshöhe,546.0
49.98644,9.468996,Küppel,515.0
50.10779,9.398412,Haidküppel,478.0
49.528904,8.826703,Clemensenberg,527.0
49.52759,8.852066,Viehkopf,426.0
49.549515,8.86439,Lannertskopf,472.0
49.53757,8.835395,Stillfüssel,568.0
49.567463,8.839506,Königsbuckel,376.0
49.569942,8.852796,Bocksberg,481.0
49.59595,8.842001,Salz-Berg,452.0
49.60274,8.842594,Kochert,447.0
50.166206,9.302287,Kerkelberg,337.0
50.14782,9.316542,Kolberichberg,430.0
50.14722,9.366984,Burgberg,469.0
50.151188,9.353795,Burgberg,451.0
50.15096,9.343646,Galgenberg,372.0
49.708817,8.631729,Auerberg,345.9
50.19828,9.098756,Hühnerberg,183.0
50.184334,9.063994,Weinberg,200.0
50.196575,9.02728,Rödelberg,185.0
49.94415,9.14805,Judenberg,246.0
50.483757,8.544315,Petersberg,317.0
50.172035,9.196485,Hartenberg,202.0
50.177788,9.22484,Geisberg,286.0
50.171623,9.159953,Rauenberg,279.0
50.168877,9.147819,Niedermittlauer Heiligenkopf,259.0
50.21085,9.20142,Habernickel,334.2
50.209118,9.210718,Schnepfenkopf,323.4
50.218605,9.164351,Sommerberg,302.0
50.221172,9.181203,Kuhruh,333.1
49.5835,9.021003,Krähberg,554.9
49.537487,8.9922,Gickelsberg,554.0
50.11988,9.274325,Habersberg,428.0
50.110653,9.301716,Oberölberg,360.0
50.132336,9.273199,Menschenkopf,465.0
50.140255,9.254273,Glasberg,476.0
50.12785,9.266075,Herzberg,427.0
50.095146,9.213454,Buchberg,305.0
50.106964,9.262427,Koblensberg,299.0
50.137123,9.214321,Hinterer Gleisberg,336.0
50.140312,9.208011,Rochusberg,333.0
50.080616,9.225649,Kalmus,310.0
50.123474,9.217109,Ziegelberg,380.0
50.087887,9.2181835,Schneppenbacher Höhe,308.0
50.069405,9.206165,Hasselberg,321.0
50.100468,9.207669,Schöneberg,317.0
50.137863,9.228181,Hoher Berg,441.0
50.113678,9.229211,Eichenberg,309.0
50.13302,9.210845,Vorderer Gleisberg,352.0
50.101055,9.184307,Steinrücken,324.0
50.0359,9.252714,Birkerts,257.0
50.046776,9.2330265,Klosterberg,382.0
49.96193,9.397214,Herrleshöhe,443.0
49.971073,9.391243,Tiergartenberg,439.0
49.98479,9.401773,Geißberg,466.0
49.978664,9.404592,Gobertstein,452.0
49.976482,9.416393,Lohrer Berg,463.0
49.970245,9.418282,Sulzhöh,460.0
49.97353,9.484843,Hirschberg,535.0
50.099697,9.309937,Sommerberg,466.0
50.108433,9.319274,Ölberg,461.0
50.11247,9.330855,Steinberg,450.0
50.130554,9.336264,Rehberg,471.0
50.131985,9.362013,Hühnerberg,482.0
49.54268,8.738258,Steinkopf,409.0
49.831306,8.682532,Lindenberg,254.0
50.016914,9.381853,Stöckes,406.0
50.034283,9.356211,Adamsberg,439.0
50.038544,9.346106,Büttenberg,432.0
50.02782,9.381436,Kurze Rainhöhe,371.0
49.835968,8.684936,Kirchberg,280.0
50.01976,9.27438,Bischlingsberg,375.0
50.03954,8.769872,Hoher Berg,159.0
49.844585,8.679937,Dommerberg,264.0
49.85016,8.683709,Dachsberg,258.0
50.076477,9.293599,Geiershöhe,490.0
50.08856,9.269736,Reuschberg,415.0
50.044636,9.24387,Rottenberg,408.0
50.05366,9.169314,Glasberg,340.0
50.434242,8.56121,Schorn,460.0
49.711166,9.00422,Heuberg,353.0
49.694725,9.062916,Katzenbuckel,449.3
49.68348,9.05254,Kornberg,474.0
49.632496,8.951454,Geisberg,441.3
49.631657,9.017862,Hellberg,421.0
49.61639,9.018297,Kalteberg,510.7
49.678226,8.927864,Kirchberg,406.5
49.633514,9.02877,Zirkelberg,456.0
49.95952,9.490564,Kaulkopf,528.0
50.30914,8.675369,Kellerberg,356.8
50.30333,8.66946,Salzberg,341.1
49.565144,9.019432,Hesseheckenberg,502.0
49.5513,9.070145,Hohberg,493.1
49.551975,9.01897,Knosebuckel,509.9
49.555344,9.039149,Breitenhaupt,511.3
49.51016,9.020949,Sensberg,471.8
49.588955,9.123249,Hungerberg,487.0
49.594555,9.109636,Geierskopf,529.0
49.599083,9.115064,Finkenbuschkopf,542.0
49.632454,9.077043,Hainhäusel,531.0
49.75358,9.059028,Eckertsberg,392.6
49.748947,9.037917,Grohberg,340.8
49.7639,9.048062,Heidenberg,343.1
49.716816,8.969689,Hoher Berg,327.0
49.698223,8.921854,Hoher Zorn,455.0
49.745415,8.944412,Kirchberg,339.1
49.753365,8.949531,Müllert,322.7
49.715626,8.951875,Sandbuckel,332.3
49.729156,8.979456,Steinert,304.2
49.662403,8.918541,Kollerbuckel,436.0
49.66401,8.894524,Lärmfeuer,500.9
49.712296,8.886266,Burgberg,404.1
49.73465,8.923219,Galgenberg,413.0
49.723785,8.855885,Hasenbuckel,277.0
49.73106,8.853502,Hasenberg,259.6
49.71961,8.9194565,Heidelberg,443.0
49.729336,8.903914,Hoher Stein,389.0
49.707363,8.898745,Morsberg,516.7
49.762814,8.972431,Mönchshöhe,317.4
49.71652,8.847662,Reichenberg,308.3
49.78514,8.968825,Riedelberg,285.0
49.775665,8.918841,Schludroff,374.0
49.740715,8.895306,Schnellerts,351.1
49.692,8.908437,Spätstraßenberg,459.0
49.762627,8.927542,Tannenkopf,388.0
49.757175,8.909055,Vogelherd,371.0
49.708557,9.1452,Rauschen,455.8
49.79577,9.035626,Dammberg,366.3
49.79848,9.01714,Dusenbacher Kopf,300.0
49.712154,9.129505,Geißberg,419.0
49.784653,9.103806,Kirschberg,317.8
49.72229,9.143942,Landel,397.0
49.770462,9.122656,Boxberg,375.0
49.828224,9.064169,Arnheiter Berg,316.0
49.820305,9.040115,Breuberg,305.9
49.835617,9.06672,Buchberg,306.1
49.849583,9.051833,Eichelsberg,260.0
49.842457,9.080946,Neustädterhofkopf,262.0
49.846886,9.046565,Grenzberg,251.0
49.828037,9.022281,Scheuerberg,305.0
49.823048,9.079979,Heubusch,328.4
49.813217,9.119857,Karlshöhe,249.0
49.805744,9.111217,Sandrain,261.0
49.70527,8.982658,Zeller Kopf,354.9
49.647846,8.953691,Herrnberg,405.7
49.67378,9.095163,Auf der Höhe,504.0
49.627842,9.045524,Baurück,529.4
49.642975,9.070833,Roter Buckel,540.2
49.68684,9.110311,Sansenhöhe,478.0
49.53588,9.0282,Ameisenberg,477.5
49.511787,8.958567,Eckberg,410.7
49.575985,9.006461,Elseberg,518.0
49.542274,9.020213,Falkenberg,546.7
49.540993,8.961043,Freudenberg,445.8
49.539406,8.885694,Geiersberg,485.2
49.59035,9.006321,Güterberg,479.6
49.519436,9.041485,Haagbuckel,378.8
49.53123,9.021192,Hornisseberg,448.5
49.584354,9.039982,Mittelberg,506.6
49.614567,9.035295,Kohlberg,560.0
49.598114,9.037201,Rudelsberg,514.0
49.51917,8.98686,Sauersbuckel,474.8
49.60715,8.939763,Schnappgalgen,471.0
49.526012,9.005571,Schnuppenberg,506.4
49.53099,8.907155,Wetterberg,386.8
49.514706,9.028933,Wüstebuckel,402.0
49.641533,8.875351,Dachsberg,481.6
49.65525,8.857134,Kahlberg,520.6
49.63087,8.874154,Kirchberg,493.0
49.603413,8.879876,Affolterbacher Höhe,526.0
49.617146,8.875054,Spessartskopf,547.8
49.986244,9.197449,Gartenberg,309.0
50.03225,9.230377,Gräfenberg,380.0
49.953835,9.178959,Fußberg,209.0
50.342705,9.482819,Ohl,389.0
49.561665,8.8824415,Fichtelberg,492.3
49.512676,8.9433975,Wiesenberg,425.1
49.587833,8.873278,Kleiner Meisenberg,527.8
49.580296,8.859987,Meisenberg,539.5
49.56404,8.862372,Heckmannsbild,508.3
49.512516,8.880186,Breuningsberg,486.2
49.51753,8.845156,Rinke,489.0
49.768913,9.001344,Hardtberg,300.2
49.78491,8.914965,Hermesberg,381.0
49.73981,8.920675,Böllsteiner Höhe,416.0
50.15594,9.385669,Kuppe,430.0
50.103664,9.43132,Daxberg,471.0
50.149982,9.444401,Gaffenberg,468.0
49.95167,9.218187,Kaiselsberg,366.0
49.933174,9.200286,Geiersberg,297.0
49.94839,9.186027,Grauberg,253.0
49.9138,9.20061,Benzberg,280.0
49.917755,9.213621,Schloßberg,340.0
49.958282,9.199595,Elterberg,281.0
49.907303,9.169201,Hoheberg,215.0
49.909496,9.18099,Langebuchenberg,230.0
49.919037,9.179471,Sulzberg,217.0
49.975296,9.189575,Hasenkopf,253.0
49.964745,9.185247,Wendelberg,260.0
49.97278,9.215839,Buchberg,320.0
49.974453,9.213049,Kellerberg,330.0
49.97225,9.224814,Mistplatte,305.0
49.976208,9.202285,Schellberg,280.0
49.972248,9.20854,Stornberg,315.0
49.97773,9.209161,Mittelberg,282.0
49.968857,9.236194,Hammelsberg,259.0
49.97248,9.238938,Schmaleberg,274.0
49.983994,9.235619,Judenberg,254.0
49.953392,9.135432,Bischberg,187.0
49.657063,8.746155,Katzenberg,263.0
49.612083,8.701339,Kohlplatte,337.0
49.60351,8.754673,Krehhöhe,241.0
49.611115,8.682288,Käfernberg,328.0
49.634476,8.713673,Höhnberg,375.0
49.695004,8.723727,Knörschhügel,536.0
49.644585,8.710091,Steigkopf,340.0
49.612957,8.72889,Steinböhl,267.0
49.64977,8.677591,Weißer Berg,292.0
49.67101,8.776063,Galgenberg,269.4
49.632385,8.771333,Lerchenberg,226.6
49.627216,8.768874,Wolfsberg,210.9
49.948917,9.237172,Heinrichsberg,346.0
50.04481,9.110203,Haag,405.0
49.651814,8.815702,Erzberg,475.2
49.655613,8.778912,Gänsberg,247.5
49.666492,8.790854,Sauberg,233.6
49.635597,8.808306,Wagenberg,533.9
49.65384,8.82921,Eselsstein,448.0
49.609398,8.828237,Im Hubenstrich,446.8
49.687077,8.823012,Küfershöhe,333.8
49.625484,8.823378,Lenzenbuckel,491.2
49.695396,8.822585,Mühlberg,276.0
49.94923,8.777303,Dolmesberg,186.5
49.949657,8.767099,Messeler Höhe,195.5
49.921215,9.477909,Schnabelberg,463.0
49.92178,9.489241,Schloßberg,427.0
49.587868,8.680195,Bocksberg,347.0
49.603798,8.680728,Kreuzberg,372.0
50.440445,8.628515,Heidelbeerberg,385.0
49.587204,8.666492,Alteberg,235.0
50.222942,9.341691,Molkenberg,293.0
49.90876,9.454681,Weihersrain,485.0
49.897026,9.404882,Pauthner,526.0
49.94204,9.376981,Fraurain,450.0
49.93795,9.396988,Steinknückel,399.0
49.922306,9.4613,Bayersberg,517.0
49.954548,9.384256,Holzschnabel,426.0
49.968754,9.362979,Hirschkopf,475.0
49.606865,9.488125,Hockenberg,377.0
49.604336,9.482557,Wurmberg,356.0
49.52302,8.832291,Kautzekopf,558.0
50.091255,9.323795,Edelberg,477.0
50.21089,9.289008,Alteburgshöhe,294.0
50.211586,9.266284,Rehlingsberg,262.0
50.16124,9.272486,Katzenberg,418.0
49.819782,8.910874,Otzberg,368.0
49.919952,9.31707,Königshöhe,458.0
49.935944,9.335213,Spitzenberg,483.0
49.881393,9.272678,Eichelsberg,426.0
49.830956,9.324494,Agneshöhe,513.0
49.83594,9.3601675,Steckenberg,458.0
50.008125,9.440915,Brückberg,395.0
50.085938,9.451907,Wellberg,404.0
49.62377,8.67643,Steinkopf,402.0
49.814976,9.170051,Sandbuckel,228.0
49.73877,9.200852,Busigberg,341.0
49.618504,8.907315,In der Krätze,380.5
49.627354,8.927551,Lengertsberg,387.4
49.627304,8.911318,Mühlberg,397.0
49.60994,8.922073,Vogelherd,406.0
50.048897,8.673558,Sonnenhügel,125.0
49.781788,8.78226,Grasberg,244.0
49.788143,8.792269,Kohlstöcke,281.0
49.78131,8.8019905,Riedberg,203.1
49.76362,8.816539,Russberg,282.2
49.713387,8.811841,Buch,414.7
49.72794,8.793089,Germannshöhe,516.8
49.74696,8.800144,Hahlkopf,416.0
49.74166,8.785177,Steinkopf,451.0
49.705982,8.933841,Heidenbuckel,372.0
49.559532,8.860532,Metzgersrod,498.8
49.566776,8.881291,Taubenberg,482.1
50.464233,9.101973,Auerberg,305.0
50.48384,9.066575,Reipperts,366.2
50.48486,9.113882,Sauberg,331.0
50.485683,9.09587,Spies,268.1
50.497635,9.267129,Wildefeldskopf,692.0
49.633198,8.57259,Sachsenbuckel,110.0
49.628643,9.194954,Wolkmannberg,433.0
49.957596,9.243304,Korsberg,234.0
49.958824,9.260828,Steigknückel,353.0
49.9612,9.293371,Birkenberg,418.0
49.93782,9.288916,Buschhöhe,417.0
49.940624,9.314023,Steinberg,458.0
49.946316,9.31319,Wormsbuckel,459.0
49.925728,9.310471,Kaltenberg,444.0
49.908695,9.33823,Zeugplatte,478.0
49.91042,9.24599,Leiderberg,415.0
49.915447,9.240225,Salzleckenhöhe,419.0
49.908756,9.223566,Stutzberg,323.0
50.491943,8.833605,Lindenberg,203.0
50.0605,9.108376,Stempelhöhe,420.0
50.1805,9.150069,Meerholzer Heiligenkopf,262.0
50.451202,8.563957,Cleebaum,368.0
50.022705,9.232141,Hoher Ickel,251.0
50.013527,9.217641,Attigsberg,209.0
50.135136,9.152507,Riesenküppel,200.0
50.104527,9.149957,Heidkopf,371.0
50.087566,9.364688,Birkberg,480.0
49.953594,9.295379,Salzbuckel,439.0
50.00163,9.371657,Bösbornkopf,471.0
49.947006,9.276022,Dachsbuckel,407.0
49.950634,9.171981,Gnießen,185.0
49.952766,9.173932,Grubenhöhe,202.0
49.989723,9.206774,Kaupe,291.0
49.993343,9.216107,Schafberg,251.0
49.995853,9.216476,Steinbuckel,242.0
50.109505,9.173608,Stützelhöhe,318.0
49.99419,9.200776,Klinger,213.0
50.357204,9.366608,Pfannkopf,353.2
50.35466,9.354555,Abtstein,382.9
50.395187,9.330753,Großer Hohberg,460.0
50.392735,9.318704,Kleiner Hohberg,436.0
50.308544,9.340508,Taubenfeld,345.0
50.310383,9.321969,Alsbusch,327.0
50.10704,9.137769,Steinkaute,337.0
50.09042,9.428117,Eckhardskopf,452.0
50.38809,9.034062,Eschberg,328.0
50.38271,9.008603,Rühlskopf,226.0
50.358513,9.019116,Bieberberg,258.0
50.24873,9.096561,Nickel,194.0
50.256207,9.135982,Großer Reffenkopf,297.9
50.256382,9.149952,Hohe Hart,281.8
50.242756,9.160153,Wetzstein,252.0
49.99043,9.385395,Heidberg,458.0
49.936398,9.277803,Bildkopf,380.0
50.135284,9.391701,Hengstberg,515.0
49.756042,8.925096,Ballerts,376.0
49.767143,8.921584,Buchböhl,371.0
49.766212,8.910743,Steinberg,362.0
49.763123,8.921459,Backofenberg,373.0
50.477966,9.494246,Hellberg,502.4
49.99271,9.282278,Steinknückl,417.0
50.43034,9.124637,Forstwiesenkopf,319.0
50.42234,9.14305,Reitkopf,330.0
50.39227,9.121868,Höllberg,309.0
50.39698,9.130147,Saukopf,306.0
50.078373,9.10975,Hahnenkamm,435.0
50.081062,9.167073,Herrenberg,325.0
49.504856,9.372974,Buchenberg,432.0
49.5423,9.384052,Rehberg,450.0
49.739193,8.644904,Darsberg,373.0
49.748505,8.654254,Marienberg,331.0
49.756695,8.65667,Tannenberg,339.5
50.058,9.118649,Scharfenstein,376.0
50.20045,9.413735,Rosskopf,500.0
49.96214,9.441897,Buchhöhe,428.0
50.147003,9.056131,Mühlberg,220.0
50.071144,9.092408,Schanzenkopf,343.0
49.78317,8.667973,Langenberg,430.0
50.318565,8.6458435,Kuhkopf,500.0
50.311665,8.644414,Saukopf,480.0
50.30728,8.636277,Wellenberg,450.0
49.898415,9.260974,Heidenberg,351.0
49.90745,9.269575,Große Solhöhe,417.0
49.67734,8.705673,Kesselberg,531.0
49.695995,8.730838,Götzischberg,510.0
49.611866,9.300422,Waidstein,405.0
49.65022,9.44527,Leiterholzspitze,435.0
49.562565,9.36754,Hummelberg,432.0
49.89496,9.368705,Dammberg,459.0
49.889637,9.342611,Birkenhöh,436.0
49.573593,9.4173355,Walldürner Höhe,438.0
49.543232,9.492671,Hundsrück,366.0
49.564106,9.458055,Brunnenberg,416.0
49.528324,9.477395,Altheimer Höhe,408.0
49.59879,9.49222,Scherenberg,385.0
49.69513,9.292829,Sommerberg,442.0
49.723377,9.25276,Rühlesberg,401.0
49.600998,9.453735,Geisberg,385.0
49.67958,9.344802,Eichberg,391.0
49.528584,9.372,Eulsberg,450.0
49.551014,9.491775,Buschberg,375.0
49.586758,9.493915,Steinich,371.0
49.655983,9.323626,Dellbuckel,403.0
49.606647,9.218749,Atzberg,470.0
49.67938,9.240748,Geisbuckel,454.0
49.660606,9.397958,Gehackter Berg,392.0
49.57631,9.471191,Berg,392.0
49.504635,9.457614,Erbsberg,384.0
49.530933,9.451896,Lindenberg,396.0
49.91628,9.375706,Totenkupp,434.0
49.906715,9.384101,Heinrichsberg,457.0
49.932087,9.358829,Zwiebelrain,432.0
49.868786,9.362863,Heidenrain,432.0
49.869884,9.449014,Aalberg,470.0
49.531227,9.434938,Ebend,384.0
49.55672,9.30493,Welscheberg,449.0
49.691597,9.241426,Greinberg,452.0
49.51206,9.341558,Wartberg,400.0
50.177467,8.829946,Hühnerberg,197.0
49.59365,9.431994,Leutschenberg,442.0
50.006466,8.773018,Wingertsberg,198.0
49.994263,8.766616,Hexenberg,216.0
49.58785,9.448708,Kornberg,431.0
49.761894,9.27523,Langer Berg,445.0
49.750103,9.267609,Radstein,435.0
49.728287,9.255066,Hunnenstein,425.0
49.761585,9.226226,Reffelsberg,261.0
49.789,9.212441,Bischberg,320.0
49.80049,9.208246,Galgenberg,320.0
49.82811,9.185736,Platte,237.0
49.842358,9.223626,Bildeckhöhe,353.0
49.846577,9.207635,Heinchsthöhe,315.0
49.882465,9.206469,Dörnetshöhe,292.0
49.86954,9.199487,Kirchhöhe,281.0
49.89896,9.211875,Kleinheckenhöhe,268.0
49.92138,9.263446,Halbwasenberg,433.0
49.983387,9.370033,Seeberg,485.0
49.87018,9.300009,Kirchhöhe,355.0
49.964085,9.312477,Kauppen,361.0
49.924595,9.363888,Langenrain,437.0
49.987965,9.29231,Hockenbuckel,412.0
49.99585,9.273682,Brandenberg,345.0
49.97764,9.366551,Eselshöhe,481.0
50.046234,9.276662,Gersberg,491.0
50.024815,9.477349,Schneidberg,406.0
49.793564,9.4153595,Kühlberg,335.0
49.807083,9.337366,Heidenplatte,441.0
49.79303,9.349645,Kreuzhöhe,340.0
50.241417,8.532264,Landgrafenberg,410.0
49.881306,8.752889,Tannenkopf,226.0
49.512714,9.0935545,Salzlackenkopf,576.0
49.528915,9.098844,Schildenberg,552.0
49.529644,9.079726,Stutz,424.0
49.57345,9.121876,Hoheberg,464.0
49.514236,9.064772,Roter Sol,488.0
49.568237,9.159614,Höhe,522.0
49.58136,9.441581,Häuslesberg,433.0
49.577435,9.311805,Rübenberg,424.0
49.596752,9.179971,Preunscher Berg,484.0
49.57705,9.168737,Hörnle,502.0
50.051113,9.2050085,Kaltenberg,272.0
49.579853,9.108198,Der Kolli,547.5
49.71113,9.350891,Eichenbühlhöhe,397.0
49.762043,9.45621,Oberer Berg,361.0
49.772434,9.425748,Unterer Berg,386.0
49.865105,8.945152,Hainrich,264.0
49.87691,8.943119,Herrnberg,256.0
49.88346,8.971822,Oberhöhe,327.0
49.653164,9.170674,Winkelberg,484.0
49.64141,9.15502,Emichshöhe,505.0
49.6373,9.155524,Reißberg,504.0
49.64524,9.122778,Emichskopf,500.0
49.647602,9.137918,Ortelshöhe,494.0
49.52388,8.540791,Steinbuckel,104.0
49.576294,9.44493,Hardheimer Höhe,432.0
49.506195,8.68573,Heidenloch,352.0
49.89931,9.100332,Höhenberg,224.0
49.901974,9.097981,Hainberg,184.0
49.89122,9.101424,Dachsberg,231.0
49.540104,8.76965,Waldskopf,538.0
49.65357,9.250485,Hüttenberg,434.0
49.65484,9.21375,Gotthardsberg,299.0
49.65338,9.237545,Sommerberg,430.0
50.030598,8.782603,Steinberg,152.0
49.807972,9.019906,Borberg,323.0
50.0338,9.309197,Kammberg,413.0
49.535244,9.1226635,Kinzert,553.2
49.558117,9.102722,Hohwald,552.8
49.954617,9.350749,Eichhöhe,472.0
49.570396,8.683067,Saukopf,348.0
50.038532,9.281005,Querberg,371.0
50.10574,9.345389,Eselshöhe,489.0
50.403282,8.539353,Eselsberg,439.0
49.946045,9.418922,Zuber,422.0
50.027435,9.205964,Münchberg,262.0
50.01757,9.413216,Hohberg,386.0
49.533726,8.510561,Rodelhügel,104.0
49.55489,8.588569,Schinnersbuckel,106.0
49.52244,8.579844,Bettenberg,104.3
49.59015,8.542899,Scharrbuckel,103.3
50.031036,9.262115,Schafberg,201.0
49.596375,8.535358,Bettelbuckel,101.6
49.983795,9.34689,Autenberg,440.0
50.063168,9.428193,Rehrain,411.0
50.086414,8.692101,Lerchesberg,148.0
50.295902,9.024122,Weinberg,189.0
49.811317,8.678658,Kohlberg,270.0
49.82525,8.677836,Bordenberg,257.0
50.08239,9.436553,Heuberg,423.0
49.877647,9.326976,Dürrenberg,422.0
49.89937,9.316999,Steiniger Berg,405.0
49.725903,8.716594,Knorz,404.0
50.047256,9.241219,Rehkopf,395.0
50.458344,9.302799,Völzberger Köpfchen,570.8
50.061493,9.346528,Bornrain,447.0
49.57027,9.099732,Hohe Langhälde,548.0
50.03717,9.441396,Hockhöhe,367.0
50.379364,8.626504,Gerhardsköppel,310.0
50.2433,9.365969,Große Kuppe,411.0
50.254215,9.389614,Kleine Kuppe,364.0
50.25075,9.406382,Kohlplatte,358.0
50.24733,9.420095,Gretenberg,386.0
49.994286,9.462502,Sturmkopf,543.0
49.843056,8.660819,Ludwigshöhe,242.0
49.575813,9.131442,Spielberg,416.0
49.58562,9.1434555,Mühlschwang,348.0
49.937286,9.472129,Saubuckel,379.0
49.86538,9.26994,Höllenberg,397.0
50.37182,8.60264,Am weissen Stein,328.0
50.09653,9.496458,Grenzkopf,536.0
50.345337,9.337906,Maiküppel,360.2
50.349308,9.377173,Pfaffenkopf,346.0
49.509953,8.797024,Leonhardsberg,536.0
49.525497,8.693881,Bachberg,305.0
49.50721,9.099992,Köpfchen,571.0
49.50687,9.114979,Hart,580.8
49.506542,9.133729,Reisenberg,567.8
49.546684,9.102959,Sachsenberg,499.3
49.51584,9.133594,Dickbuckel,564.0
50.08734,9.123056,Giftiger Berg,414.0
50.07509,9.111513,Kriegelberg,395.0
50.05014,9.101796,Rabengrundkopf,395.0
50.122173,9.183057,Steinchen,336.0
49.806587,8.7011,Kirschberg,302.4
49.821472,8.717913,Finstere Hölle,285.0
50.25382,9.189506,Eichelkopf,386.0
50.24857,9.168517,Franzosenhau,260.0
49.721542,9.298281,Bürgstädter Berg,463.0
50.23724,9.070906,Steinkopf,268.5
50.22419,9.08314,Franzosenkopf,201.0
50.241585,9.0768,Casimirskopf,245.6
50.056374,9.261007,Leitersberg,433.0
50.031723,9.293293,Steigkopf,423.0
50.054886,9.258446,Kuppe,423.0
50.34625,8.573802,Hessenkopf,325.0
50.210835,9.398575,Wegscheideküppel,446.0
50.226994,9.395496,Kleiner Markberg,364.0
50.226936,9.454635,Reichersberg,445.0
50.255726,9.459946,Totenkopf,497.0
50.188713,9.300926,Büchelstein,365.0
50.177723,9.309853,Untersteiniger Berg,443.0
49.9728,9.4692955,Gaulberg,489.0
49.802197,9.124596,Schneesberg,246.0
50.368847,8.71636,Eichberg,269.0
50.321487,8.87421,Schwarzer Berg,141.0
50.30914,8.942981,Honigberg,214.0
50.368702,8.928235,Eichelberg,225.0
50.361717,8.905469,Strenzelberg,165.0
50.365112,8.726259,Johannisberg,264.84
50.317223,8.668763,Mainzer Kopf,420.0
50.323357,8.658247,Dachskopf,512.6
49.720642,8.746096,Rauenstein,454.0
49.57933,8.825686,Vatzenberg,452.0
49.630535,8.834532,Hilsigbuckel,475.0
49.6213,8.8357525,Hardt,435.0
49.568966,8.89061,Menschenkopf,428.0
50.41427,9.393203,Winterberg,519.8
49.680542,8.868965,Roter Berg,333.0
49.699936,8.857139,Pfeffersberg,316.0
49.699875,8.85105,Leimberg,263.0
49.696373,8.839087,Klössbuckel,367.0
49.691544,8.836646,Schmelzbuckel,365.0
49.683968,8.840388,Range,410.0
49.68824,8.894091,Stutz,465.0
49.58026,8.839132,Hallenstrich,512.0
49.679703,8.85496,Steinkopf,331.0
49.82823,8.968221,Burzelberg,352.0
49.897083,9.223546,First,274.0
50.376896,9.223875,Wetzberg,369.2
49.813015,8.711229,Mühlberg,265.0
49.833416,8.714344,Kaiserberg,257.0
50.137253,9.269357,Hoher Querberg,474.0
49.587833,8.781974,Fockenberg,384.0
49.503494,8.722399,Steinberg,428.5
50.37716,8.619276,Eichberg,300.0
49.555763,8.80899,Rotzenberg,512.0
49.55314,8.770589,Götzenstein,522.0
50.35744,8.9740505,Golschlu,170.0
50.353657,9.293954,Kutschenstein,369.0
50.34058,9.279892,Poppenstein,380.0
50.363396,9.287582,Charlottenfels,368.0
50.358578,9.2796335,Wernerstein,415.0
50.368793,9.278665,Kloskopf,402.0
50.09843,9.018536,Birkenkopf,120.0
50.159657,9.233912,Raue Heil,435.4
49.81131,8.72915,Silberberg,328.0
49.84096,8.758748,Einspacher Höhe,263.0
49.840176,8.666703,Wilbrandhöhe,235.0
50.269318,8.574187,Fröhlichemannskopf,465.0
49.50257,8.865315,Flockenbusch,511.0
49.558624,9.021766,Riesenhöhe,504.0
49.606228,9.093208,Auf der Höhe,513.0
49.64119,8.839776,Weihwesel,507.0
49.555634,9.13395,Fuchsenfeld,521.0
49.51531,9.080374,Bauwald,528.0
49.513977,9.146191,Höhe,540.0
49.81777,8.674717,Schleifberg,195.0
49.8254,8.672041,Büchelsberg,216.4
49.620693,8.849663,Hammelberg,491.0
50.333534,8.666797,Winterstein,482.0
49.72844,8.765033,Westergiebel,555.0
49.725704,8.758638,Gehrenstein,526.0
50.448826,9.391205,Naxberg,553.6
50.283962,9.487676,Eisenkopf,463.0
50.466972,9.401556,Horst,553.0
50.275066,9.186362,Sandkopf,329.0
50.277298,9.25611,Köhlersberg,395.1
50.277355,9.230554,Dachsberg,392.0
50.33456,9.239094,Graskuppel,372.8
50.329155,9.2326355,Herzberg,401.4
50.34487,9.31727,Kleiner Kreuzberg,329.0
50.33851,9.309073,Großer Kreuzberg,313.7
50.36976,9.348078,Apfelberg,418.9
50.37559,9.358056,Hoheroth,401.6
50.383472,9.315623,Altesberg,386.9
50.429012,9.387098,Röderküppel,503.0
50.49219,9.483824,Rehberg,442.2
50.1183,9.076149,Altenmarkskopf,269.0
50.361706,9.482504,Melmetz,361.8
50.372375,9.497463,Bühl,411.5
50.37823,9.488462,Wilder Stein,443.9
50.412308,9.496189,Storker Küppel,468.0
50.430706,9.435837,Atzenstein,478.4
50.41285,9.43345,Röllberg,481.0
50.407894,9.45257,Steinmauer,447.4
50.365665,9.41637,Galgenberg,421.3
50.368423,9.433652,Bilzberg,422.4
50.268703,9.494924,Dischenstein,470.2
50.17841,9.29261,Käsberg,337.8
50.342964,9.42855,Schwadelsberg,391.0
50.21367,9.427777,Sommerberg,486.9
50.34561,9.491452,Dehnenkopf,350.0
49.542744,8.845241,Schötzenberg,495.5
49.530067,8.8854065,Hasselrain,452.0
49.59798,9.057438,Dautenberg,516.0
49.570427,9.03159,Kohlebuckel,522.0
49.62113,9.11472,Maikopf,509.0
49.621464,8.812367,Schard,535.0
49.62862,9.087009,Kohlich,525.0
49.614178,9.11014,Roschberg,512.0
49.617325,9.095703,Schweinsrücken,519.0
50.28956,9.439445,Happel,379.0
49.602627,8.672723,Kreuzberg,340.0
49.54556,8.994771,Sensbacher Höhe,558.0
49.562473,9.000523,Selsersberg,540.0
49.56995,8.811768,Hühnereck,464.0
49.83708,8.765084,Rödersberg,265.8
49.806705,8.741452,Schloßberg,280.0
50.447914,9.349067,Hundsloh,513.2
50.34339,9.204975,Wickenstein,299.6
50.372837,9.213394,Herrnberg,340.7
50.33461,9.135449,Paulstein,328.6
50.338985,9.110725,Betten,352.7
50.33545,9.0603695,Schönau,266.7
50.329704,9.142203,Zeilstein,363.5
50.324158,9.154713,Moosberg,378.4
50.314323,9.151322,Steinröde,377.4
50.310204,9.168194,Homburg,276.0
50.362568,9.167206,Roteberg,360.9
50.436882,9.257663,Reichelstein,497.8
50.39762,9.252275,Reugenstein,429.8
50.391136,9.260504,Seemer Berg,393.6
50.39668,9.265855,Rollenburg,390.5
50.467655,9.291932,Weißer Stein,607.0
50.356663,9.182968,Honigberg,354.3
50.4124,9.249065,Hermannsloh,476.0
50.40447,9.219741,Kernberg,459.6
50.399963,9.208771,Kaff,442.7
50.404457,9.176624,Steinern,364.9
50.372734,9.434235,Schlüchterner Berg,423.7
50.457672,9.46442,Einfallsküppel,469.0
50.400593,9.441461,Kaupe,468.7
49.56253,8.817738,Galgenhöhe,455.5
49.561245,8.832363,Geisberg,430.7
49.86348,8.7201,Rabennest,236.0
49.81306,8.801885,Knöll,241.0
50.1333,9.307605,Kapuzinerspitze,421.0
50.46674,9.454379,Rödern,481.5
50.47556,9.484914,Kohlberg,480.6
50.232574,9.268094,Aspenhainer Kopf,260.0
50.218224,9.2219925,Rausch,259.0
49.744747,8.834405,Güttersbacher Höhe,256.0
49.711105,9.350481,Eichenbühlhöhe,397.0
50.342674,9.482773,Ohl,389.0
50.278805,9.4767885,Eisenberg,469.6
50.238304,9.032736,Florstädter Berg,245.0
50.214165,9.248932,Der Berg,281.0
50.20813,9.245518,Stempelberg,262.0
50.350315,9.115486,Schießeburgskopf,301.6
50.35326,9.131981,Rauheberg,330.2
50.358173,9.148085,Hohleberg,345.0
50.345383,9.169604,Keckenstein,392.6
50.332253,9.180017,Lerchenberg,317.9
50.323483,9.177782,Lauterstein,320.5
50.285873,9.17787,Geiskopf,345.2
50.222355,9.069752,Kuhberg,204.0
50.216473,9.07989,Kaninchenkopf,167.5
50.21249,9.087609,Ochsenberg,170.5
50.220512,9.120578,Röthen,170.8
50.231148,9.231841,Rauenberg,261.3
50.323555,9.201106,Pflucksberg,321.9
50.328003,9.212355,Klingenberg,326.0
50.32392,9.21775,Ihnenstein,343.3
50.320866,9.23664,Herrensteinacker,375.2
50.330956,9.245796,Steinchen,382.2
50.333282,9.253951,Schippkegel,357.9
50.337597,9.281917,Poppenstein,376.4
50.32945,9.281775,Hellkopf,295.0
50.301777,9.219379,Nebelsberg,375.0
50.28291,9.136255,Stuhlertskuppe,322.1
50.270832,9.1384115,Wacholderberg,223.9
50.294376,9.194462,Moorhans,362.8
50.222023,9.204864,Kurzenberg,283.0
50.21716,9.193992,Marberg,318.0
50.18376,9.206894,Storksberg,176.0
50.167763,9.230682,Kahler Kopf,385.0
50.257175,9.270201,Riedel,333.0
50.26058,9.231822,Hammelsberg,415.0
50.466904,9.059627,Kleerberg,275.9
50.492516,8.96945,Diethersberg,245.6
50.48463,8.941265,Mühlberg,184.9
50.489544,8.981713,Hubberg,289.1
50.48543,9.002599,Johannsköppel,290.3
50.0484,9.084794,Bachhügel,317.0
50.277008,9.285981,Wolferburg,377.0
49.743137,9.34986,höchster Punkt Freudenberg,469.0
