latitude,longitude,name,elevation
43.693027,18.613853,Sjenište,1911.0
43.85443,18.65537,Veliki Lupoglav,1652.0
44.06334,19.029423,Veliki Žep,1536.0
44.488556,19.177376,Црни врх,779.0
44.375996,19.25785,Црни врх,856.0
44.34384,19.293041,Кошутња стопа,939.0
44.329597,19.292526,Мачков камен,923.0
44.282146,19.45829,Рожањ,973.0
44.301594,18.545773,Konjuh,1328.0
44.3894,19.07275,Markovača,372.0
44.39332,19.0997,Vratolomac,379.0
44.404167,19.105366,Zeleni kamen,353.0
44.41355,19.092733,Perčini,261.0
43.8553,19.332098,Golstilja,1314.0
43.72805,19.48419,Metaljka,763.0
43.836514,19.38224,Пасак-вис,1256.0
43.79885,19.394432,Столац,1199.0
43.7992,19.425776,Тукељ,1109.0
43.838974,19.362566,Велики вис,1170.0
43.88323,19.468378,Царевића вис,1425.0
44.011322,19.207039,Crvene stijene,1244.0
43.884293,19.312595,Јањач,1461.0
43.8967,19.399267,Клик,1060.0
43.908306,19.48969,Ковачи,1185.0
43.944595,19.280516,Малињак,1224.0
43.93488,19.43768,Перла,1124.0
44.024433,19.230217,Pogledala,1125.0
43.91946,19.389864,Детелин,1326.0
43.920746,19.31018,Мрка коса,1471.0
43.92536,19.404915,Вис,1326.0
43.939846,19.416815,Паљевина,1134.0
43.99408,19.20638,Sanik,1227.0
43.930138,19.487043,Сува главица,1106.0
43.91245,19.437057,Репушњак,1279.0
43.99389,19.2539,Велики крај,1347.0
44.00212,19.249832,Звијезда,1050.0
43.904175,19.3388,Ђурђево брдо,1408.0
43.908157,19.36685,Бурине,1141.0
43.899223,19.378325,Крушчица,1058.0
43.890747,19.35526,Велика глава,1275.0
43.848133,19.49215,Ивица,1353.0
43.816975,19.425915,Кик,1099.0
43.83803,19.444439,Липовачки врх,1250.0
43.930412,19.384718,Омар,1286.0
43.845604,19.432514,Овсјек,1304.0
43.860252,19.468761,Руњева глава,1438.0
43.834732,19.490046,Путно брдо,1344.0
43.840828,19.467386,Велико брдо,1535.0
43.848568,19.459558,Збориште,1546.0
43.96277,19.389229,Đurđevac,463.0
43.808575,19.290852,Banjska glava,530.0
43.938725,19.266848,Drenovac,923.0
43.863052,19.21392,Grad,516.0
43.92994,19.217594,Grad,899.0
43.76568,19.279665,Gradina,663.0
43.92802,19.191301,Gradina,1023.0
43.913685,19.148376,Klanac,1290.0
43.804688,19.250612,Kozlovac,947.0
43.984547,19.268248,Малињак,1213.0
43.87949,19.177681,Pastorak,1090.0
43.820415,19.280518,Pehovo,448.0
43.853092,19.196089,Radušna vrtača,1140.0
43.925705,19.26492,Ridova glava,1212.0
43.90282,19.257847,Rogopek,1341.0
43.971527,19.309061,Смиљевац,1445.0
43.82191,19.24652,Varda,701.0
43.819836,19.205433,Veliko brdo,1345.0
43.799114,19.266743,Vidova gora,717.0
43.836952,19.206177,Viharac,1121.0
43.925926,19.20382,Višešnik,1032.0
43.822186,19.353647,Kobila,973.0
43.817844,19.39697,Божурице,989.0
43.94782,19.328224,Велика стена,1140.0
43.94454,19.428944,Козја стена,962.0
43.939156,19.447903,Сумбилић,1102.0
44.008274,19.309544,Crnušika,1167.0
43.952053,19.292189,Галиник,1305.0
44.01147,19.374372,Karan Gaj,997.0
44.008324,19.280554,Ljutica,1238.0
43.892406,19.49301,Гребен,1226.0
43.91902,19.345156,Црни врх,1251.0
43.90616,19.304487,Козји рид,1591.0
43.764816,19.433655,Carina,889.0
43.732605,19.352415,Crni vrh,1106.0
43.75951,19.335651,Goleš,974.0
43.81209,19.478672,Ковиљаче,1113.0
43.80259,19.485533,Међедова љеска,1015.0
43.79363,19.487696,Ограђеница,865.0
43.75481,19.36044,Orlovo Gnijezdo,909.0
43.806454,19.339575,Panos,983.0
43.74196,19.339214,Suha gora,1131.0
43.79325,19.334637,Висуља,658.0
43.7921,19.467445,Тусто брдо,1158.0
43.99659,19.334875,Ovršak,716.0
43.739784,19.230457,Golo brdo,1012.0
43.758125,19.251038,Grabovica,822.0
43.651047,19.281084,Gradina,647.0
43.922935,18.6589,Crni Vrh,1351.0
43.93091,18.654184,Veliki Vrh,1328.0
43.91162,18.683533,Ljeljen,1311.0
43.902225,18.654184,Gradić,1396.0
43.8841,18.649979,Gavranka,1504.0
43.859787,18.643366,Mali Lupoglav,1627.0
43.827232,19.435423,Мраморак,1258.0
43.829407,19.418991,Полом,1125.0
43.73426,19.499512,Романија,676.0
43.759647,19.489557,Осојница,884.0
43.74441,19.45849,Вршак,680.0
43.91168,18.712284,Lisina,1294.0
43.938633,18.767044,Gradina,1071.0
43.836876,19.46125,Ивер,1478.0
43.816704,19.498667,Караула,1101.0
43.91389,19.285643,Veliki Stolac,1673.0
43.899883,19.465612,Букова глава,1352.0
44.302116,19.06985,Sokolna,507.0
44.294254,19.031914,Gradina,473.0
44.30703,19.057491,Obojnik,404.0
44.30264,19.034018,Kozjak,659.0
44.336494,19.128044,Veliko Brdo,379.0
44.206947,19.343805,Gradina,433.0
44.229645,19.325695,Skaradovica,680.0
44.176514,19.321447,Gradac,323.0
44.213898,19.34076,Kobiljača,389.0
43.7248,18.934591,Lokva,1248.0
43.884293,19.312595,Janjač,1461.0
43.55632,19.00691,Crni Vrh,1307.0
44.333252,19.363682,Маринков камен,843.0
44.321156,18.545555,Varda,791.0
44.2988,18.605637,Široka ravan,1010.0
44.29782,18.638508,Bandera,1209.0
43.77289,19.489986,Попово Брдо,772.0
44.29566,18.625185,Javorje,1189.0
44.310028,18.525576,Zidine,1180.0
44.336384,18.619226,Suho drvlje,1177.0
43.829605,19.447264,Кршањска главица,1427.0
43.643993,19.27246,Rudina,534.0
43.66662,18.730764,Ruda Glava,1488.0
43.67373,18.714695,Borovac,1750.0
44.153694,18.941679,Karanfilica - Каранфилица,1205.0
44.112568,19.150152,Bešića brdo,589.0
44.104454,19.15203,Velika gradina,650.0
44.084084,19.153618,Rudo brdo,678.0
44.119267,19.191244,Borovac,730.0
44.148315,19.195993,Rupoglav,816.0
44.156372,19.181429,Lisina,802.0
44.148544,19.172043,Visibaba,801.0
44.16204,19.173265,Borovac,752.0
44.214043,19.096373,Glavica,521.0
44.222195,19.054008,Velika glavica,574.0
44.152523,19.028202,Mramorac,732.0
44.14031,19.054653,Rađevac,701.0
44.1323,19.042727,Mala Sikira,807.0
44.11995,19.055975,Komić,1021.0
44.09967,19.099413,Kličac,774.0
44.08743,19.104555,Kobilna glava,1033.0
44.122272,19.148335,Osoje,581.0
44.1333,19.16918,Galovina,677.0
44.149967,19.053604,Cicelj,580.0
44.26729,19.126059,Gradina,593.0
44.269764,19.072765,Risnik,784.0
44.280502,19.056211,Udrč,1042.0
44.25424,19.02555,Nišava,778.0
44.278786,19.00743,Potajnik,909.0
44.295277,19.016783,Paljevina,841.0
44.148888,19.092304,Prosjeka,554.0
44.16728,19.158363,Rogač,797.0
44.22981,19.209526,Šarampov,483.0
44.257072,19.113499,Humolje,412.0
44.066345,19.242458,Koštur,936.0
44.087425,19.060198,Đipa,1328.0
44.071148,19.075075,Koritna kosa,1295.0
43.87598,19.366709,Пачин кик,1042.0
44.270294,19.479261,Трштен,933.0
43.929585,19.322353,Витомировац,1376.0
43.892685,19.444561,Јањића брдо,1282.0
43.870617,19.47461,Руст,1317.0
43.866817,19.44774,Гавран,1453.0
43.791306,19.173037,Ivica,1497.0
43.82516,19.481728,Вао,1219.0
43.95271,19.29206,Галиник,1305.0
44.35655,19.18071,Лада,730.0
44.328438,19.230265,Чавчићи,806.0
44.250282,19.440495,Дуго,808.0
43.59054,19.33204,Veliki Tmor,1280.0
43.5467,19.350775,Велики Вис,1334.0
43.569447,19.489355,Голет,1386.0
43.543167,19.29898,Обер,1486.0
44.047268,19.305683,Vrh,880.0
43.69377,18.589985,Košuta,1907.0
43.702038,18.600443,Klekovo brdo,1864.0
43.717194,18.574106,Šator,1875.0
43.718586,18.555407,Ogorjelica,1908.0
43.73431,18.576815,Zelena glava,1640.0
43.747242,18.578518,Veliki javor,1584.0
43.743523,18.576454,Mali javor,1589.0
43.760998,18.911821,Orlijak,852.0
43.750755,18.877117,Humka,1171.0
43.745018,18.895557,Kovačev krš,1133.0
43.746773,18.88606,Borovo brdo,1193.0
43.736965,18.899885,Putiševa ravan,1178.0
43.73145,18.916534,Prosjek,1194.0
43.73115,18.90967,Vrhovi,1243.0
43.728382,18.90109,Golo brdo,1281.0
43.75207,18.830347,Mihalj,918.0
44.486893,18.901043,Vranovac,763.0
43.747776,18.889915,Priboj,1172.0
43.72208,18.88442,Motka,1262.0
43.739456,18.878662,Čemernička njiva,1288.0
43.68919,18.963245,Golo brdo,530.0
43.685154,18.949562,Gradina,674.0
43.7276,18.828705,Orlić,1102.0
43.732098,18.84508,Previla,1120.0
43.717514,18.843508,Kolibe,1212.0
43.717903,18.826946,Samar,1207.0
43.705173,18.823793,Križevac,1319.0
43.682858,18.837212,Dumača,1152.0
43.67993,18.852047,Kik,953.0
43.670708,18.883154,Pozučina,650.0
43.666973,18.962357,Mišijak,612.0
43.661568,18.987196,Biserna,618.0
43.64804,18.98219,Samari,663.0
43.63714,19.000385,Majdan,819.0
43.694187,18.906431,Palež,760.0
43.688828,18.918247,Zlatna Glava,889.0
43.70485,18.930132,Ilijak Brdo,775.0
43.705685,18.941158,Ribnjak,733.0
43.723385,18.94044,Miš,1257.0
43.72366,18.97203,Tvičijak,1199.0
43.71958,18.984802,Trovrh,1193.0
43.633057,18.978573,Križevac,456.0
43.648502,18.894989,Međed,801.0
43.62644,18.919657,Kik,633.0
43.690372,18.940573,Grabovo brdo,743.0
43.69273,18.974182,Sjenokos,960.0
43.680233,18.904373,Oštro,1016.0
43.67617,18.93737,Sitno kamenje,636.0
43.712597,19.0142,Petibor,1184.0
43.7056,19.02466,Brdašce,1023.0
43.708687,19.02049,Grudica,1055.0
43.72072,19.02257,Orlov Kamen,992.0
43.699593,19.04359,Debelo Brdo,1102.0
43.69337,19.053282,Grad,1091.0
43.682606,19.059923,Glavica,676.0
44.469913,18.912868,Prosjek,704.0
44.29569,18.76321,Preliv,968.0
44.283222,18.747585,Svojčica,947.0
44.294117,18.995285,Jeleč,929.0
44.28699,18.901337,Debelo Brdo,956.0
44.273514,18.867332,Bačkovac,971.0
44.285145,18.76892,Bandijerka,1060.0
44.370262,18.8539,Šušnjari,727.0
44.37282,18.821758,Bišina,881.0
44.33795,18.92468,Borogovo,852.0
44.34542,18.616663,Božika,1155.0
44.31611,18.60559,Trošni kamen,977.0
44.36343,18.652792,Iglišta,635.0
44.342457,18.616974,Šuplji Javor,1180.0
44.33541,18.637127,Butovski vrh,1082.0
44.329388,18.61158,Butkovski krš,1075.0
44.342216,18.634119,Tisovac,1022.0
44.29206,18.632978,Debela gora,1190.0
44.303497,18.655382,Gravište,976.0
44.300697,18.689455,Hrdar,759.0
44.297623,18.69527,Kapovac,786.0
44.304485,18.64443,Ježevik,1080.0
44.46,18.953482,Berašinovac,593.0
44.46801,18.95531,Njivice,621.0
44.46935,18.92388,Bečirovića brdo,622.0
44.090496,18.501657,Bijambare,997.0
44.27835,18.547363,Miljevica,1110.0
44.319977,18.509228,Šuplji bor,1084.0
44.30502,18.560637,Jelova gl.,1061.0
44.34464,18.50591,Kalem,996.0
44.29527,18.539206,Ždrijebčev skok,1142.0
44.30907,18.51642,Barice,1195.0
44.350307,18.511976,Zelenboj,1053.0
43.991108,19.34657,Mačkovac,507.0
44.012817,19.317965,Borovac,1053.0
44.02121,19.310215,Stanjevo brdo,1125.0
44.02835,19.30448,Lučeva ravan,1150.0
44.034317,19.298151,Vranjevina,1094.0
43.778614,18.632496,Hodža,1376.0
43.65633,18.631067,Gradac,1333.0
44.464077,18.9054,Kremeš,552.0
44.465435,18.894346,Gujino brdo,533.0
44.42255,18.993233,Četino brdo,602.0
44.428,18.854286,Vis,450.0
44.46463,19.210247,Кулиште,699.0
44.443615,19.284016,Лисина,656.0
44.464565,19.2549,Велика Бобија,550.0
44.29767,19.415533,Милетина,919.0
44.2631,19.463766,Велики вис,909.0
44.219032,19.381866,Савина глава,570.0
44.28935,19.233133,Ребељ,541.0
44.397316,19.349634,Мијаковац,610.0
44.289,19.475916,Карановац,816.0
44.3001,19.27705,Липник,773.0
44.27635,19.259617,Мали Стовиш,563.0
44.376484,19.130617,Руњева глава,524.0
44.29045,19.44215,Јашаров брег,912.0
44.357265,19.269733,Орашац,825.0
44.304035,19.38105,Страњско брдо,862.0
44.340935,19.417633,Мраморје,548.0
44.361782,19.137066,Камени шанац,591.0
44.36615,19.144484,Јастребовац,592.0
44.258434,19.409718,Кутањ,600.0
44.28977,19.413866,Крушљак,926.0
44.267532,19.43535,Калкан,666.0
44.282215,19.4031,Склоп,814.0
44.277565,19.367317,Чувер,752.0
44.316082,19.221516,Миољача брдо,722.0
44.283115,19.43655,Петков вис,954.0
44.310383,19.192867,Тусто чело,706.0
44.29275,19.389668,Драгишин остењак,857.0
44.3067,19.224884,Голеш,717.0
44.320965,19.296017,Перуника,918.0
44.290165,19.3309,Бодњик,764.0
44.3675,19.1682,Бобије,662.0
44.43205,19.2794,Главица,701.0
44.42687,19.23545,Велики Цип,578.0
44.423935,19.300066,Костајник,748.0
44.193016,19.46,Мали Баурић,730.0
44.197483,19.473284,Миловановића вис,731.0
44.178467,19.434067,Немић,797.0
44.158684,19.445517,Ридови,532.0
44.18717,19.43905,Баурић град,774.0
44.32565,19.377583,Чардак,882.0
44.3227,19.38375,Равна гора,881.0
44.429165,19.335833,Висока глава,534.0
43.5539,19.357817,Лиса стена,1323.0
43.520184,19.237717,Градина,1337.0
43.525883,19.220367,Зелена глава,1353.0
43.51475,19.489267,Вис,1295.0
43.522766,19.298567,Брнђуша,1328.0
43.530033,19.358267,Орловина,1311.0
43.952183,19.4011,Бањска стена,1065.0
43.850334,19.351433,Бојиште,1214.0
43.892265,19.341284,Боровњак,1219.0
44.27672,19.4882,Дражница,829.0
43.5761,19.471067,Голи врх,1365.0
43.849983,19.487467,Ивица,1353.0
43.88655,19.3275,Камаљ,1353.0
43.83065,19.497917,Кобиловац,1266.0
43.99077,19.2508,Кичац,1278.0
43.865482,19.406567,Кик,958.0
43.75618,19.497355,Велика Оштрмица,975.0
44.107567,19.330994,Osat,1013.0
44.08151,19.38084,Grad,991.0
44.065086,19.324003,Javor,836.0
44.13297,19.316996,Zanik,831.0
44.12733,19.353767,Lisac,663.0
44.135246,19.387949,Ljuljaška,585.0
44.12867,19.436218,Orašići,454.0
43.80422,18.564163,Veliki Koran,1013.0
44.019352,18.779099,Garaž,1046.0
44.003426,18.797194,Hasanov Breg,1061.0
43.84688,19.39012,Ђукића брдо,902.0
43.955368,19.264343,Горица,1040.0
43.900383,19.310667,Ласната глава,1519.0
43.91315,19.301117,Мрка коса,1545.0
43.95297,19.377068,Пасјача,1063.0
43.533066,19.164873,Међеђи рид,1206.0
43.820168,19.383467,Тетребица,1208.0
43.83905,19.362934,Велики Вис,1170.0
43.59038,19.332184,Велики Тмор,1280.0
43.838867,19.47265,Велико брдо,1496.0
43.7911,19.426018,Загвозница,1180.0
43.776604,19.439169,Липа,1006.0
43.76734,19.475574,Градац,544.0
43.75252,19.487627,Вилино коло,799.7
43.74243,19.485205,Ластва,648.0
43.782005,19.496922,Божурица,696.0
43.81812,19.440155,Ластва,1001.0
44.129387,18.929749,M. Igrište,1288.0
44.13688,18.908163,Igrište,1405.0
44.148075,18.922598,Javorov vrh,1350.0
44.307095,18.551567,M. Konjuh,1191.0
44.308502,18.633602,Suha jela,1106.0
44.412464,18.86873,Kamenica,410.0
44.33171,18.537285,Stožer,838.0
43.983704,19.1688,Zlovrh,1525.0
44.28944,18.533554,Pšeničišće,1186.0
44.2259,18.536703,Ježevac,1262.0
44.187233,18.57517,Bijeli vrh,1271.0
44.252815,18.527454,Jarašće,1192.0
44.276108,18.533134,Medvjeđe brdo,1166.0
44.21212,18.537146,Kruškovica,1183.0
44.222336,18.529228,Kamenica,1220.0
44.15269,18.590317,Minđuše,891.0
44.23548,18.534052,Osredak,1199.0
44.263947,18.530197,Vrančevo brdo,1201.0
44.160076,18.592726,Prijemet,844.0
44.172157,18.585537,V. Kabun,1156.0
44.1914,18.597784,Zečiji vrat,1273.0
43.646492,18.938025,Baba,964.0
43.918423,19.322985,Сјенич,1442.0
43.943058,19.26108,Donji Drenovac,791.0
43.900936,19.283829,Peć,1419.0
43.91938,19.27357,Rudina,1338.0
44.455,18.912811,Osredak,466.0
44.018295,19.262903,Žeđ,1130.0
43.8942,18.504396,Glog,1406.0
43.88723,18.510326,Mali Glog,1273.0
43.973,18.511698,Ozren - Bandijera,1453.0
43.958103,19.364391,Трешњевац,863.0
44.31534,19.181753,Османово брдо,610.0
43.595272,18.854963,Gradina,570.0
43.609074,18.85716,Bogatac,545.0
43.653168,18.766493,Grdeva glava,1351.0
43.572662,18.860294,Kapak,1201.0
43.57033,18.835941,Glog,988.0
43.61023,18.802961,Grabić,1021.0
43.60563,18.821667,Okolište,923.0
43.606144,18.833288,Hrast,870.0
43.636593,18.98767,Kik,569.0
44.31099,18.50638,Privaja,1149.0
44.30302,18.519165,Crni vrh,1151.0
44.35618,18.626896,Gradinski krš,1028.0
44.35095,18.621773,Mala Božika,1145.0
44.357384,18.613478,Ravne klade,1016.0
44.362003,18.606983,Kočani,985.0
44.29756,18.577503,Konjuščić,1121.0
44.283,18.605549,Čemerika,1119.0
44.299335,18.569357,Polovno brdo,1117.0
43.881916,19.31759,Јањач,1473.0
43.729755,18.883482,Krš,1271.0
43.682785,18.891836,Ladinjak,942.0
43.681652,18.884432,Jarovo brdo,898.0
43.72281,18.923187,Podmjera,1225.0
43.63552,19.030565,Glavica,963.0
43.64549,19.02775,Gradina,1046.0
43.655117,19.018318,Cikelj,910.0
43.667786,19.025053,Paljevine,587.0
43.663754,19.030943,Vina glava,579.0
43.657314,19.053625,Kojnik,786.0
43.64328,19.069983,Prkoš Gaj,714.0
43.639122,18.753546,Stolac,1520.0
43.712975,18.765749,Krnja jela,1358.0
43.71874,18.776646,Gradina,1275.0
43.71511,18.785471,Barnačica,1193.0
43.7098,18.793163,Oglavak,1281.0
43.71001,18.803217,Rosulje,1314.0
43.711468,18.746565,Biljeg,1249.0
43.693584,18.756432,Prokos,981.0
43.637768,18.837801,Crkvina,1107.0
43.693417,18.84171,Previla,1129.0
43.709835,18.817036,Mravinjaci,1319.0
44.21444,18.551464,Hodžića čair,1227.0
44.255383,18.540781,Jarac,1192.0
43.70453,18.836437,Alijin laz,1167.0
43.683495,18.719439,Klek,1743.0
43.682915,18.735228,Klečica,1391.0
43.69679,18.736969,Gornja glavica,1146.0
43.70723,18.734554,Šušnjata glava,1297.0
44.3511,18.587269,Hum,966.0
44.345093,18.579477,Jelova glava,832.0
44.346165,18.604664,Katuništa,916.0
43.653698,18.936901,Brdo,948.0
43.73285,18.775002,Cerice,1271.0
43.737007,18.757141,Tovarnica,1049.0
43.747272,18.76351,Orlovac,873.0
43.740955,18.794443,Gradina,1154.0
43.723698,18.79485,Grad,1166.0
43.72174,18.805092,Homut,1156.0
43.535213,19.062235,Trojan,1337.0
43.534344,19.074959,Samar,1306.0
43.540108,19.077076,Golubovac,1429.0
43.55026,19.07912,Cicelj,1281.0
43.53963,19.101168,Crni vrh,1385.0
43.52252,19.103323,Vragolija,1423.0
43.50986,19.062246,Gromile,1268.0
43.50717,19.080135,Kalašnjica,1268.0
43.65594,18.921633,Kik,826.0
43.66513,18.913803,Vlahića brdo,808.0
44.297935,18.649338,Klisa,918.0
44.219906,18.616034,Negaja,896.0
44.21961,18.62959,Vis,943.0
44.214207,18.639902,Krst,843.0
44.207832,18.63185,Gnjilo Brdo,1012.0
44.20203,18.624495,Torino Brdo,1041.0
44.135822,18.563011,Majne,750.0
44.128445,18.519258,Orlić,961.0
44.491188,19.158869,Kam,634.0
44.48468,19.16544,Kamenita bukva,708.0
44.278946,18.803701,Previlica,912.0
44.235176,18.804731,Jaic,763.0
44.243385,18.724222,Gradina,855.0
44.196728,18.711004,Pale,1099.0
44.277554,18.604319,Bukovci,1137.0
44.243572,18.604843,Plosno brdo,1059.0
44.263702,18.536724,Kruščić,1204.0
44.28065,18.518744,Smrćevac,1128.0
44.25633,18.560865,Kotac,1088.0
44.18596,18.644098,Gradac,1137.0
44.024113,18.652811,Površlje,908.0
44.06175,18.615732,Borovac,942.0
44.10543,18.615217,Kršćan vrh,794.0
44.10734,18.674334,Borovac,939.0
44.154884,18.603823,Kučajevica,863.0
44.136375,18.675556,Srihinj,1006.0
44.167862,18.663519,Luževac,990.0
44.1225,18.737997,Gnjat,1183.0
44.152004,18.757051,Palac,1076.0
44.154392,18.647984,Paklenik,959.0
44.166092,18.709394,Bijela stijena,1189.0
44.368286,18.798037,Veliko brdo,730.0
44.376602,18.755764,Obli vrh,618.0
44.311474,18.713943,Tavnica,673.0
44.33456,18.580927,Butković,808.0
43.673637,18.683739,Mliječnik,1637.0
43.689972,18.68593,Gornja Varda,1527.0
43.680523,18.666416,Mačak,1512.0
43.65918,18.693495,Kacelj,1674.0
43.655018,18.70336,Kacelj,1548.0
43.650745,18.715046,Mirkovica,1407.0
43.645126,18.735355,Tinjak,1214.0
43.647823,18.741243,Breza,1305.0
43.65667,18.730011,Johe,1207.0
43.66381,18.700136,Hladno brdo,1559.0
43.64305,18.694914,Kožalj,1361.0
43.64798,18.675804,Gradina,1361.0
43.65819,18.64468,Hum,1271.0
43.64174,18.635216,Jasika,1116.0
43.675625,18.625113,Golica,1693.0
43.685596,18.622076,Priratak,1858.0
43.684086,18.63037,Trijeska,1804.0
43.68307,18.652987,Svračevo,1376.0
