latitude,longitude,name,elevation
58.68395,-125.614204,Mount Scott,2416.0
59.311718,-125.82622,Mount Prudence,1665.0
59.416725,-126.05293,Mount Ole,946.0
59.476337,-126.46025,Mount Reid,1224.0
59.29904,-125.701096,Mount Rothenberg,1616.0
58.613018,-126.25461,Montagnes Rocheuses,1425.0
58.87938,-126.25486,Montagnes Rocheuses,1470.0
