latitude,longitude,name,elevation
-28.48013,134.56152,Ant Hill,253.0
-28.26892,134.79572,Cameron Hill,217.0
-28.08683,135.31018,Maglia Hill,111.0
-28.25427,134.75099,McDonald Peak,226.0
-27.63902,135.17747,Mount Albany,224.0
-27.78948,134.90492,Mount Andrews,269.0
-28.37761,134.72694,Mount Barry,269.0
-27.55892,134.84502,Mount Beviss,265.0
-28.1545,134.79465,Mount Bray,222.0
-28.06978,134.60677,Mount Evelyn,286.0
