latitude,longitude,name,elevation
48.84089,144.62592,Тюлень,78.0
48.850338,144.63295,Сабля,153.7
48.87224,144.60658,Чехова,207.3
48.932053,144.5253,Рангун,61.3
48.951874,144.51262,Лиман,139.4
48.82633,144.63933,Антоновка,96.2
