latitude,longitude,name,elevation
-14.331668,-73.76312,Ccarhuarazo,5112.0
-13.883956,-74.00663,Wacramarca,5483.0
-13.920323,-74.019165,Chinchica,5532.0
-13.999662,-74.133255,Rasuhuillka,5109.0
-14.412564,-74.17285,Misapata,4426.0
-14.15166,-74.35515,Kunturillu,4537.0
