latitude,longitude,name,elevation
14.806136,28.795004,Jabal Sha’w,674.0
14.585066,28.955687,Jabal Kurfis,794.0
14.533154,29.354548,Jabal ar Ru’ays,658.0
15.058915,29.365337,Jabal al Erbit,733.0
15.052721,29.266703,Nuşub al Khayl,661.0
14.880631,29.102173,Qurayd Umm Qawz,613.0
14.852432,28.924965,Jabal Daqādiq,649.0
14.687978,28.535631,Jebel Ummat Hashu es Sughaiyir,634.0
14.639651,28.71353,Jebel Hubush,650.0
14.843196,29.467234,Jebel Shatr el Umm,661.0
