latitude,longitude,name,elevation
-8.717176,120.327065,Gunung Curunumbeng,1988.0
-8.613116,119.97797,Golo Mbeliling,1258.0
-8.8969145,120.27043,Gunung Mules,549.0
-8.643311,119.75681,Doro Raja,492.0
-8.642292,119.740845,Doro Tumboh,290.0
