latitude,longitude,name,elevation
34.96185,34.065643,Γκρέκο,95.0
34.852264,33.552544,Mosfilos,50.0
34.97104,34.060787,Vounia,65.0
35.483387,34.22387,Nişan Tepesi,157.0
35.4835,34.24079,Kazan Tepesi,121.0
35.475193,34.252796,Keçiboynuzu Tepesi,48.0
