latitude,longitude,name,elevation
3.6194715,31.8536,Mount Otze,1563.0
3.74204,32.416218,Jabal Matoko,923.0
4.480659,32.151424,Lomiki,1358.0
4.1856894,32.478333,Jabal Lokirik,1440.0
4.238591,32.338074,Lokiri,1691.0
