latitude,longitude,name,elevation
-30.0164,121.14787,Goongarrie Hill,414.0
-30.366272,120.95663,Mount Carnage,415.0
-30.32111,121.46782,Mount Jewell,444.0
-29.50289,120.58333,Snake Hill,470.0
-30.14001,120.95141,Wongi Hill,474.0
