latitude,longitude,name,elevation
22.615294,105.86332,Núi Phja Oắc,1931.0
22.69855,106.25248,Núi Kỳ Sầm,661.0
22.872835,106.32088,巴恩山,404.0
22.639618,106.26121,Núi Tắng Xê Nhất,403.0
22.558626,105.878174,Núi Phja Đén,1391.0
22.727633,105.59071,Núi Phja Dạ,1957.0
22.569447,105.89465,Núi Tam Loang,1446.0
22.585644,105.88403,Núi Niot Ti,1574.0
