latitude,longitude,name,elevation
55.502857,-121.44913,Trapper Mountain,1543.0
55.511044,-121.401665,Elephant Ridge,1547.0
55.52044,-121.41241,Tuskoola Mountain,1564.0
55.52087,-121.27445,Sandy Hill,1308.0
55.649555,-121.39434,Mount Wartenbe,1224.0
55.50377,-121.08563,Noetai Hill (West Summit),1263.0
55.543324,-121.113266,Nini Hill,1255.0
55.529686,-121.10407,Nunki Hill,1263.0
55.535717,-120.649635,Sunset Hill,926.0
