latitude,longitude,name,elevation
33.138996,139.76505,西山,854.3
33.128494,139.79527,神止山,194.9
33.085827,139.82051,東台子山,635.0
33.092083,139.81223,東山,700.9
33.100975,139.82999,東白雲山,607.9
33.098503,139.8252,西白雲山,635.0
33.125557,139.6883,大平山,616.8
