latitude,longitude,name,elevation
61.482533,139.558,Хитыкит,1609.5
60.740494,139.90045,гора Курунг,1432.0
60.81312,140.44623,гора Хачавал,975.0
61.20957,139.93423,гора Дёл,1930.0
61.008575,139.73488,гора Капитон,1604.0
