latitude,longitude,name,elevation
42.872288,-76.0227,Chase Hill,524.0
42.811176,-76.02131,Fellows Hill,611.0
42.79479,-76.0427,Jones Hill,598.0
42.777843,-76.05853,Labrador Hill,606.0
42.841732,-76.05437,Matson Hill,485.0
42.82618,-76.09159,Meeker Hill,548.0
42.785343,-75.993256,Morgan Hill,618.0
42.77229,-76.10742,The Pinnacle,522.0
42.75729,-76.073814,Truxton Hill,616.0
42.637012,-75.94687,Allen Hill,603.0
43.087845,-75.79991,Allis Hill,152.0
42.822567,-75.91603,Arab Hill,593.0
43.073956,-76.46466,Ashbys Pinnacle,155.0
42.99673,-76.320206,Baker Hill,330.0
42.8734,-76.16826,Bare Mountain,489.0
42.518406,-76.48022,Bean Hill,348.0
43.211456,-76.089645,Beech Ridge,119.0
42.549793,-75.690186,Berry Hill,598.0
42.963123,-76.34326,Bishop Hill,257.0
43.40979,-75.59185,Bowman Hill,405.0
42.70007,-76.20743,Brake Hill,574.0
43.03562,-75.87436,Brinkerhoff Hill,208.0
43.342293,-76.33771,Bristol Hill,154.0
42.689514,-75.94437,Bull Hill,605.0
42.553123,-75.7952,Burdick Hill,537.0
42.613125,-76.14271,Carr Hill,483.0
42.691734,-75.78464,Cary Hill,594.0
42.620903,-76.066315,Case Hill,561.0
42.891735,-76.18409,Case Hill,384.0
43.096733,-76.18742,Chestnut Ridge,146.0
42.727848,-75.514626,Church Hill,475.0
43.053955,-76.02909,Clark Hill,160.0
42.886456,-75.88964,Cobb Hill,447.0
42.66007,-75.69186,Cole Hill,580.0
43.362568,-75.68546,Corkin Hill,279.0
42.669235,-76.143814,Corl Hill,544.0
42.63007,-76.20937,Cosmos Hill,473.0
42.975067,-76.46522,Cottle Hill,301.0
43.013954,-75.76713,Cranson Hill,455.0
42.915623,-75.56101,Crow Hill,507.0
42.73618,-75.81019,Crumb Hill,574.0
42.75618,-75.67685,Dunhams Pinnacle,567.0
42.53118,-75.96353,Dutch Hill,530.0
42.844513,-76.17048,Dutch Hill,570.0
43.36535,-76.017975,Dutch Hill,201.0
42.64868,-76.16548,East Hill,496.0
43.026737,-75.549065,Eaton Hill,409.0
43.42757,-75.61268,Finn Hill,427.0
42.77757,-76.20298,Gifford Hill,576.0
43.043957,-76.25632,Gillis Hill,225.0
42.608124,-76.10465,Hicks Hill,523.0
42.81979,-75.96742,Hogsback,552.0
43.343403,-76.447716,Honey Hill,136.0
42.998123,-76.29048,Howlett Hill,344.0
42.782013,-75.83991,Hunt Hill,611.0
42.914234,-76.08798,Irish Hill,458.0
42.860344,-75.73741,Jackass Hill,580.0
42.699516,-76.44327,Jewett Hill,440.0
42.884514,-75.52351,Johnnycake Hill,501.0
43.188404,-75.60546,Johnnycake Hill,143.0
42.824512,-75.84741,Kinney Hill,599.0
42.66229,-75.849915,Lane Hill,570.0
43.04951,-75.85658,Lillies Pinnacle,219.0
42.596737,-76.48799,Lobdell Hill,336.0
42.916176,-76.219925,Lords Hill,279.0
42.880344,-76.19937,Manns Hill,495.0
42.927845,-76.073814,Mason Hill,465.0
42.944233,-76.11798,Miller Hill,435.0
42.979237,-75.57351,Mosquito Point,346.0
43.395905,-75.92964,Mud Hill,230.0
42.77729,-75.7838,Muller Hill,617.0
42.9784,-75.62046,Munnsville West Hill,416.0
42.952568,-75.73935,Mutton Hill,566.0
42.72035,-75.59324,Negro Hill,581.0
43.02451,-76.349655,Nose Hill,217.0
42.598404,-75.86631,Oak Hill,505.0
42.963123,-75.56323,Oak Hill,489.0
42.75479,-76.42243,Oak Hill,409.0
42.96701,-75.91158,Palmer Hill,317.0
42.640625,-75.7713,Parce Mountain,532.0
43.35979,-75.960754,Patchen Hill,211.0
42.70979,-75.951584,Pease Hill,593.0
42.638958,-75.65824,Pigeon Hill,606.0
42.613125,-75.8602,Pink Hill,525.0
43.32368,-75.67018,Pond Hill,257.0
42.63868,-75.90631,Potter Hill,543.0
42.765347,-76.19604,Preble Hill,580.0
43.006733,-76.40549,Preston Hill,256.0
43.31035,-75.75741,Preston Hill,200.0
42.950626,-75.53684,Prospect Hill,539.0
43.060898,-76.49494,Pump Hill,177.0
42.68646,-75.90464,Randall Hill,617.0
42.740067,-75.8902,Richmond Hill,581.0
42.790344,-76.240204,Ripley Hill,604.0
42.610348,-75.9752,Mount Roderick,582.0
43.03951,-76.44216,Science Hill,210.0
42.65201,-75.95353,Seacord Hill,587.0
43.18368,-75.59573,Shepherd Hill,150.0
42.656178,-75.80186,Silas Hill Mountain,550.0
42.525906,-76.26521,Simms Hill,489.0
43.03729,-76.28799,Smith Hill,240.0
42.526184,-76.108536,Snyder Hill,591.0
43.115067,-76.357155,Sorrel Hill,196.0
42.50146,-76.15354,South Hill,635.0
42.57285,-76.07965,South Hill,581.0
42.690067,-75.84964,South Hill,550.0
42.736458,-75.86853,South Hill,604.0
43.35146,-75.59463,Stace Hill,287.0
42.637016,-75.51879,Steam Sawmill Hill,532.0
42.86979,-75.94131,Stockham Hill,503.0
43.419235,-75.9363,Stone Hill,222.0
42.91173,-75.834915,Stone Quarry Hill,490.0
43.142567,-76.18465,Terre Hill,150.0
42.75118,-75.7013,Texas Hill,603.0
43.113956,-76.39604,The Kingdom,198.0
43.28868,-76.04603,The Pinnacle,155.0
42.928677,-76.1127,Thomas Hill,396.0
42.864788,-75.7938,Tinselor Hill,590.0
42.92368,-76.05631,Torry Hill,299.0
42.68729,-75.75158,Truman Hill,543.0
42.528126,-76.12632,Tuller Hill,616.0
42.565903,-76.05854,Underwood Hill,567.0
42.8109,-76.19215,Vesper Hill,579.0
43.445904,-76.27021,Mullen Hill,144.0
43.003124,-75.63546,West Stockbridge Hill,430.0
43.392014,-75.74324,Wickwire Hill,327.0
43.27618,-76.31021,Woodchuck Hill,135.0
43.39368,-76.49022,Worden Hill,131.0
42.719513,-76.163536,Mount Toppin,561.0
