latitude,longitude,name,elevation
67.569725,-155.5017,Oyukak Mountain,2192.0
68.031395,-156.0275,Nukatpiat Mountain,1112.0
68.19856,-156.21808,Koiyaktot Mountain,1304.0
67.50675,-156.3584,Blind Pass Mountain,1739.0
68.052986,-155.57368,Siavlat Mountain,1577.0
68.47534,-155.89204,Reubens Peak,850.0
68.48519,-156.41344,Nigu Bluff,584.0
