latitude,longitude,name,elevation
53.20934,19.654968,Góra Wielkanocna,118.0
52.865772,19.64853,Kokoszka,116.7
53.396976,19.589027,Kurza Góra,162.0
53.48214,19.846619,Gałkowizna,224.0
52.520275,19.631464,Biała Góra,73.0
53.462803,20.002552,Góra Gomułki,192.0
53.438534,19.983374,Lewałd Wielki,227.0
53.152775,20.250217,Góra Dębowa,185.0
53.130062,20.288652,Chochołatka,148.0
