latitude,longitude,name,elevation
-20.54935,128.035,Gordon Hills,409.0
-20.55281,128.35555,Mount Hughes,462.0
-20.96268,128.07327,Thomas Peak,414.0
-21.47118,128.10133,Warri Peak,505.0
-21.333982,128.11035,Local H.P. (544),544.0
