latitude,longitude,name,elevation
-2.9533913,28.788113,Mont Mohi,3475.0
-2.6771607,29.331467,Umusozi Twinyoni,2659.0
-3.4256344,29.4213,Umusozi Mboza,1808.0
-2.8107028,29.025982,Surya,1093.0
-3.4213982,29.440603,Umusozi Musumba,1804.0
-3.3489583,29.468122,Umusozi Bona,2046.0
