latitude,longitude,name,elevation
28.503412,105.61882,石顶山,987.0
28.813055,105.78461,笔架山,698.0
28.613012,105.827835,大金龙,1064.0
28.617443,106.31035,道谷头,1277.0
28.595957,106.32685,雪家山,1389.0
28.608053,106.20792,尖上,1276.0
28.564014,106.24472,木鱼坪,1325.0
28.508625,106.32996,三连山,1607.0
