latitude,longitude,name,elevation
-25.802938,-56.214798,San Pablo,540.0
-25.88642,-56.16418,Cerro Capi'í,816.0
-25.820663,-56.2713,Cerro Akatí,697.0
-25.864584,-56.1402,Cerro Amor,765.0
-25.922945,-56.221577,Cerro Yoveré,369.0
-25.938297,-56.243385,Cerro Km. 23,302.0
-25.89535,-56.140934,Cerro Pero,815.0
-25.902437,-56.159462,Cerro Tres Kandú,842.0
