latitude,longitude,name,elevation
-24.673334,141.36139,Mount Barri,161.0
-25.487322,140.8979,Mount Montagimpa,173.0
-25.065277,141.04944,Round Mountain,155.0
-25.4562,140.86707,Ellen Hills,113.0
-25.14231,140.90099,Narradunna Hill,85.0
