latitude,longitude,name,elevation
-20.885,-47.24,Morro do Jaborandi,985.0
-21.081137,-47.179672,Morro da Santa Cruz,970.0
-21.140308,-47.14933,Três Montes,1167.0
-21.15876,-47.20293,Morro do Paredão,1090.0
-21.129421,-47.22396,Morro da Cascavel,1073.0
-20.830622,-47.215855,Morro das Araras,974.0
