latitude,longitude,name,elevation
6.9068055,37.77974,Mount Damota,3000.0
7.385694,37.730923,Monte Gobigia,2680.0
7.2879567,37.872135,Ambericho Terara,3020.0
7.009767,38.489582,Alamura,2019.0
7.037496,38.468006,Tabour Mountain,1821.0
