latitude,longitude,name,elevation
49.355423,154.66377,Ожидания,774.0
49.476875,154.73732,Шестакова,707.0
49.339455,154.76694,Кратерная,634.0
49.30746,154.66249,Туман,845.0
49.40984,154.72209,Крыжановского,551.0
49.407215,154.69138,Заваритского,491.0
49.33861,154.66685,Пустынная,840.0
49.290157,154.64351,Бажова,865.0
49.139023,154.52719,Упор,714.0
49.26499,154.72772,Уединения,143.0
49.30106,154.80196,Крошка,213.0
49.3199,154.79218,Кедрачевая,374.0
49.31333,154.73273,Трудная,730.0
