latitude,longitude,name,elevation
-27.3725,145.32361,Beal Bluff,259.0
-27.367222,145.23611,Mount Anderson,196.0
-27.429722,145.18083,Mount Bowen,194.0
-27.268612,145.39778,Mount Googoolwaddy,300.0
-27.122778,145.13,Mount Martin,285.0
-26.86111,145.22417,Mount Prara,313.0
