latitude,longitude,name,elevation
31.580292,120.25885,头茅峰,230.0
31.582348,120.25213,二茅峰,302.0
31.587889,120.241684,三茅峰,329.0
31.580517,120.27103,锡山,75.0
31.571062,120.24819,嶂山,170.0
31.571024,120.2303,唐山,110.0
31.571978,120.25582,产山,110.0
31.578814,120.2367,莲花山,210.0
31.53745,119.554276,水母山,61.6
31.507116,119.56392,𠙶山,158.0
31.547318,120.15855,东湾山,145.0
