latitude,longitude,name,elevation
12.259127,22.760406,Jabal Tarabo,847.0
12.109431,22.85482,Djebel Morogo,775.0
12.289746,23.186207,Jabal Sagai,859.0
12.428259,23.40677,Jabal Kibi,1216.0
12.200003,23.451351,Jabal Moldo,1302.0
12.178618,23.159319,Jabal Gogei,1003.0
12.408329,23.197002,Jabal Kulibeila,1065.0
12.469266,22.971535,Jebel Tuming (Bardi),1363.0
12.358418,22.949589,Jebel Dersi (Gerzia),1135.0
12.259898,23.060986,Jebel Gulmo,949.0
