latitude,longitude,name,elevation
13.030088,28.209314,Jabal Ba‘shūm,639.0
13.368195,27.976707,Jabal Umm Dabākir,756.0
12.775996,28.316254,Jabal Kirim,671.0
13.490507,28.07191,Jabal al Buraysh,798.0
12.695813,28.469799,Jabal Walad Heidob,683.0
13.4527645,27.892326,Jebel Nur ed Din,732.0
13.2403555,28.424393,Jebel el Ugheibish,780.0
