latitude,longitude,name,elevation
-34.345135,135.36942,Mount Greenly,305.0
-33.87611,135.47427,Bald Hill,33.0
-33.58477,134.96982,Bramfield Hill,179.0
-33.78024,135.30966,Conical Hill,61.0
-33.60679,135.29729,Kappawanta Hill,99.0
-34.20599,135.34187,Mount Drummond,165.0
-34.48847,135.42744,Mount Dutton,274.0
-33.78617,135.23235,Sheringa Hill,16.0
-33.63898,134.8586,Sillifant Hill,65.0
-33.75631,135.05263,Tungketta Hill,138.0
