latitude,longitude,name,elevation
-51.691677,-58.83427,Mount Usborne,705.0
-51.63303,-58.534004,Mount Simon,600.0
-51.505688,-58.599766,Chata Hill,142.0
-51.505936,-58.889553,Cerro Montevideo,286.0
-51.58059,-59.097946,Campito Hill,210.0
-51.631706,-58.608906,The Onion,535.0
-51.614918,-58.69004,Big Mountain,482.0
