latitude,longitude,name,elevation
40.37825,8.419239,Monte Mannu,802.0
39.96527,8.448083,Monte Prama,43.37
40.47152,8.414894,Monte Calarighe,473.0
39.930424,8.447573,S'Argara,93.0
39.502598,8.494722,M. Crabulasseddu,357.0
39.527267,8.493267,Punta Su Salixi,309.0
39.564274,8.46169,Bruncu Arcu,89.0
39.565308,8.490774,Punta Pisottu,275.0
39.625206,8.499322,Monte Perdosu,345.0
39.617496,8.460732,Punta Maimoi,68.0
