latitude,longitude,name,elevation
-6.557768,146.01276,Mount Murutana,2656.0
-6.725421,145.988,Mount Piora,3537.0
-6.8416853,146.0233,Table Top Mountain,3442.0
-6.9053507,145.91066,Mount Apmatari,3416.0
-7.087719,145.86993,Marble Peak,3205.0
-6.7480373,146.16978,Mount Butat,1620.0
