latitude,longitude,name,elevation
67.740944,35.82282,Горка Каменная,363.2
67.707565,35.610237,Урмаварака,361.7
68.44762,36.207172,Золотая,309.0
68.4406,36.0376,Мирезьвейв,348.0
68.4591,36.14296,Табькаинт,311.0
67.79369,36.494324,Ровгора,354.0
68.4254,35.77084,Мудчечуайв,375.6
68.45938,35.579308,Пеллапахк,342.7
68.495926,35.62903,Лешая,443.6
68.29888,35.874996,Полмос,376.1
68.30243,35.929283,Полмос-Пялка,316.2
68.27509,36.018806,Алвайва,290.1
67.504845,35.530396,Коевей,542.0
