latitude,longitude,name,elevation
8.027287,117.065414,Smooth Hill,210.0
7.844444,117.02,South Bay Hill,275.0
7.878889,117.054726,Transept Hill,429.0
7.9275,116.96555,Round Hill,126.0
7.921389,117.0675,False Balabac Peak,515.0
7.9237,117.05361,Balabac Peak,569.0
8.457222,117.23944,Mount Wangle,262.0
