latitude,longitude,name,elevation
49.361626,74.32553,Qonyrzhal,946.9
49.37558,74.47931,Asqara,851.7
49.409237,74.46408,Bekshoqy,830.0
49.34304,74.02807,Karshoqy,1108.0
49.40383,74.299164,Dongal,876.0
49.435493,74.25495,Torebay-Sarbek,766.0
