latitude,longitude,name,elevation
30.011293,122.386314,普陀山,300.0
29.638784,121.61895,白岩山,629.0
29.646381,121.55566,金娥山,633.0
29.818071,121.78082,太白山,654.0
29.62305,121.640366,银山岗,552.0
29.618753,121.65611,里脚岸,527.8
29.633984,121.67631,马家山,512.0
29.944958,121.74963,老鹰山,108.0
29.762732,121.524414,姜山头,37.0
