latitude,longitude,name,elevation
-3.5748653,35.7083,Geyasagong Hill,1666.0
-3.9123273,36.043762,Tarangire Hill,1285.0
-3.998569,35.918873,Olkambe Hill,1361.0
-4.056882,35.93767,Kitibong Hill,1411.0
-4.1385202,35.91429,Haidedunga Hill,1235.0
-4.186531,36.29993,Oldoinyo Ngahari,1534.0
-4.230078,35.8129,Mt Kwaraha,2410.0
