latitude,longitude,name,elevation
63.5389,-149.95467,Polychrome Mountain,1570.0
63.57629,-149.57385,Cathedral Mountain,1499.0
63.61393,-149.61491,Igloo Mountain,1448.0
63.967068,-150.29462,Chitsia Mountain,1169.0
63.572258,-149.70813,Sable Mountain,1827.0
63.59096,-150.11708,Mount Sheldon,1733.0
63.583855,-149.97481,Cabin Peak,1504.0
