latitude,longitude,name,elevation
8.793333,125.306946,Mount Indocay,1243.0
8.616614,125.08097,Mount Sabrang,2130.0
8.599305,125.09789,Mount Mangabon,2510.0
8.659884,125.03615,Mount Sumagaya,2248.0
8.547574,125.40583,Mount Timuyug,355.0
8.878333,125.4675,Mount Mayapay,675.0
8.853889,125.227776,Mount Piglagahan,809.0
9.178243,124.72752,Mount Timpoong,1630.0
9.151354,124.74438,Minokol Hill,782.0
