latitude,longitude,name,elevation
36.970848,45.643932,برده زرد,1430.0
37.265453,46.09055,قره قشون,1680.0
37.045013,46.308586,پاپاخلی,1500.0
37.394424,45.519753,اشک داغی,1480.0
36.926517,46.472538,جان آغا,1780.0
37.031593,46.28707,jamiş olan,1480.0
37.183872,46.074467,تپه تخت سلیمان,1391.0
37.06439,46.372253,Gün batan dağı,1888.0
