latitude,longitude,name,elevation
42.94295,-122.1724,The Watchman,2442.0
43.21763,-122.03836,Tipsoo Peak,2440.0
42.765167,-122.24207,Tom Mountain,2077.0
43.020126,-122.241974,Oasis Butte,1721.0
43.245686,-121.92225,Adell Butte,1980.0
42.638744,-121.93641,Agency Hill,1496.0
42.977623,-122.478096,Anderson Mountain,1661.0
42.509586,-121.502785,Antone Butte,1435.0
42.70736,-121.719734,Applegate Butte,1834.0
42.899853,-122.10531,Applegate Peak,2450.0
42.855408,-122.16781,Arant Point,2053.0
43.041794,-122.22031,Bald Crater,1973.0
42.804485,-122.21211,Bald Top,1894.0
43.38004,-122.421715,Balm Mountain,1845.0
42.70127,-122.20801,Bareface Butte,1929.0
43.329845,-122.23226,Basket Butte,1607.0
42.98374,-121.99586,Bear Butte,1923.0
42.703056,-122.1963,Big Bunchgrass,2024.5
43.380955,-122.231705,Birds Point,1822.0
42.697906,-122.40003,Boundary Butte,1174.0
42.805134,-121.92085,Boundary Butte,1739.0
43.0893,-121.85141,Buckeye Butte,1456.0
43.100677,-122.37365,Buckneck Mountain,1863.0
42.71492,-122.16284,Bunker Hill,1976.0
43.32568,-122.181145,Bunker Hill,1688.0
43.397903,-121.86281,Bunny Butte,1568.0
43.311516,-121.94253,Burn Butte,2273.0
42.51792,-121.552505,Buttes of the Gods,1312.0
42.63181,-121.55973,Calimus Butte,2012.0
43.315956,-122.4406,Camel Hump,1387.0
43.310406,-121.97892,Cappy Mountain,2244.0
42.87749,-122.24408,Castle Point,1913.0
42.523743,-122.299194,Cat Hill,1942.0
42.60208,-121.83002,Cave Mountain,1599.0
42.57791,-122.15113,Cherry Peak,2003.0
43.37929,-121.922806,Chinquapin Butte,1754.0
43.241062,-122.1097,Cinnamon Butte,1882.0
42.76374,-122.27253,Cinnamon Peak,1933.0
42.571247,-121.78362,Corbell Butte,1641.0
43.39957,-122.05364,Cowhorn Mountain,2314.0
42.512363,-121.544174,Coyote Butte,1386.0
43.495678,-122.11781,Crater Butte,2067.0
42.848186,-122.0978,Crater Peak,2207.0
42.650417,-121.68613,Crawford Butte,1628.0
43.462803,-121.66799,Crescent Butte,1587.703
43.20874,-121.85669,Deer Butte,1655.0
43.034016,-122.15948,Desert Cone,2028.0
42.643116,-122.2138,Devils Peak,2300.0
43.4889,-122.15215,Diamond Rockpile,1927.2
42.854576,-121.94391,Dry Butte,1722.0
42.90226,-122.11466,Eagle Crags,2060.0
43.286236,-122.15975,Elbow Butte,1419.0
43.301235,-122.23643,Elephant Mountain,1808.0
43.447903,-122.153366,Emigrant Butte,1965.0
42.722664,-122.1863,Ethel Mountain,2139.0
43.07559,-122.42374,Fish Mountain,2069.3
42.6539,-122.16549,Gardner Peak,2092.0
42.90402,-122.123085,Garfield Peak,2454.0
43.144848,-122.281425,Garwood Butte,2103.0
43.06235,-122.143364,Gaywas Peak,2057.0
43.065136,-121.57114,God Butte,1532.0
42.771614,-122.18118,Goose Egg,2031.0
42.787716,-122.15237,Goose Nest,2043.0
42.991795,-122.12114,Grouse Hill,2256.0
43.050404,-122.3217,Hamaker Butte,1478.0
43.129013,-122.193924,Hemlock Butte,1897.0
43.305405,-121.89169,Hemlock Butte,1845.0
43.0354,-122.454765,Hershberger Mountain,1908.0
43.051235,-122.48643,Highrock Mountain,1869.0
43.406017,-122.190056,Hills Peak,1833.0
43.192238,-122.039276,Howlock Mountain,2546.299
42.845406,-122.314476,Huckleberry Mountain,1936.0
42.55208,-122.20225,Imagination Peak,1980.0
43.04818,-122.461426,Jackass Mountain,1881.0
42.765408,-122.24836,Jerry Mountain,1968.0
42.639854,-122.23586,Jupiter,2256.0
43.348736,-122.18448,Kelsay Mountain,1821.0
43.300404,-122.10753,Kelsay Point,1499.0
42.739742,-122.257355,Kerby Hill,2016.0
42.689335,-122.123566,Klamath Point,2192.0
42.894226,-122.47945,Knob Hill,1147.0
42.609577,-122.16113,Lather Mountain,2102.0
42.641342,-122.20655,Lee Peak,2288.4
42.683193,-121.699455,Little Applegate Butte,1766.0
43.311516,-121.75652,Little Walker Mountain,1676.4
42.80375,-121.7178,Little Wocus Butte,1547.0
42.732616,-122.19565,Lone Wolf,2017.0
42.98374,-121.9428,Lookout Butte,1834.0
42.505966,-122.21308,Lost Peak,2052.0
42.63689,-122.22477,Lucifer Peak,2244.0
42.607075,-122.211136,Luther Mountain,2171.0
42.50014,-121.53862,Magpie Butte,1361.0
43.338463,-121.68891,Marmot Butte,1952.0
42.71529,-122.18499,Maude Mountain,2189.7
43.42401,-122.2831,McGowan Mountain,1870.0
43.448307,-122.28833,McLean Mountain,1829.0
43.261517,-121.97419,Miller Mountain,2287.0
42.504585,-121.53917,Mousehawk Butte,1379.0
43.188828,-122.497154,Mud Lake Mountain,1566.4
42.746143,-122.25039,Mudjekeewis Mountain,2018.7
43.29374,-122.00919,Mule Peak,2085.0
42.880684,-122.15808,Munson Point,2112.0
43.362625,-121.8553,Muttonchop Butte,1676.0
42.535686,-122.39447,Oak Mountain,1210.0
43.47096,-121.863914,Odell Butte,2130.0
43.331787,-122.462265,Perry Butte,1479.0
43.267624,-122.35893,Pig Iron Mountain,1639.0
42.950687,-121.943634,Pothole Butte,1842.0
43.370003,-122.34117,Potter Mountain,1816.0
43.008457,-122.44393,Rabbit Ears,1780.0
42.507366,-121.54223,Rat Butte,1391.0
43.107067,-122.42337,Rattlesnake Mountain,2026.0
42.80874,-122.34114,Red Blanket Mountain,1908.0
43.27235,-122.060585,Red Cinder Butte,1995.0
43.21374,-121.99753,Red Cone,2211.0
42.84263,-122.28614,Rocktop Butte,1937.0
43.185123,-122.2117,Rodley Butte,2058.0
43.076523,-121.68502,Round Butte,1664.0
42.965324,-122.05749,Roundtop,2109.0
42.619297,-122.34808,Rustler Peak,1892.0
42.730015,-122.18422,Ruth Mountain,2096.1
42.510696,-121.66528,Saddle Mountain,2087.0
42.807354,-122.14892,Scoria Cone,2021.0
42.967632,-121.970856,Scout Hill,1942.0
42.632793,-122.22266,Shale Butte,2238.0
43.000687,-122.00752,Sharp Peak,1812.0
43.114292,-122.251976,Sherwood Butte,2098.0
43.253456,-121.65642,Skookum Butte,1849.222
42.524033,-121.55112,Skunk Butte,1372.0
42.54013,-122.29114,Smith Rock,1994.0
42.528187,-122.36114,Snowshoe Butte,1274.0
42.725693,-121.79557,Soloman Butte,1756.0
42.592915,-121.90224,Steiger Butte,1428.0
42.937904,-122.436424,Mount Stella,1366.0
43.122078,-121.65252,String Butte,1673.0
42.689857,-121.95669,Sugar Hill,1441.0
43.117355,-121.60752,Sugarpine Mountain,1947.0
42.772633,-121.979744,Sun Mountain,1671.0
43.210133,-121.525856,Tea Table Mountain,1754.0
43.324295,-122.035866,Tenas Peak,1991.0
43.27457,-122.09309,Thirsty Point,1811.0
43.329567,-122.40532,Thorn Mountain,1606.0
43.318462,-122.01281,Tolo Mountain,2142.0
43.214848,-122.29087,Trap Mountain,1869.0
43.100124,-122.21976,Twin Knobs,1880.0
42.83124,-122.22364,Union Peak,2315.0
42.64609,-122.23777,Venus,2229.6
42.657925,-122.23166,Violet Hill,2106.4
43.30513,-121.71669,Walker Mountain,2158.0
43.39679,-122.176704,Warm Spring Butte,1774.0
43.29179,-122.27421,Watson Butte,1728.0
43.061234,-122.45032,Weaver Mountain,1921.0
43.109295,-121.88669,Welch Butte,1565.0
43.356495,-122.033806,Windigo Butte,1946.0
43.230927,-122.06999,Wits End,2013.0
42.826527,-121.68252,Wocus Butte,1619.0
42.525974,-121.575005,Wolf Butte,1375.0
42.959568,-122.44226,Wolf Peak,1415.0
43.11791,-121.79141,Rock Point,1452.0
42.833187,-122.0178,Maklaks Crater,1939.0
42.983185,-122.073364,Mazama Rock,2084.0
42.62069,-121.93446,Spring Creek Hill,1273.0
42.95374,-122.18003,Williams Crater,2315.0
42.682636,-121.87224,Spring Hill,1485.0
42.736805,-121.736404,Sand Point,1410.0
43.456787,-122.47477,Ranger Stone,1386.0
42.931324,-122.04191,Cloudcap,2444.0
43.1551,-122.22002,Mount Bailey,2550.6
43.41869,-122.32213,Rigdon Point,1828.0
43.383953,-122.1017,Sawtooth Mountain,2225.3
42.95186,-122.169205,Hillman Peak,2433.0
42.97323,-122.135475,Llao Rock,2453.0
42.977856,-122.072105,Mazama Rock,2149.0
43.0844,-122.353325,Buck Rock,1551.7
43.270515,-121.52751,Parker Butte,1792.224
