latitude,longitude,name,elevation
49.68228,55.654762,Абды,304.0
50.29843,56.088554,Бестау,307.0
50.24061,55.769775,Каменная,260.0
49.555553,56.466637,Карамола,335.0
50.19272,55.764454,Каратау,270.0
50.130802,56.382523,Каргантобе,300.0
50.105045,56.10932,Молдобектау,280.0
50.304573,56.48243,Тасгоралы,388.0
