latitude,longitude,name,elevation
37.954716,-108.42759,Island Mesa,2689.0
37.90916,-108.409256,North Mountain,3014.0
37.927494,-108.090904,Little Cone,3653.0
37.881382,-108.10313,Flat Top Peak,3529.0
37.809437,-108.455925,South Mountain,2870.0
37.79166,-108.31842,Flattop Mountain,2967.0
37.83499,-108.21869,Groundhog Mountain,3696.0
37.795547,-108.20147,Black Mesa,3456.0
37.847492,-108.12563,Dunn Peak,3831.0
37.84027,-108.096466,Dolores Peak,4052.0
37.839424,-108.006004,El Diente Peak,4310.0
37.71638,-108.36814,Beaver Mountain,2836.0
37.70138,-108.28453,Nipple Mountain,2978.0
37.654438,-108.3287,Bald Hill,2796.0
37.653328,-108.15174,Taylor Mesa,3272.0
37.719612,-108.090225,Johnny Bull Mountain,3623.0
37.710274,-108.090355,Calico Peak,3663.0
37.706383,-108.10202,Eagle Peak,3683.0
37.743607,-108.06063,Papoose Peak,3615.0
37.734417,-108.05797,Elliott Mountain,3757.0
37.72555,-108.06591,Sockrider Peak,3748.0
37.71944,-108.03841,Sandstone Mountain,3187.0
37.716663,-108.005905,Telescope Mountain,3725.0
37.68694,-108.08785,Storm Peak,3682.0
37.696384,-108.08091,Anchor Mountain,3757.0
37.69416,-108.068405,Expectation Mountain,3673.0
37.677216,-108.07452,Landslip Mountain,3549.0
37.683052,-108.02146,Newman Hill,3006.0
37.68333,-108.005905,Dolores Mountain,3690.0
37.853603,-108.27702,Island Mesa,2923.0
37.571106,-108.02146,Orphan Butte,3395.0
38.476562,-108.41378,Sawmill Mesa,2607.0
38.389454,-108.4431,Starvation Point,2355.0
38.40443,-108.177574,Oak Hill,2578.0
38.298878,-108.21175,Reade Hill,2965.0
38.237488,-108.27702,Patterson Mountain,2417.0
38.145267,-108.37231,Coventry Hill,2037.0
38.125824,-108.292305,Wrights Mesa,2146.0
38.226933,-108.07729,Coyote Knob,2522.0
38.04638,-108.25925,Oak Hill,2590.0
38.026104,-108.23758,Little Baldy,2589.0
37.991383,-107.97312,Gray Head,3346.0
37.994717,-107.934235,Whipple Mountain,3636.0
37.98416,-107.925064,Hawn Mountain,3323.0
37.937492,-107.953125,Diamond Hill,3079.0
37.934994,-107.91118,Sunshine Point,2851.0
37.88305,-107.93173,Sunshine Mesa,3075.0
37.987217,-107.855064,Campbell Peak,4022.0
37.98805,-107.82368,Dallas Peak,4168.0
37.98666,-107.79311,Gilpin Peak,4162.0
37.968884,-107.79506,Greenback Mountain,3955.0
37.982216,-107.771454,Stony Mountain,3871.0
37.974995,-107.79034,Mount Emma,4138.0
37.961105,-107.7784,Mendota Peak,4039.0
37.932495,-107.83284,Coonskin Mountain,3222.0
37.928604,-107.755615,Ajax Peak,3895.0
37.891663,-107.86229,Turkey Creek Mesa,3309.0
37.89638,-107.84673,Bald Mountain,3612.0
37.89416,-107.823395,Gold Hill,3876.0
37.883606,-107.82923,Palmyra Peak,4039.0
37.889996,-107.7959,Wasatch Mountain,4127.0
37.911938,-107.79034,Ballard Mountain,3907.0
37.914993,-107.75839,Ingram Peak,3823.0
37.89694,-107.78701,La Junta Peak,4098.0
37.889996,-107.75617,Three Needles,4104.0
37.989716,-107.749504,Potosi Peak,4195.0
37.942772,-107.744225,Chicago Peak,4067.0
37.924706,-107.735855,Telluride Peak,4117.0
37.92083,-107.63784,Brown Mountain,4062.0
37.95666,-107.73923,United States Mountain,3967.0
37.954437,-107.70256,Hayden Mountain,4028.0
37.962215,-107.64062,Abrams Mountain,3905.0
37.905552,-107.738396,Trico Peak,4054.0
37.912773,-107.68256,Red Mountain Number 2,3721.0
37.901485,-107.689156,Red Mountain Number 3,3925.0
37.880272,-107.68978,McMillan Peak,3903.0
37.910275,-107.662285,Red Mountain Number 1,3832.0
37.970272,-107.588394,Engineer Mountain,4026.0
37.992218,-107.54284,Dolly Varden Mountain,3941.0
37.959717,-107.54117,Gravel Mountain,4136.0
37.94055,-107.58645,Houghton Mountain,3974.0
37.933884,-107.61228,Tuttle Mountain,3999.0
37.95719,-107.56374,Seigal Mountain,4039.0
37.951385,-107.57812,Denver Hill,3747.0
37.929718,-107.54589,Cinnamon Mountain,4063.0
37.947495,-107.537834,Wood Mountain,4158.0
37.942497,-107.51284,Edith Mountain,3846.0
37.91472,-107.62145,Hurricane Peak,4095.0
37.918255,-107.603905,California Mountain,4018.0
37.90805,-107.60978,Hanson Peak,4100.0
37.89694,-107.62395,Bonita Peak,4043.0
37.88833,-107.62117,Emery Peak,4053.0
37.91472,-107.58367,Treasure Mountain,3908.0
37.89861,-107.58256,Eureka Mountain,3940.0
37.912987,-107.504456,Handies Peak,4284.8
37.89655,-107.52654,Jones Mountain,4215.0
37.889343,-107.53354,Niagara Peak,4202.0
37.8799,-107.536736,Crown Mountain,4120.0
37.86043,-107.98469,Wilson Peak,4274.0
37.84498,-107.98295,Gladstone Peak,4230.0
37.83921,-107.99163,Mount Wilson,4344.0
37.858326,-107.933945,Sunshine Mountain,3943.0
37.835827,-107.95062,Lizard Head,3961.0
37.847218,-107.908676,San Bernardo Mountain,3608.0
37.83213,-107.96896,Cross Mountain,3871.0
37.823822,-107.92134,Black Face,3682.0
37.785275,-107.88618,Sheep Mountain,4016.0
37.834995,-107.84951,Yellow Mountain,3924.0
37.862217,-107.78034,Lookout Peak,4151.0
37.83722,-107.790344,South Lookout Peak,4032.0
37.81166,-107.82896,Pilot Knob,4170.0
37.804718,-107.82478,Golden Horn,4188.0
37.799164,-107.8284,Vermilion Peak,4212.0
37.79583,-107.821175,Fuller Peak,4177.0
37.82444,-107.80701,Ulysses S Grant Peak,4180.0
37.779163,-107.864235,San Miguel Peak,4186.0
37.756107,-107.862015,Grizzly Peak,4186.0
37.789997,-107.82479,Beattie Peak,4056.0
37.766106,-107.82618,Rolling Mountain,4171.0
37.770275,-107.78867,Twin Sisters,3968.0
37.86083,-107.69867,Ohio Peak,3856.0
37.85916,-107.64756,Storm Peak,4086.0
37.79472,-107.73284,Bear Mountain,3951.0
37.837772,-107.70728,Anvil Mountain,3818.0
37.79333,-107.62895,Kendall Mountain,4046.0
37.78583,-107.70395,Sultan Mountain,4062.0
37.776665,-107.69562,Grand Turk,4008.0
37.85722,-107.623116,Tower Mountain,4119.0
37.86083,-107.60006,Dome Mountain,4078.0
37.844997,-107.622284,Macomber Peak,3909.0
37.848053,-107.54506,Middle Mountain,3953.0
37.807774,-107.59395,King Solomon Mountain,4014.0
37.801662,-107.62256,Hazelton Mountain,3800.0
37.79583,-107.613396,Round Mountain,3915.0
37.796387,-107.598946,Little Giant Peak,4075.0
37.828053,-107.56173,Galena Mountain,4033.0
37.79444,-107.56173,Green Mountain,3977.0
37.799442,-107.54589,Canby Mountain,4102.0
37.78722,-107.61839,Kendall Peak,4103.0
37.77333,-107.58867,Sugarloaf,3882.0
37.76,-107.60673,Whitehead Peak,4045.0
37.783333,-107.51784,Sheep Mountain,4051.0
37.785,-107.5045,Greenhalgh Mountain,4027.0
37.709717,-107.928406,Hermosa Peak,3816.0
37.685272,-107.98757,Blackhawk Mountain,3855.0
37.67444,-107.99424,Whitecap Mountain,3770.0
37.703053,-107.95785,Section Point,3635.0
37.737217,-107.80201,Jura Knob,3846.0
37.673885,-107.86285,Grayrock Peak,3811.0
37.699165,-107.80701,Engineer Mountain,3940.0
37.690273,-107.77673,Coal Bank Hill,3222.0
37.672497,-107.76673,Potato Hill,3612.0
37.669167,-107.72812,North Twilight Peak,3982.0
37.707775,-107.68895,Snowdon Peak,3985.0
37.69472,-107.63645,Mount Garfield,3983.0
37.686943,-107.63034,Point Pun,3998.0
37.663055,-107.727005,Twilight Peak,4007.0
37.659164,-107.72367,South Twilight Peak,3992.0
37.649445,-107.72173,West Needle Mountain,3981.0
37.6525,-107.65562,Needle Mountains Peak Fourteen,3797.0
37.62861,-107.63617,Needle Mountains Peak Fifteen,4157.0
37.628887,-107.62811,Needle Mountains Peak Sixteen,4048.0
37.644165,-107.63312,The Index,4081.0
37.643333,-107.62923,Animas Mountain,4191.0
37.6325,-107.64617,Pigeon Peak,4247.0
37.6275,-107.639786,Turret Peak,4211.0
37.628334,-107.632286,Little Finger,4032.0
37.6975,-107.55728,Needle Mountains Peak One,4138.0
37.708054,-107.57395,Needle Mountains Peak Two,4058.0
37.69639,-107.57756,Needle Mountains Peak Three,4095.0
37.66,-107.60756,Needle Mountains Peak Four,4089.0
37.656944,-107.596725,Needle Mountains Peak Five,4026.0
37.66028,-107.58506,Needle Mountains Peak Six,4172.0
37.667778,-107.57395,Needle Mountains Peak Seven,4158.0
37.67111,-107.567,Needle Mountains Peak Eight,4022.0
37.66972,-107.56006,Needle Mountains Peak Nine,4085.0
37.643333,-107.60561,Needle Mountains Peak Ten,3545.0
37.62861,-107.605896,Needle Mountains Peak Eleven,4116.0
37.640556,-107.62479,Needle Mountains Peak Thirteen,4161.0
37.698887,-107.61729,Electric Peak,4049.0
37.68944,-107.61951,Graystone Peak,4109.0
37.692776,-107.61006,Arrow Peak,4204.0
37.68944,-107.60256,Vestal Peak,4201.0
37.704166,-107.54645,White Dome,4155.0
37.684998,-107.58117,Trinity Peaks,4210.0
37.676666,-107.5595,Storm King Peak,4187.0
37.670277,-107.54811,Mount Silex,4151.0
37.705276,-107.53145,Hunchback Mountain,4001.0
37.67611,-107.50839,Mount Nebo,4018.0
37.664444,-107.622284,The Heisspitz,4037.0
37.64639,-107.589226,Gray Needle,4063.0
37.645554,-107.58395,Jagged Mountain,4213.0
37.637775,-107.62479,Monitor Peak,4142.0
37.63889,-107.59478,Knife Point,4036.0
37.62611,-107.61423,Glacier Point,4162.0
37.628334,-107.60895,Twin Thumbs,4032.0
37.627422,-107.59585,Sunlight Peak,4287.0
37.653053,-107.5745,Leviathan Peak,4117.0
37.650276,-107.56617,Vallecito Mountain,4089.0
37.66361,-107.54034,The Guardian,4151.0
37.60083,-107.83062,Castle Rock,3169.0
37.5725,-107.707565,Tank Mesa,3611.0
37.57,-107.68978,Stag Mesa,3713.0
37.559723,-107.675896,Lime Mesa,3686.0
37.589188,-107.62708,Mount Kennedy,3962.0
37.621784,-107.62266,Mount Eolus,4295.0
37.62131,-107.59184,Windom Peak,4296.0
37.6125,-107.592,Jupiter Mountain,4212.0
37.599445,-107.59117,Hope Mountain,3953.0
37.591667,-107.61589,Aztec Mountain,4057.0
37.58472,-107.604225,Bullion Mountain,4009.0
37.582222,-107.59395,Florida Mountain,3967.0
37.574165,-107.584785,Mount Valois,4017.0
37.582222,-107.60117,Silver Mesa,3981.0
37.61778,-107.57006,Greylock Mountain,4134.0
37.6075,-107.582,Grizzly Peak,4158.0
37.60472,-107.560616,Thunder Mountain,3992.0
37.5975,-107.57812,McCauley Peak,4116.0
37.59139,-107.571724,Echo Mountain,4051.0
37.595,-107.5095,Irving Peak,4024.0
37.557224,-107.565056,Emerson Mountain,3968.0
37.565277,-107.5595,Amherst Mountain,4013.0
37.56778,-107.55367,Organ Mountain,3970.0
37.535835,-107.58478,Sheridan Mountain,3885.0
38.40332,-107.94951,Beaver Hill,2030.0
38.38221,-107.87895,Sims Mesa,1989.0
38.38749,-107.674225,Waterdog Peak,2865.0
38.43943,-107.69506,Hairpin Hill,2541.0
38.419987,-107.63617,Coal Hill,2692.0
38.459156,-107.58283,Sheep Knob,2903.0
38.2586,-107.78978,McKenzie Butte,2442.0
38.315266,-107.63728,Storm King,3456.0
38.3086,-107.52478,Horse Mesa,2966.0
38.170547,-107.91312,Spruce Mountain,3009.0
38.1936,-107.93145,Horsefly Peak,3144.0
38.183323,-107.93923,Flat Top,3096.0
38.163048,-107.77256,Round Top,2244.0
38.2161,-107.84784,Burnt Mill Mesa,2546.0
38.198322,-107.65145,Onion Hill,2476.0
38.129715,-107.615616,Sneva Mountain,2762.0
38.150547,-107.60339,Stealey Mountain,3119.0
38.1351,-107.57495,Courthouse Mountain,3695.0
38.129993,-107.539505,Dunsinane,3867.0
38.03055,-107.90951,Hayden Peak,3946.0
38.038605,-107.915344,North Pole Peak,3694.0
38.117767,-107.900345,West Baldy,2981.0
38.013603,-107.75311,Mount Ridgway,4104.0
38.000828,-107.76173,Teakettle Mountain,4172.0
38.07888,-107.833115,South Baldy,2993.0
38.00916,-107.86173,Mears Peak,4097.0
38.016106,-107.84728,Wolcott Mountain,3971.0
38.003883,-107.77173,Cirque Mountain,4175.0
38.028236,-107.69231,Twin Peaks,3314.0
38.028328,-107.68839,Sister Peak,3134.0
38.037903,-107.64138,Cascade Mountain,3548.0
38.02055,-107.73784,Whitehouse Mountain,4118.0
38.11027,-107.68117,Baldy Peak,3223.0
38.01333,-107.57756,Wildhorse Peak,4037.0
38.028885,-107.56478,Blackwall Mountain,3981.0
38.060795,-107.51101,Wetterhorn Peak,4274.0
38.079994,-107.533394,Coxcomb Peak,4149.0
38.087215,-107.53311,Redcliff,4154.0
38.119396,-107.53522,Precipice Peak,3845.0
38.003788,-107.79227,Mount Sneffels,4315.4
37.69222,-107.98952,Harts Peak,3822.0
37.76583,-107.60561,Mount Rhoda,4088.0
37.982773,-107.58811,Darley Mountain,4040.0
37.9336,-108.49259,The Butterfly,2715.0
37.98277,-108.42314,Hamilton Mesa,2735.0
37.95916,-108.29258,Stockdale Point,2621.0
37.888046,-108.25591,Lone Cone,3836.0
37.99777,-108.2223,Big Baldy,2801.0
37.949993,-108.14285,Beaver Mesa,2791.0
37.904995,-107.95174,Wilson Mesa,3066.0
37.956383,-108.07507,Specie Mesa,2968.0
38.000824,-107.96007,Last Dollar Mountain,3391.0
38.007397,-107.88307,Ruffner Mountain,3947.0
37.98777,-107.86617,Iron Mountain,3880.0
37.76638,-108.4787,Lone Mesa,2809.0
37.747494,-108.39231,Belmear Mountain,2940.0
37.85555,-108.1123,Middle Peak,4030.0
37.647217,-108.26869,Stoner Mesa,2812.0
37.514168,-107.59728,Endlich Mesa,3793.0
38.049435,-108.099236,Iron Springs Mesa,2761.0
38.058327,-107.968956,Hastings Mesa,2932.0
38.43082,-107.93451,Spring Creek Mesa,1893.0
38.489708,-107.99396,Franklin Mesa,1829.0
37.95944,-107.85923,Deep Creek Mesa,3015.0
37.87416,-107.836174,Silver Mountain,3942.0
37.745827,-107.9484,Flattop Mountain,3687.0
37.703606,-107.88035,Graysill Mountain,3663.0
37.625244,-107.6212,North Eolus,4311.0
37.581474,-107.62815,West Silver Mesa,3810.0
38.406376,-107.7445,Kinikin Heights,2118.0
38.210545,-107.90451,Log Hill Mesa,2735.0
38.083603,-107.76978,Miller Mesa,2809.0
37.995552,-107.50867,Sunshine Mountain,4051.0
37.899548,-107.51247,American Peak,4184.0
37.77222,-107.702225,Spencer Peak,3960.0
37.84148,-107.52216,Cuba Point,3968.0
37.856964,-108.0117,Fowler Peak,4114.0
37.85544,-108.03129,Boskoff Peak,4000.0
37.875317,-107.79392,Oscar's Peak,4094.0
38.14659,-107.5694,Chimney Rock,3591.0
37.894127,-107.707405,Carbon Knob,3580.0
37.91878,-107.663795,Brown Mountain,3756.0
