latitude,longitude,name,elevation
-27.5617,32.045,Nkangala,649.8336
-27.695,32.135,Magwaza,548.9448
-27.8483,31.6283,Nhlopenkulu,901.9
-28.3783,31.515,KwaHlopekulu,837.0
-27.8158,31.9542,Ntabayezulu,609.9
-27.9133,31.9783,Pofukulu,652.9
-28.0242,31.9933,Nhlwathi,673.9
-27.5125,31.5942,Mahlalela,823.9
-27.6692,31.9008,Mloyi,687.9
-28.2642,31.6558,KwaNdevu,646.8
-27.6358,31.6808,Mahlangosi,630.9
-27.5425,31.555,KwaVundla,944.9
-27.6183,32.085,Ghost Mountain,518.8
