latitude,longitude,name,elevation
6.0004,-61.453228,Sierra de Lema,1650.0
6.441563,-61.37714,Cerro Desayuno,751.49
6.06925,-61.40087,Cerro La Virgen,508.09
6.1642995,-61.352486,Cerro Lema,715.07
5.9732656,-61.396324,Cerro Venamo,1440.0
