latitude,longitude,name,elevation
-12.2201,132.88547,Arndalk,74.0
-12.05291,132.8962,Awunbarna,137.0
-11.53882,132.65184,Bay Hill,63.0
-12.19231,132.85844,Mamurdi,86.0
-11.90485,132.98293,Mount Permain,222.0
-12.3728,132.9456,Namarr-Ganag Ga,81.0
-12.3051,133.079,Nimbabirr Hill,146.0
-12.33393,133.06516,Oenpelli Hill,110.0
