latitude,longitude,name,elevation
13.580268,26.651306,Jabal Nebbilla,755.0
13.662165,26.879711,Jabal Umm Marahik,789.0
13.69359,27.458948,Jabal Adashir,781.0
13.821221,26.60844,Jabal Kharrāţ,855.0
13.545095,27.102425,Jabal Tobei,771.0
13.713639,26.64264,Jabal Amni,770.0
13.664837,26.577917,Jebel Hagilla,745.0
13.540355,26.884403,Jebel Kadab,759.0
13.827569,26.557343,Qalb el Ba'ir,818.0
13.630472,27.288486,Jebel Terragiya,696.0
