latitude,longitude,name,elevation
-31.54604,-52.89114,Três Pedras,334.0
-31.796461,-52.791527,Cerro Pelado,215.0
-31.915825,-53.276005,Cerro Chato,250.0
-31.880148,-53.405807,Cerro Partido,330.0
-31.892582,-53.430218,Cerro do Baú,340.0
-32.086964,-53.314648,Serra da Maria Pinto,290.0
-31.51021,-53.112034,Cerro do Ubaldo,350.0
-31.520351,-52.800995,Cerro do Emilianinho,308.0
