latitude,longitude,name,elevation
-4.200528,142.81277,Mount Ambunti,468.0
-4.2777667,143.0096,Mount Garamambu,512.0
-4.40744,143.01996,Cloud Mountain,485.0
-4.4612303,142.50626,Pyramid Mountain,639.0
-3.6148176,143.34766,Mount Turu,1219.0
