latitude,longitude,name,elevation
14.350536,45.00826,جبل وتير,2132.0
14.368453,45.012177,جبل الشهد,2047.0
14.344024,44.88908,جبل براش,2393.0
14.333333,44.95,جبل هروم,2212.0
14.221698,44.786533,جبل حمّة عتمة,2963.0
14.262778,44.79338,جبل كنوب,2916.0
13.765688,45.131218,جبل أدران,2419.0
13.696211,45.070854,جبل الأعلي,1389.0
13.766771,45.018986,جبل إثري,1834.0
13.865607,45.378017,ذلحيكل,2048.0
14.322813,44.952793,Jabal Riyām,2544.0
