latitude,longitude,name,elevation
29.780153,52.309246,قلات,3011.0
30.402096,51.947365,برم فیروز,3711.0
30.344349,51.995644,رنج,3694.0
29.854752,51.82077,کوه تاسَک,3060.0
29.695366,52.381516,کوه دراک,2900.0
