latitude,longitude,name,elevation
22.029165,121.566956,奧本嶺,298.0
22.010328,121.58571,大森山,482.74
22.04521,121.55704,山田山,432.0
22.031254,121.53688,台山,235.83
22.053017,121.53453,紅頭山,548.0
22.05975,121.54287,青蛇山,439.0
22.073893,121.556725,尖禿山,464.0
22.063766,121.56617,草山,122.0
22.061707,121.56087,清水山,171.0
22.065819,121.53308,殺蛇山,495.0
22.058619,121.51838,相愛山,509.0
22.081427,121.50499,鰭尾山,203.0
22.037943,121.53905,飯山,408.0
22.019815,121.5941,龍門溪山,378.0
