latitude,longitude,name,elevation
-27.203068,-48.496655,Morro do Macaco,191.0
-27.472227,-48.380066,Morro das Aranhas,255.0
-27.415869,-48.416634,Morro da Cachoeira,245.0
-27.463945,-48.425564,Morro do Bom Jesus,395.0
-27.389376,-48.4316,Morro das Canas,100.0
-27.442545,-48.36447,Morro dos Ingleses,195.0
-27.158504,-48.496548,Morro do Ventura,158.0
-27.49993,-48.4458,Morro da Passagem,450.0
