latitude,longitude,name,elevation
-34.401447,19.28317,Mosselberg,341.8
-33.930935,18.989902,Eikenhofpiek,1367.0
-33.97656,18.99145,First Ridge Peak,1517.0
-33.929638,18.999363,Drakensteinpiek,1491.0
-33.926235,18.980728,Dragoon Peak,1210.0
-33.914433,18.994688,Hutchinson's Peak,1324.1
-33.894547,18.936884,Joubertspiek,998.8
-33.9586,18.956642,Square Tower Peak,1126.0
-33.983696,18.997225,Second Ridge Peak,1515.0
-33.971928,18.989408,Virgin Peaks,1460.0
-33.745033,18.941996,Bretagneklip,644.0
-33.740295,18.949457,Paarl Rock,542.0
-33.702286,19.12326,Krom River Dome,1384.0
-33.69235,19.129473,Krom River Peak,1452.0
-33.685772,19.107576,New Year Peak,1327.0
-33.883926,18.927206,Simonsberg,1390.2
-34.035942,18.984642,Somerset-Sneeukop,1590.4
-33.639164,19.12682,Klein Wellington-Sneeukop,1597.1
-34.39089,19.44619,Boskop,768.3
-33.937187,18.985428,Bullerskop,1425.0
-33.967968,18.971748,Twins south peak,1493.8
-33.96978,18.90078,Stellenboschberg,1175.0
-33.672497,19.090216,Die Sewe Susters,1388.0
-33.78241,19.29502,Klein-Sneeukop,1618.0
-33.86381,19.294966,Stettyns Peak,1820.4
-34.321575,19.458261,Steenboksberg,783.2
-34.393173,19.343393,Maanskynkop,963.7
-34.36549,18.828194,Hangklip,453.9
-34.414234,19.240677,Hoy's Koppie,86.0
-33.935837,18.924036,Bothmaskop,914.0
-33.882748,19.150032,Du Toitskop,1419.0
-33.872776,19.198723,Perdekop,1575.0
-34.39819,19.148855,Onrusberg,461.0
-34.02068,19.02572,Dwarsberg,1522.0
-34.008617,19.04216,Emerald Dome,1512.0
-34.01234,19.035551,Victoria Peak,1591.1
-33.986366,19.000942,Third Ridge Peak,1522.0
-34.397068,19.160599,Onrusberg,463.0
-34.396866,19.175804,Onrusberg,493.0
-34.102695,18.966537,Hans se Kop,1200.0
-33.825424,18.604574,Kanonkop,465.0
-33.76996,19.1164,Elandspiek,1317.1
-34.394596,19.269358,Lemoenkop,207.0
-34.39779,19.288637,Mt. Cyclopia,466.0
-34.40198,19.296976,De Mond se Kop,570.5
-34.382793,19.29365,Mt Pustulata,668.0
-33.997955,18.929482,Haelkop,1384.0
-34.038532,18.869417,West Peak,1003.0
-34.03133,18.880333,Helderberg Dome,1137.0
-33.965137,18.972698,Twins north peak,1494.0
-33.745766,19.080688,Huguenootkop,1318.0
-34.32512,19.291647,Babilonstoring,1167.5
-33.8217,19.15635,Wemmershoek Tafelberg,1748.1
-34.324207,19.009666,Three Sisters,634.0
-34.016846,18.966455,Pic-sans-nom,1184.0
-33.951687,18.991152,Spitskop,1284.0
-33.970497,19.01416,Easter Peak,1489.0
-33.965782,19.012924,Bulkop,1521.0
-34.01209,18.996094,Sterrekykerskop,1222.0
-34.051914,18.99177,Landroskop,1435.0
-34.021587,18.98273,Triplet 3,1479.0
-34.023106,18.98575,Triplet 1,1516.0
-34.025604,18.985312,Triplet 2,1512.0
-34.378963,19.282158,Platberg,748.0
-34.232674,18.88737,Koggelberg,1261.0
-34.201527,18.846735,Steenbras peak,770.7
-33.51244,19.381979,Woolworth Building,1727.0
-33.86293,18.906929,Kanonkop,956.9
-33.87828,18.917429,Drostersnes,1293.0
-33.951977,19.04789,Olifantsberg,983.0
-33.926235,19.02682,Afrikaskop,1152.0
-33.93739,18.98091,Bullerskop Lower Summit,1392.8
-33.913803,18.989492,Devil's Tooth,1131.0
-33.702057,19.148794,Witteberg,1736.0
-33.67722,19.183544,Slanghoekpiek,1695.7
-33.754013,19.188192,Dutoitspiek,1994.7
-33.850216,19.168362,Peaklet,1321.0
-33.80296,19.250782,Goudini-Sneeukop,1862.8
-33.77351,19.076622,Spitskop,1390.0
-33.77231,19.054842,Middagberg,1107.0
-33.779533,19.039837,Spitskop,1028.0
-33.777683,19.038382,Klein-Drakensteinkop,1047.0
-33.78889,19.022966,Vaalkop,887.7
-33.822994,19.070683,Platberg,747.6
-33.83911,19.156874,The Pinnacles,1409.0
-33.834396,19.153666,April Peak,1512.0
-33.83187,19.165703,Olifantshoekpiek,1742.0
-33.766975,19.086416,Haelhoeksneeukop,1532.0
-33.80729,19.14077,Winterberg,1613.0
-33.52374,19.398804,Fonteintjiesberg,1989.0
-33.50025,19.31508,Sybasberg,1899.4
-33.642593,19.1558,Slanghoek Pile,1554.0
-33.62847,19.115671,Deviation Buttress,1242.0
-33.655983,19.147524,Groot Wellington Sneeukop,1685.0
-33.509075,19.11123,Bailey's Peak,1504.0
-34.19064,19.49571,Swartberg,1079.0
-33.5972,19.060488,Groenberg,922.0
-34.13866,19.134615,Mount Lebanon,1201.5
-33.649563,19.24668,Badsberg,940.0
-34.32758,18.92887,Platberg,909.0
-33.968052,19.11155,Franschhoekpiek,1372.0
-33.72289,18.914406,Groot Waboomkop,722.0
-33.592392,18.80673,Kanonkop,758.5
-33.750355,19.36657,Queen Victoria Peak,1300.2
-33.965767,19.253044,Blokkop,1643.3
-33.50846,19.387152,Horseshoe Peak,1881.0
-33.89302,19.255047,Kroonlandpiek,1672.4
-33.553738,19.460829,Audenberg,1705.5
-33.516445,19.344633,Mount Superior,1913.0
-33.510868,19.346977,Pyramid Peak,1898.0
-33.511425,19.39377,Cleft Ridge Peak,1865.0
-33.503265,19.3842,Mount Brodie,1851.0
-33.55709,19.394249,Brandwagpiek,1809.4
-33.522285,19.343943,Tuesday Peak,1781.0
-33.556694,19.386755,Chavonnesberg,1756.0
-33.50169,19.378073,Windsor Peak,1642.0
-33.933388,18.844282,Papegaaiberg,245.0
-33.829464,18.857454,Klapmutskop,523.0
-33.985527,19.003548,Banghoek Peak,1522.0
-33.51393,19.310425,Camel,1778.0
-33.5505,19.314623,Rooiberg,1235.0
-33.511524,19.352524,Central Peak,1871.0
-33.51149,19.399078,Cleft Peak,1784.0
-33.56506,19.462736,Audenberg Ridge Peaks,1457.0
-33.56911,19.467707,Audenberg Ridge Peaks,1315.0
-33.568302,19.48554,Audenberg Ridge Peaks,1262.0
-33.594135,19.479126,Spitskop,758.9
-34.20435,18.839588,Boskloofpiek,665.0
-33.907578,19.073143,Matoppie,663.2
-33.925793,19.07313,Middelberg,567.0
-33.95062,19.092028,Skerpheuwel,918.2
-33.96129,19.078466,Centre Peak,752.0
-33.97539,19.098406,Bushman's Castle,1350.0
-33.875286,19.146406,Dikkop,1283.0
-33.859314,19.055826,Bakenkop,496.0
-33.79727,19.208113,Deception Peak,1749.0
-34.044308,18.974304,Landrosnaald,1346.0
-34.087242,18.973606,Moordenaarskop,1343.0
-34.071274,18.967772,Langklippiek,1359.0
-34.06427,18.970379,Valleiberg,1370.0
-34.02501,18.889479,Driekop,971.0
-34.004433,18.90967,Suurberg,1090.0
-33.675453,19.193996,Slanghoek Needle,1607.0
-33.993202,19.427298,Olifantsberg,1599.9
-33.6383,19.1667,Slanghoek Ridge Peak,1540.0
-33.5867,19.11,Limietkop,1151.7
-33.8958,19.1983,Adolfskop,1581.0
-33.5975,19.1692,The Cossacks,1439.4
-34.1133,19.4775,Spitskop,608.9904
-34.3133,18.8675,Buffelstalberg,826.9224
-33.9183,19.1467,Middagkransberg,1028.7
-34.2617,18.8783,Sanctuary Peak,1051.0
-34.3408,18.8942,Voorberg,839.724
-33.8633,19.4325,Hammansberg,774.7
-33.8717,19.1267,Suikerboskop,1252.0
-33.9717,19.3617,Wolfieskop,1262.3
-33.70731,19.17182,Molenaarspiek,1525.0
-33.9283,19.3133,Ratelberg,1229.4
-33.9192,19.0958,Dassenberg,552.0
-34.39983,19.49513,Klippiesberg,740.1
-33.56,19.2858,Kleinberg,707.7
-34.1017,19.2733,Eseljagsberg,552.9
-33.5708,19.1783,Lategansberg,1110.0
-34.375572,19.292389,Aasvoëlkop,823.7
-33.7292,19.3908,Bloukop,791.0
-33.582035,18.799768,Graskop,723.0
-33.57186,18.825127,Tierneskop,544.0
-33.562004,18.82925,Wolfkop,455.0
-33.853813,18.58863,Tygerberg,415.0
-33.701954,19.1685,Molenaar's Needle,1415.0
-34.28256,18.834547,Rooielsberg,637.1
-34.26966,18.864765,Blousteenberg,859.9
-34.253834,18.886488,Koeëlberg,722.0
-33.92234,18.983673,Dragoon Buttress,1276.0
-33.897877,19.257648,Louwshoekkop,1502.0
-33.8875,19.302395,Klein Tafelberg,1512.0
-33.621635,19.151808,Observation Peak,1313.0
-33.625126,19.166895,Kortberg,1497.0
-33.544193,19.191761,Swaarmonkop,644.0
-34.13577,19.123922,Aasvoëlkop,1155.0
-34.13243,19.114374,Graskop,1070.0
-33.94172,19.238684,Aasvoëlberg,1581.0
-34.037262,18.972143,Sneeukopnaald,1285.0
-34.034336,18.9705,Pisgah,1349.0
-33.838055,19.039722,Bobbejaankrans,552.0
-33.675694,19.0769,Hugenootkop,1078.0
-33.7573,19.056828,Drostersberg,1035.0
-33.865658,19.048676,Daskop,286.0
-33.780926,18.868137,Anyskop,212.0
-33.505913,19.499756,Loskop,548.0
-33.540787,19.45153,Meiring's Ridge Peaks,1523.0
-33.53923,19.440586,Meiring's Ridge Peaks,1537.0
-33.535404,19.424429,Meiring's Ridge Peaks,1638.0
-33.51571,19.425222,Trident Peak,1617.0
-33.512924,19.447115,Crown Peak,1322.0
-33.854298,19.18848,Wemmershoek Peak,1765.7
-33.55255,18.541685,Kanonkop,418.0
-33.54855,19.283098,Rondekop,633.0
-33.59841,19.380398,Olifantsberg,631.7
-33.513615,19.305876,Hump,1525.0
-33.519505,19.309181,Boesmansberg,1735.0
-33.622158,19.463009,Rondekop,360.9
-33.607716,19.460024,Die Koppe,526.0
-33.74475,19.472334,Dewetsberg,489.3
-33.658722,19.10021,Geelbekskop,1078.0
-33.570633,19.220404,Kleinberg,397.0
-33.685905,19.15931,Grassy Dome,1489.0
-34.03278,19.073889,Die Kruile,884.0
-33.875,19.005278,Bleskop,191.5
-34.04671,19.006495,Landdroskop,1133.0
-33.812088,19.12895,Platbergkop,1444.0
-33.723587,19.186836,Leeuklipkop,488.0
-33.50417,19.360592,Jan du Toit's Ridge Pinnacles,1784.0
-33.503124,19.355555,Jan du Toit's Ridge Pinnacles,1778.0
-33.910065,19.401897,McKay's Kop,456.0
-33.92812,19.402813,Vetkop,617.0
-34.047043,19.45408,Vaalkop,373.0
-33.910477,19.442148,Platberg,438.0
-33.69884,19.254484,Vaaltynskraalkloof,579.0
-33.765717,19.069626,Felixberg,1146.0
-34.08589,19.078846,Perdekop,441.0
-33.73162,19.30933,Wolweberg,451.0
-33.74568,19.446487,Kwaggasberg,458.0
-33.96183,19.296928,Spitskop,639.0
-33.86083,19.449598,Viljoensberg,677.0
-33.890987,19.42737,McKay's Kop,456.0
-33.843887,19.423794,Bruintjieskop,323.0
-34.36686,19.277607,Suurkop,424.0
-34.310432,19.340307,Shaw's Mountain,643.0
-34.395557,19.260555,Olifantsberg,344.0
-34.37607,19.223116,Kleinbergie,327.0
-34.238724,19.291304,Groenrug,273.0
-34.272625,19.379147,Badshoogte,251.1
-33.860832,19.099445,Perdekop,1120.8
-33.870857,19.158243,Observation Point,1056.0
-33.832962,19.027485,Merinokop,614.0
-33.858807,19.026148,Kleinberg,345.7
-34.328526,19.02978,Jean's Hill,188.0
-34.312504,18.865896,Buffelstalberg,844.0
-34.332806,18.891148,Spitskop,858.0
-34.351967,18.82263,Pringle Bay Peak,159.0
-34.095203,18.996878,Frans se Kop,1034.0
-34.184227,19.168829,Graskop,866.0
-34.192814,19.181347,Houwhoek Peak,896.5
-34.34828,18.939745,Elephant Rock Mountain,656.0
-34.32515,18.982615,Bailey's Kop,185.0
-34.340652,18.978615,Elephant Rock,243.0
-33.829407,18.931711,Babilonstoring,253.0
