latitude,longitude,name,elevation
45.37575,10.412159,Monte Rotondo,111.0
45.38182,10.405364,Monte San Giorgio,128.0
45.391754,10.396737,Monte San Zeno,129.0
45.402096,10.393772,Monte del Generale,122.0
45.399063,10.493859,Monte della Palazzina,183.0
45.43356,10.493113,Monte Nuvolo,233.0
45.429577,10.485769,Monte Malocco,182.0
45.419502,10.4889965,Monte dei Fortini,171.0
45.465034,10.419637,Monte di Sopra,179.0
44.54325,10.080231,Monte Cavalcalupo,1368.0
44.541077,10.05971,Monte Scarabello,1341.0
44.556187,10.096158,Monte Montagnana,1311.0
44.59455,10.044322,Monte Cassio,1023.0
44.600834,10.1792,Monte Sporno,1058.0
45.36422,10.435584,Monte Rocchetta,122.0
45.36724,10.420455,Monte Fogliuto,98.0
45.486546,10.490128,Monte Falò,270.0
45.46228,10.418581,Monte Di Sotto,170.0
44.604378,10.199929,Monte Formicara,853.0
44.588478,10.174713,Monte Corno,1090.0
44.582676,10.173794,Monte Pozzo,1066.0
44.63286,10.15281,Monte Bosso,719.0
44.6249,10.145107,Monte Groppo,709.0
44.59826,10.094009,Monte Croce,945.0
44.598846,9.829041,Monte Barigazzo,1284.0
44.573334,9.796666,Monte Disperata,1176.0
44.565567,9.806811,Monte La Tagliata,1232.0
44.613426,9.772458,Pizzo d'Oca,1004.0
44.507267,10.269551,Monte Fuso,1115.0
44.515434,10.057145,Monte Cervellino,1493.0
44.6237,10.228323,Monte Vetrola,665.0
44.616608,10.216364,Monte Milano,767.0
44.56814,10.172252,Monte Sesiolo,855.0
44.570293,10.143568,Monte Vitello,1052.0
44.566475,10.143246,Monte Prandone,1014.0
44.640728,10.012033,Monte Sant'Antonio,736.0
44.662582,10.01977,Monte Cappuccio,457.0
44.739803,10.072032,Monte Genesio,442.0
44.735126,10.040764,Monte Inverno,560.0
44.545418,9.651242,Monte Pelpi,1481.0
44.542145,9.752029,Monte Santa Donna,1027.0
44.544357,9.813412,Monte Arsone,1174.0
44.505653,9.796203,Monte Cappella,727.0
44.545677,9.741137,Monte Groppello,971.0
44.52963,9.504897,Monte Tomarlo,1601.0
44.782616,9.928282,Monte Larino,582.0
44.788116,9.923468,Monte Cascinelle,552.0
44.79341,9.942204,M. Pianazzo,479.0
44.571293,10.381341,Monte Castello,536.0
44.564564,10.393086,Monte Lugaro,480.0
44.592403,10.382979,Monte Bellaria,400.0
44.62092,10.331877,Monte Cedogno,410.0
44.61957,10.323171,Monte Fornello,401.0
44.589287,10.31618,Monte Sommariva,560.0
44.60037,10.33844,Monte Rosso,461.0
44.623264,10.342386,Monte Cagliara,429.0
44.612225,10.369656,Monte Moro,392.0
44.614048,10.358964,Monte Figna,354.0
44.581074,10.207037,Monte Ciumè,851.0
44.595104,10.232822,Monte Corno,598.0
44.77074,9.914193,Monte Pietranera,677.0
44.759052,9.9179535,Monte Canate,853.0
44.682686,9.681119,Monte di Lama,1342.0
44.67294,9.69325,Colle Il Castellaccio,1308.0
44.671764,9.703192,Groppo di Gora,1302.0
44.602573,9.551945,Monte Camulara,1564.0
44.588608,9.53852,Monte Ragola,1712.0
44.59073,9.553571,Monte Ragolino,1647.0
44.561905,9.508744,Monte Nero,1752.0
44.68003,9.768874,Monte Carameto,1318.0
44.706985,10.191924,Monte Castione,315.0
44.660797,9.692448,Monte Prarbera,1284.0
44.65251,9.702789,Monte Crodolo,1256.0
44.565754,10.452006,Monte Tesa,690.0
44.61352,10.194862,Monte Palone,710.0
44.605846,10.1807375,Monte Olmo,939.0
44.615555,10.21156,Monte Bosso,784.0
44.643314,10.084546,Monte Prinzera,736.0
44.750443,9.534867,Monte Osero,1301.0
44.52393,10.070643,Groppo Grugola,1280.0
44.5288,10.06487,Monte Sprela,1284.0
44.508354,10.083092,Monte Provenga,1222.0
44.610435,9.8003,Monte Cravedosso,1101.0
44.57729,9.528341,Monte Zovallo,1491.0
44.642395,10.055662,Rocca Galgana,429.0
44.88986,9.550939,Monte Pillerone,594.0
44.87958,9.509259,Costa del Bulla,656.0
44.648357,9.862761,Monte Dosso,1245.0
44.85523,9.576195,Monte Dinavolo,702.0
44.654076,9.89474,Monte Lei,910.0
44.644363,9.903998,Monte Albareto,851.0
44.674843,9.888339,Poggio Stradella,517.0
44.718307,9.652437,Monte Santa Franca,1321.0
44.696907,9.672091,Monte Menegosa,1356.0
44.733765,9.788678,Monte Lucchi,942.0
44.726597,9.793977,Monte Mu,951.0
44.731644,9.777317,Monte Palazza,915.0
44.7173,9.787025,Monte Costaccia,928.0
44.64267,9.849202,Monte Pelato,1067.0
44.681675,9.707151,Monte Cravola,1185.0
44.67591,9.789695,Monte Pratobello,1191.0
44.709717,9.750185,Rocca Casali,871.0
44.548824,9.779615,Monte Piano,1150.0
44.64609,9.828066,Groppo della Rocca,708.0
44.641933,9.629402,Roccia 5 Dita,1081.0
44.638798,9.627442,Groppo Sidoli,1072.0
44.62093,9.655983,Poggio Castella,768.0
44.554886,9.844434,Monte Piano,1002.0
44.566288,9.81706,Monte Corno di Bue,1207.0
44.752995,9.656196,Monte Obolo,1098.0
44.812057,9.5756035,Monte Barbieri,865.0
44.81676,9.582338,Monte Sant'Anna,781.0
44.537746,9.996451,Monte Marino,989.0
44.500282,10.043665,Maestà di Graiana,1335.0
44.546196,10.342973,Monte Farneto,531.0
44.55825,10.35156,Monte Rosso,519.0
44.508335,10.1821375,Monte Rotondo,969.0
44.520275,10.2920265,Monte Cerreto,809.0
44.718956,9.897079,Monte Santa Cristina,963.0
44.503296,9.904048,Groppo della Donna,1139.0
44.518097,9.916749,Monte Minara,1011.0
44.569607,9.974469,Monte Gallinara,746.0
44.598053,10.498124,Monte Corniola,424.0
44.59202,10.488254,Monte delle Mandorle,442.0
44.586082,10.4867525,Monte Pentile,491.0
44.58574,10.47701,Monte della Sella,541.0
44.614475,10.440561,Monte Pezzola,441.0
44.618748,10.450867,Colle Caverzano,404.0
44.62809,10.472404,Monte Vetro,291.0
44.627293,10.461848,Monte Zagno,309.0
44.627563,10.468478,Bianello,300.0
44.621536,10.487541,Monte Biliano,395.0
44.617397,10.4951725,Monte Rico,313.0
44.620834,10.481919,Monte Airone,389.0
44.605534,10.445836,Monte Fontana,426.0
44.60094,10.445552,Monte Rivaronca,425.0
44.524952,10.388865,Monte Staffola,693.0
44.557117,10.441639,Monte Castellazzo,560.0
44.545994,10.462916,Monte Muggi,727.0
44.548275,10.460708,Monte Pulce,739.0
44.54028,10.454908,Monte Barazzone,736.0
44.605648,10.460915,Monte Covra,415.0
44.603523,10.436798,Monte Sgiura,411.0
44.5598,10.493058,Poggio della Presa,465.0
44.525333,10.438859,Monte Venere,462.0
44.713177,10.018745,Pietra Corva,543.0
44.83481,9.634653,Monte Santo,652.0
44.76052,9.537991,la Rocchetta,984.0
44.526756,9.894808,Groppo di Gorro,824.0
44.50483,10.052175,Bocca Spiaggi,1406.0
44.50125,10.141965,Monte Castione,989.0
44.50885,9.898241,Colle Museriri,1044.0
44.688816,9.725794,Sarè,930.0
44.512917,10.018265,Monte Ballatore,1084.0
44.69613,9.733203,Poggiolo del Papa,650.0
44.558777,9.542394,Monte Cappello,1313.0
44.556824,9.552406,Monte Cucco,1305.0
44.50499,9.500454,Monte Romezzano,1422.0
44.67549,9.555484,Monte Chiappone,687.0
44.717102,9.51613,Monte Rocchetta,1111.0
44.73744,9.56029,Monte Rudella,1101.0
44.74448,9.538704,Monte Cogno,1260.0
44.768913,9.556985,Monte Zucchero,1027.0
44.79614,9.552606,Monte Lopena,852.0
44.62133,9.528367,Monte Megna,1380.0
44.613907,9.532313,Monte Rocchetta,1404.0
44.606327,9.525576,Monte Prelo,1460.0
44.607002,9.536347,Poggio dell'Orlo,1509.0
44.613567,9.54463,il Roccone,1416.0
44.629086,9.553857,Monte San Martino,1207.8
44.524246,9.810857,Colle Pavione,971.0
44.705208,9.912298,Monte La Guardia,803.0
44.71046,9.920867,Monte Pellegrino,767.0
44.808155,9.915073,Monte Combù,346.0
44.72766,9.643081,Monte la Penna,1177.0
44.831734,9.823475,Monte Giogo,437.0
44.524296,9.8831415,Groppo delle Vigne,580.0
45.409046,10.49421,Monte Merlo,170.0
44.76684,9.814903,Monte Vidalto,792.0
44.64988,9.998513,Il Paradiso,500.0
44.524612,10.497915,Monte Casale,573.0
44.74237,9.917697,Colle Varone,595.0
44.718872,9.924195,Monte Castellaro,616.0
44.641346,9.715274,Monte Coloreti,1018.0
44.596035,9.564977,Monte la Mele,1448.0
44.729004,9.991922,Pietra Nera,451.0
44.75114,9.722936,Croce dei segni,1072.0
44.532394,10.494052,Monte Ferri,733.0
44.52337,10.408545,Monte Cavaliere,701.0
44.626743,10.455234,Monte Bellone,324.0
44.759533,10.016374,Monte Argento,535.0
44.768135,10.034506,Monte Oliva,354.0
44.750877,10.004842,Monte Calvo,483.0
44.767216,10.051158,Monte Desio,375.0
44.551514,10.398626,Monte Pelengo,501.0
44.81114,9.534871,Monte Martini,611.0
44.778343,10.026067,Monte Ghinardo,386.0
44.58167,10.109074,Monte Castello,922.0
44.691986,9.9515915,Monte Camiano,552.0
44.556244,10.452307,Monte della Quercia,625.0
44.696953,9.676046,Cima di Morfasso,1323.0
44.628784,9.946587,Monte Pareto,862.0
44.74783,10.009943,Monte La Battuta,485.0
44.502422,10.404149,Rupe di Pietra Nera,490.0
44.885403,9.512552,Costa del Guerra,610.0
44.827957,9.557789,Monte Viserano,717.0
44.634567,10.067119,Rocca San Genesio,539.2
44.619457,10.055247,Monte Zirone,707.0
44.561707,10.065485,Monte Scaletta,1143.0
44.538883,10.05035,Monte Piella,1120.0
44.62575,10.197307,Monte Arvei,635.0
44.561108,9.822165,Monte Ravacotta,1161.0
44.906208,9.512346,Monte Bissago,578.0
44.551468,9.809419,Monte Lago Buono,1155.0
44.751568,9.825611,Monte Mezzano,959.0
44.506496,9.880107,Groppo delle Tassare,783.0
44.586414,9.818558,Monte Grosso,1182.0
44.55046,9.692313,Monte Zucchero,1032.0
44.55562,9.771329,Monte Ferrarino,1080.0
44.54608,9.726968,Cerro Secco,985.0
44.540665,9.776674,Il Poggio,1047.0
44.556667,9.714753,Bosco dei Frati,1068.0
44.526703,9.77454,Costa del Lupo,1004.0
44.65014,9.700264,Monte Spiaggi,1135.0
44.56936,9.915867,Monte Giazzo,758.0
44.60677,9.721438,Costa del Pumolo,715.0
44.652565,10.086572,Monte Prinzerotto,582.0
44.568645,9.717263,Monte Scarria,1082.0
44.541084,9.747268,Monte Sant'Adone,1018.0
44.56355,9.793901,Costabella,1089.0
44.511475,9.891695,Torrioni di Cumbratina,845.0
44.510887,9.891431,Torrioni di Cumbratina,877.0
44.836414,10.0249405,Monte Baiaffo,152.0
44.826374,9.96611,Monte di Scipione,293.0
44.801994,9.908913,Monte Tessaro,341.0
44.78807,9.893943,Monte Poggiolaccio,503.0
44.778526,9.902908,Monte Bosco della Torre,531.0
44.746166,9.886819,Monte Cantagallo,554.0
44.745796,9.866174,Monte Buscarello,720.0
44.738293,9.808775,Monte Canzolino,883.0
44.72024,9.86578,Monte Castellaro,700.0
44.72455,9.820688,Monte Ralli,729.0
44.70988,9.765692,Monte Cornale,952.0
44.689983,9.91288,Il Castellaccio,401.0
44.691128,9.963138,Monte Rossarone,394.0
44.70243,9.966928,Monte Riso,373.0
44.702187,9.984427,Il Poggio,422.0
44.707325,9.974258,Il Poggiolo,376.0
44.705986,10.011904,Monte di Riviano,586.0
44.720947,10.013365,Poggio Bianco,505.0
44.72738,9.996868,Monte Pelato,521.0
44.715553,9.979625,Monte Santa Maria,508.0
44.71973,9.97932,Monte Salso,540.0
44.720665,9.942364,Monte Pissarotto,529.0
44.74571,10.003833,Monte Faggi,503.0
44.753704,9.96623,Monte delle Barche,372.0
44.76549,9.951902,Monte di Casali,543.0
44.777554,9.983462,Monte Predella,481.0
44.78387,10.009435,Monte Giovannone,383.0
44.769016,9.963568,Monte Casana,482.0
44.793694,9.992684,Monte Stallazzo,343.0
44.794678,9.985483,Monte Germino,367.0
44.810017,9.972951,Monte Castellazzo,322.0
44.79614,9.947264,Monte dei Ronchi,428.0
44.706978,9.916153,Monte Ernicchio,758.0
44.688725,9.76401,Ronco Frera,1172.0
44.68628,9.778986,La Rocca di Vallescura,1059.0
44.68794,9.824223,Monte Craviago,790.0
44.68487,9.9750395,Monte Guardia,363.0
44.69397,9.997,I Poggi,335.0
44.69291,10.010622,Monte Mariolo,317.0
44.69178,10.038299,Monte Nuvolo,284.0
44.694527,10.048416,Monte di Viazzano,328.0
44.702663,10.067973,Monte Bussareto,380.0
44.719593,10.093536,Monte Scirone,259.0
44.71407,10.055345,Monte Cucco,389.0
44.722633,10.050015,Monte Pivino,366.0
44.7235,10.058963,Monte Bonardi,339.0
44.74723,10.037668,Monte San Biagio,409.0
44.746582,10.045998,Monte della Croce,443.0
44.734337,10.067143,Monte Pirolo,439.0
44.736652,10.071531,Monte Castellaro,436.0
44.735336,10.0775175,Monte Ghidolo,433.0
44.761505,10.087732,Monte Piè,278.0
44.637226,10.117678,Monte Arsiccio,397.0
44.642033,10.134814,Monte di Palmia,435.0
44.67226,10.089692,Monte Varano,343.0
44.67963,10.108548,Monte Mengo,359.0
44.670635,10.126391,Monte Spinoso,287.0
44.672474,10.142025,Monte Ardone,357.0
44.668644,10.149529,Monte della Croce,419.0
44.668385,10.181091,Monte Bastia,450.0
44.67576,10.172248,Monte del Corno,365.0
44.685047,10.18035,Monte Zucchetto,350.0
44.681408,10.149396,Monte Magnano,354.0
44.67597,10.251575,Monte Leoni,312.0
44.657158,10.21758,Monte Castelletto,394.0
44.673782,10.0463915,Monte Croce,289.0
44.61361,10.072884,Monte Albareto,835.0
44.611565,10.052171,Monte San Michele,596.0
44.626488,10.03597,Monte Muzzolato,513.0
44.627563,9.988905,Monte Cornia,567.0
44.66767,9.953415,Monte Legnago,540.0
44.645027,9.924932,Monte Costiolo,762.0
44.669422,9.884504,Montebello,531.0
44.663456,9.63377,Monte Roccone,1094.0
44.634037,9.686277,Poggio Cadame,777.0
44.640244,9.676651,Roccia dei Magnani,781.0
44.644485,9.666231,Il Groppo,812.0
44.644157,9.665004,La Rocca,812.0
44.639893,9.633178,Monte Cappello,1104.0
44.641586,9.635811,Monte della Madonna,1060.0
44.634926,9.636465,Monte di Pione,1117.0
44.62969,9.635592,Groppo dello Zoppo,1054.0
44.634457,9.612365,Il Groppello,1025.0
44.64045,9.600665,Monte Burrasca,944.0
44.637554,9.591648,Groppo di Cassimoreno,898.0
44.641747,9.582494,Monte Bercello,913.0
44.625168,9.664244,Groppo Scannagatto,643.0
44.62437,9.66071,Poggio Marcio,717.0
44.61539,9.687957,Poggio Besega,624.0
44.611427,9.6832285,Poggio Pasolo,701.0
44.608578,9.648587,Poggio,558.0
44.59958,9.650767,Il Castello,860.0
44.592754,9.671226,Monte Ronchi,976.0
44.585842,9.660912,Monte Campassi,1058.0
44.57946,9.657948,Monte Surlin,1036.0
44.61044,9.632005,Monte Castello,827.0
44.613503,9.56689,Rocchenere,1300.0
44.58834,9.57265,Monte Pravera,1261.0
44.592197,9.625546,Monte Cassino,989.0
44.577663,9.603387,Monte Bello,1205.0
44.578167,9.573644,Monte Corna,1052.0
44.577084,9.564725,Rocca del Meriso,1155.0
44.56322,9.585965,Monte Trappa,1149.0
44.572742,9.510684,Poggio del Laghetto,1394.0
44.573723,9.5050535,Monte Armano,1440.0
44.553787,9.556642,Monte Roncazzo,1291.0
44.537113,9.672055,Monte Carmo,997.0
44.54443,9.641325,Monte Arpesello,1256.0
44.535072,9.606707,Monte Vaccà,847.0
44.54286,9.5329895,Rocchetta,1178.0
44.539215,9.530781,Poggio della Fornace,1126.0
44.51127,9.502227,Monte Curia,1399.0
44.712364,10.074603,Monte Carvano,391.0
44.695618,10.023417,Colle La Salda,330.0
44.76777,9.720986,Rocca di Moria,903.0
44.642075,10.3260565,Monte Cucco,317.0
44.630093,10.362276,Monte Borsa,340.0
44.62136,10.39324,La Guardiola,390.0
44.627186,10.464708,Monte Lucio,319.0
44.597435,10.457096,Pietra Nera,457.0
44.585617,10.36022,Monte Le Brugne,513.0
44.557808,10.31677,Torrione,448.0
44.55853,10.273542,Monte Verola,782.0
44.57157,10.216887,Monte Mercoro,643.0
44.520885,10.322367,Monte Arso,502.0
44.52045,10.310651,Monte Acuto,649.0
44.53652,10.303768,Monte Corvi,481.0
44.54039,10.293086,Monte Chiodo,572.0
44.61486,10.178553,Monte Armario,743.0
44.620235,10.125806,Monte di Lesignano,576.0
44.6024,10.155918,Monte Agu,796.0
44.594917,10.158783,Monte Castellaro,936.0
44.57974,10.169018,Monte Tozzo,997.0
44.580692,10.205367,La Pluga,859.0
44.57543,10.17025,Monte Fragno,902.0
44.566624,10.106192,Monte La Ripa,1043.0
44.533237,10.130519,Monte Fornello,733.0
44.55119,10.082725,Monte Mezzani,1192.0
44.60079,10.422522,Monte Albano,297.0
44.601505,9.519797,Groppo di Pertuso,1385.0
44.71339,9.65603,Monte la Morfassina,1336.0
44.706623,9.663552,il Guttarello,1281.0
44.5953,10.289182,Monte Pico,562.0
