latitude,longitude,name,elevation
36.16926,51.502834,آزادکوه,4366.0
36.053566,51.550648,برج,4316.0
36.0647,51.55177,خلنو,4369.0
35.70487,51.564754,سرخه حصار,1700.0
36.041794,51.61077,جانستون شرقی,3935.0
36.02871,51.532402,سرکچال ۲,4136.0
36.06222,51.51549,بندالکولی,4116.0
36.067543,51.501835,دالکولی,4104.0
36.054573,51.539337,خرسچال,4242.0
36.0508,51.54387,هرزه کوه,4247.0
35.980278,51.515205,آبک,3488.0
35.984272,51.547478,روته,3200.0
35.927914,51.642975,مهرچال,3903.0
35.943108,51.639736,پیرزن کلوم,3843.0
35.936535,51.603676,همهن,3590.0
35.884743,51.679424,ساکا,3312.0
35.902336,51.70406,ریزان,3573.0
35.90082,51.720615,سیاه ریز,3308.0
36.0684,51.562164,میشچال,4236.0
36.078857,51.563824,سرخرسنگ,4188.0
36.085712,51.587082,پالون گردن,4243.0
36.09949,51.58524,نرگس شرقی,4198.0
36.10589,51.632656,اسبی او,3896.0
36.12219,51.67553,سنگنو,3642.0
36.145535,51.671158,چنگون,3135.0
36.059097,51.692657,سینزا,3933.0
36.06669,51.633583,ارس بازان,3715.0
36.073326,51.614864,قبله,3865.0
35.8602,51.59292,ورجین,2955.0
35.900707,51.549995,کلوگان,2933.0
35.842434,51.76288,خورندان,2820.0
35.878723,51.848564,چهل بره,3060.0
35.85336,51.823612,فیل زمین,3339.0
35.88442,51.752544,سیاه چال,3340.0
35.88146,51.77081,سر سیاه غار,3416.0
35.86771,51.77558,گاوبینی,3250.0
35.81144,52.053883,بزمچال,3430.0
35.73126,52.026497,تل کمر,2780.0
35.77982,52.160038,پروانه 1,3750.0
35.79929,52.07548,میانرود,3417.0
35.765972,52.230167,دوبرار غربی,4072.0
35.768024,52.212948,انگمار 1,4028.0
35.763176,52.269753,سوزچال,4053.0
35.763683,52.27724,رخش 1,4008.0
36.031155,52.07952,لاروسر,3730.0
36.110016,51.594353,قبله,4068.0
35.592304,51.503075,بی‌بی شهربانو,1530.0
36.01476,51.659527,خاتون بارگاه,3835.0
35.97046,52.089306,داغ,4163.8
36.060966,51.98251,کهون,4075.0
36.033737,51.920734,دوخواهران غربی,4299.0
36.022743,51.947655,تخت برفی,4114.0
36.042572,52.00819,لرا,3894.0
36.030643,51.935547,مخروط سر,4236.0
36.04416,51.913628,تخت خرس,4135.0
35.90673,51.684418,آتشکوه,3734.0
35.926243,51.580364,اسپیدچال,3206.0
36.026985,51.638363,خرسنگ,3923.0
36.357487,51.59378,کوه فراخ,2373.0
36.40739,51.591785,کوه بشم,1560.0
36.393658,51.613842,کوه بشم,1866.0
36.334515,51.63748,شاه کوه,2965.0
36.112907,52.32953,نقل سر,2160.0
36.137047,52.142235,گلن,3588.0
35.936295,52.330967,برز,3300.0
35.831238,52.273636,پاشوره,3862.0
36.0148,51.849487,الرم,3862.0
36.07798,51.943142,کوله,4054.0
35.967464,52.1361,مازیار,4150.0
35.930267,52.12797,کرنا,4212.0
36.084534,51.57584,پالوان,4114.0
35.913494,52.39112,امیری,3822.0
35.858494,51.883743,سیاه پلاس,3366.0
35.831036,51.963562,گلزرد,3701.0
35.79296,51.991802,سر استخر,3310.0
35.869045,51.9869,تیزکوه,3420.0
36.258034,51.542805,سرتاب,3462.0
36.263996,51.525734,بقدیع,3485.0
36.254967,51.63215,دیردنگ,3476.0
36.225883,51.737644,اسبی کوهک,3333.0
36.243767,51.688976,زنجیربند,3455.0
36.231716,51.71356,لو,3230.0
36.03964,52.115738,زردسر,3578.0
36.06411,52.102905,اطاق پشت,3498.0
36.133827,52.0798,میان لا,3356.0
36.170723,51.96094,کله فراخ,3395.0
36.163696,51.979244,چشمه کنار,3330.0
36.256226,51.770092,خوشدل,3110.0
36.251392,51.829754,سیاه سنگ,3435.0
36.27609,51.866856,فلوک,3365.0
36.265568,51.89563,گوچال,3347.0
36.2593,51.944,گرمش,3552.0
36.255634,51.971752,نورک,3514.0
36.264503,52.012524,میشنو,3582.0
36.26127,52.028984,گرگ,3580.0
36.048317,51.87764,چپکرو,4063.0
36.047688,51.904522,کهو,4118.0
36.03023,51.943142,اریم,4135.0
36.108543,51.588894,رستمچال,4074.0
36.10272,51.56728,نرگس غربی,4097.0
35.76384,52.238804,دوبرار شرقی,4072.0
36.05647,51.5354,فراخ نو,4223.0
36.03972,51.543312,ورزا,3994.0
35.789852,52.101185,لاسم,3400.0
35.78274,52.125725,چنگیز چال ۲,3610.0
35.780376,52.13677,چنگیز چال ۱,3600.0
35.77559,52.187023,انگمار 4,3930.0
35.76977,52.199463,انگمار 2,3970.0
36.0212,51.97586,سه سنگ,4070.0
36.02284,51.98241,اسپید دز,4023.0
36.07219,51.545353,سیونزا,4196.0
35.966446,52.459965,کرکس نشین,3933.0
35.833336,52.29608,هلزم,3892.0
35.830772,52.318584,لهرک,3854.0
35.919106,52.44141,کیون چال,3903.0
36.10674,52.49487,اسپه رز,3264.0
36.144115,52.215836,آخری,3090.0
36.16824,51.554977,نارچو,3655.0
35.560898,52.00905,زاغ,2630.0
36.024216,52.337055,نرین,3150.0
35.934757,52.493793,بوم,3815.0
35.94617,52.42551,سیاه کلاسر,3689.0
35.9625,51.81804,آسمان کوه,3805.0
35.881176,52.322067,خارد امیری,3585.0
35.73268,52.41701,شاهکوه یهر,3700.0
35.972916,52.396366,میونک,3420.0
36.189346,52.325703,کله سر,2010.0
36.151352,52.414124,امامزاده قاسم,2500.0
36.137894,52.240253,دایلی,2830.0
35.961845,51.700333,کاسونک,3678.0
35.959053,51.68715,شیورکش,3642.0
35.541946,52.348473,نارنج قلعه,2360.0
35.541576,52.45037,بُزتور,2420.0
35.649582,52.465454,صنم,2520.0
35.581596,52.22225,پاپلا,2120.0
35.545456,51.911987,قره آقاچ,2310.0
35.513035,52.444035,پیرزن قلعه,2000.0
35.52,52.034443,زردنو,2300.0
35.794624,52.09419,نور,3400.0
35.78552,52.11468,چنگیز چال ۳,3590.0
36.156166,52.482826,نرو,2000.0
35.856293,52.472603,گِرده بِله,3040.0
35.914894,52.478546,میان چنار,3490.0
35.90779,52.49039,تَلی باغ,3470.0
35.97822,52.49698,هنزا,3284.0
35.781822,51.721107,آراکوه,2540.0
35.99574,51.96952,گونک چال,3877.0
35.571926,52.449017,آشنائون,2370.0
35.508488,52.385544,یورد حاجی,2240.0
35.534855,52.33824,قَپاق تپه,2400.0
35.707054,52.227386,زرین کوه,3830.0
35.951096,51.984394,نمک کوه سر,3618.0
35.92724,51.958275,عسل عسل,3093.0
35.92294,51.936855,قلعه تشک,2773.0
35.92145,51.9748,دنبک,3071.0
35.73554,51.986324,لونه پلنگ,2640.0
36.003582,51.916397,دیو آسیاب,3790.0
36.019657,52.00672,ورارو,3994.0
35.88757,51.728718,پرسون,3140.0
35.90493,51.694504,سیاه لت,3504.0
36.012222,51.519154,دال نشین,3327.0
35.934063,51.833702,کمردشت,3567.0
36.031986,51.922676,دوخواهران شرقی,4289.0
35.935623,51.87277,گزل دره,3204.0
35.98448,51.875404,آرو,3580.0
36.04815,51.916153,یخ کمر,4066.0
36.02679,52.0487,انر,3782.0
36.035088,51.636124,خرسنگ شمالی,3797.0
36.0453,51.591236,ورزاب,3961.0
36.030373,51.527054,سرکچال ۱,4113.0
36.028522,51.539577,سرکچال,4194.0
36.023026,51.643593,خرسنگ جنوبی,3929.0
36.04167,51.617268,نسی جر,3889.0
36.03957,51.60061,جانستون غربی,3947.0
35.69185,52.17705,اشنه در,3300.0
36.01855,51.656555,گیزنو,3834.0
35.99154,51.517902,پی نسوم,3260.0
35.832275,52.181576,گل اندام,2985.0
36.04292,52.064724,تاج کوه,3620.0
36.060345,51.552685,خلنوی کوچک,4334.0
36.043518,52.319794,قوزک,3200.0
36.247402,52.175888,گنجکول,3030.0
36.120476,51.973404,پنیری,3865.0
36.218346,52.24666,خشواش لو,2945.0
35.71979,52.08553,نیل,2400.0
36.477104,51.50878,جمند,2400.0
36.08703,51.951572,ناظر بزرگ,4258.0
36.28196,51.631744,دایجک,3265.0
36.253735,51.779144,دیودارنو,3095.0
36.015675,51.671036,پلک دره,3752.0
36.002247,51.70336,اشدر,3684.0
36.337757,51.830975,سیَل کوه,2580.0
35.798794,52.285397,کیاکُتَل,3207.0
35.88118,51.77089,سر سیاه غار۳,3420.0
35.885975,51.757626,سر سیاه غار۲,3346.0
35.884144,51.753014,سر سیاه غار۱,3344.0
35.830357,52.233994,رییس کوه,3255.0
35.557575,51.68117,جلویک,1707.0
36.176704,51.56949,دیوخاس,3354.0
36.091183,51.852997,خرچر,3530.0
36.13453,52.030586,سرد خنی,3440.0
35.9575,51.865597,زرشکی,3562.0
35.910378,51.907436,چاهک,3229.0
35.868183,51.92577,پهنک,2920.0
35.56449,52.065735,قوچ,2600.0
35.832584,52.270626,ابرت,3845.0
35.79576,51.968773,اوزنه,3050.0
35.658684,51.6321,سپا,2130.0
35.77405,52.191597,انگمار3,4002.0
35.712395,52.07803,شیر,2200.0
35.84148,52.124264,هماسون,2945.0
35.68639,52.371986,گت لت,3050.0
35.56776,51.928806,زرشکی,2420.0
35.600487,51.654945,چهل قز,1850.0
35.602028,52.41905,مهربانو (نستوم),2680.0
36.05975,51.92895,هفت سران لار,3975.0
36.092335,51.949596,سر کوله,4173.0
35.59189,51.923023,سولک,2300.0
35.64813,51.836235,تماشا,1826.0
35.631718,51.558903,کلخانی,1750.0
35.88282,51.72363,اندار,3090.0
35.969658,52.18049,منار,3750.0
36.01592,51.59959,کوه زرد,3400.0
36.060326,52.428886,یار کوه,3050.0
36.11374,52.43714,بهراک,3000.0
36.041424,52.430622,سرد خونی,3200.0
36.036144,52.48087,دم کش,3150.0
35.98991,52.45958,لل هاز,3550.0
36.112553,52.44903,نرو,3030.0
35.952057,52.38743,آل غش,3500.0
35.94369,52.343983,سر خوره,3400.0
35.940315,52.47105,سر چلک,3720.0
35.92676,52.35896,اوو چال,3500.0
35.825436,51.81214,نارده,3000.0
36.22375,51.51859,دیتو,3264.0
35.644657,51.617783,بار جمالی,2055.0
35.652073,51.611958,سه پا,2111.0
36.23023,52.298306,بنوم,2375.0
35.70652,52.18892,خاکی,3450.0
36.04356,52.38227,شیر اسل,3185.0
36.04897,52.157616,اسپیون,3245.0
35.950996,52.2013,فیره,2975.0
35.88225,52.248505,سنی,3285.0
35.83044,52.199093,اسپه خاک,3125.0
35.93004,52.433994,انیس 1,3796.0
35.929066,52.416668,انیس 2,3731.0
35.9272,52.410393,انیس 3,3756.0
35.94936,51.72812,کافره,3674.0
35.844013,52.14515,دو برار اسک,2870.0
35.82978,52.193626,سرخ گردن,3080.0
35.830025,52.208076,عبرت,3147.0
