latitude,longitude,name,elevation
37.197628,41.4634,Dibek Dağı,1210.0
37.145493,41.199013,Keli Tepesi,642.0
37.388706,41.17072,Kaplan Dağı,954.0
37.38565,40.732372,Güçlü Tepe,1228.0
37.313145,40.77853,Cumatepe,1172.0
