latitude,longitude,name,elevation
-46.72679,-74.30705,Cerro Mañihues,334.0
-46.769135,-74.47888,Cerro Prat,691.0
-47.2609,-73.798,Cerro Riscos Feos,1430.0
-46.77038,-73.913445,Cerro Pachía,941.0
-46.647373,-74.429886,Cerro Camello,278.0
-46.880833,-74.42671,Cerro Miraflores,260.0
-46.872837,-74.46628,Cerro Doble Pico,305.0
-47.427364,-73.62287,Cerro El Mono,1298.0
-47.392212,-73.74173,Cerro Morro Solo,1219.0
-47.265915,-73.8797,Cerro Torrejón,1239.0
-47.10738,-73.749565,Cerro Don Raúl,1334.0
