latitude,longitude,name,elevation
45.67996,-89.7982,Jack Pine Lookout Tower,479.0
46.47717,-90.16795,Mount Zion,525.0
46.430782,-89.556816,Alligator Eye,481.0
46.441616,-89.770996,Wolf Mountain,553.0
46.244045,-90.35417,Pleasant Lake Lookout,570.0
