latitude,longitude,name,elevation
-47.621387,-70.436424,Cerro Bayo,837.0
-47.794216,-70.277214,Cerro Gorra de Vasco,650.0
-48.122456,-70.332886,Cerro Guascho,620.0
-48.089123,-69.51194,Cerro La Mata,1060.0
-47.51803,-70.21051,Cerro Las Moras,1078.0
-47.97473,-69.58403,Las Vallas,927.0
-48.311302,-69.76578,Cerro Lavatorio,875.0
-48.35053,-70.32872,Cerro Negro,894.0
-48.249115,-69.645676,Cerro Puntudo,1000.0
-48.160713,-69.950806,Cerro Tejedor,848.0
