latitude,longitude,name,elevation
41.183258,-3.4661937,Pico del Lobo,2274.0
41.10455,-3.2554164,Ocejón,2049.0
41.153835,-3.4741387,Cerrón,2197.0
41.18057,-3.4464056,Torre del Rayo,2089.0
41.215332,-3.4427247,Calamorro de San Benito,1872.0
41.153847,-3.296532,Cerrito Collado,1736.0
41.14983,-3.2774148,Cabeza del Corral,1824.0
41.194473,-3.2466874,Prado Merendero,1545.0
41.020138,-3.2190833,La Tonda,1241.0
41.063225,-3.2361717,Cerro del Porrejón,1497.0
41.06167,-3.2176578,Cabeza Pascual,1279.0
41.068233,-3.1936893,Cabeza de Yuso,1233.0
41.165596,-3.0601773,Alto Rey,1858.0
41.069366,-3.127758,Cerro Covacho,1475.0
41.08069,-3.2454689,Cerro del Robledo Castellar,1675.0
41.071865,-3.4794283,Pico de Bañaderos,1638.0
41.05628,-3.4929738,Las Cabezas,1379.0
40.99842,-3.4616933,Cerro de las Cabezas,1563.0
41.010796,-3.4814918,Peña de la Cabra,1831.0
40.991203,-3.4552774,Cerro Larda,1445.0
40.99402,-3.3804264,Cerro de la Peñita,1626.0
41.05469,-3.3742437,Cerro de San Cristobal,1488.0
41.23846,-3.4040828,Alto del Parrejón,2013.0
41.180172,-3.4809835,El Cervunal,2195.0
41.15929,-3.3818834,Águila,1650.0
41.014484,-3.138884,El Castillar,1415.0
41.292763,-3.1519303,Ribalópez,1521.0
41.28836,-3.0201185,Cerro Cabeza Alta,1476.0
41.148922,-3.00207,Bartibañez,1342.0
41.15293,-2.9938302,Peña Palomarejo,1324.0
40.942146,-3.4513085,Torrejón,1293.0
40.97326,-3.4187787,Cerro de la Torrecilla,1572.0
40.966965,-3.4392922,La Pinilla,1386.0
40.846,-3.1104927,La Muela,960.0
41.041,-3.3641224,Cabeza de Pajarero,1479.0
41.038834,-3.331516,Cabeza el Vado,1167.0
40.990986,-3.335172,Cabezas,1437.0
41.016342,-3.4079971,Alto de los Cellos,1752.0
40.896175,-3.4803402,Cancho de la Cabeza,1263.5
40.953537,-3.470101,Cabeza Antón,1395.9
40.8279,-3.0469546,Cerro de Hita,981.2
41.203407,-2.8795023,Padrastro,1268.0
41.05237,-3.2419634,Cabeza de Almiruete,1506.1
41.26279,-3.3406467,Peña Esmijada,1641.0
41.159096,-2.978551,Cerro Carnicera,1262.0
40.8718,-3.4069576,Cerro de la Saturda,861.0
41.169624,-2.993235,Matalabosa,1324.0
41.04692,-3.4505944,Peña Hierro,1743.0
41.169357,-3.0675304,Pico de la Losa,1781.0
41.195694,-3.001733,La Cabaña,1288.0
41.076763,-2.9996154,Altollano,1100.0
41.118362,-3.3777359,Cabeza de Cabida,1596.0
41.165066,-3.4423904,Cerro de la Cebosa,2036.0
40.97102,-3.3238697,Cerro de Cabeza los Vallejos,1077.0
41.139305,-3.2564209,Cerro del Campo,1934.0
41.135433,-2.9979684,Cerro Cabezacervera o Cacervera,1171.0
40.883495,-3.451022,Cerro de la Oliva,901.0
41.229996,-3.3649092,Alto del Hornillo,1728.0
40.88208,-3.4276087,Pico del Murciano,891.0
40.955853,-3.3350317,Cerro la Palomera,1035.0
40.894775,-3.4992352,Cabeza de Peña Alta,1142.0
41.17135,-2.9946778,Cuento del Mojón,1332.0
41.268883,-3.0457146,Peña de la Graja,1429.0
41.14629,-3.0937016,Alto las Corzas,1427.0
41.186043,-3.0166495,Cabeza Tozano,1454.0
40.870514,-3.4200084,Cerro Negro,893.0
41.131298,-3.019111,Cerro de Preseca,1185.0
41.190475,-3.1275158,Alto de la Chorrera,1526.0
40.981876,-3.3212273,Loma del Riscal,1015.0
41.07994,-2.9966621,El Cerrillo,1101.0
41.22942,-3.3448353,Loma de la Torrecilla,1593.0
41.048733,-3.0152752,Peña del Roto,1024.0
40.689556,-2.614959,Peña Rubia,818.0
40.6214,-2.6140783,Cerro de la Covatilla,1004.0
40.621307,-2.5978043,Cerro de los Molineros,941.0
40.681335,-2.5987277,Pie de la Dehesa,818.0
40.684193,-2.578446,Alto de la Higuera,873.0
40.618267,-2.601589,Cerroillo de la Ajedrea,1017.0
40.645287,-2.5837052,Cerro de la Fuente del Oro,921.0
40.67504,-2.5704312,Cerro de la Media Legua,941.0
40.616623,-2.6132085,Cerro de la Nevera,1061.0
40.644054,-2.5996807,Cerro de la Cruz,964.0
41.179585,-3.352612,Cabezo de San Pedro,1819.0
41.024914,-3.1027377,Castillar de Santotis,1258.0
41.169407,-3.4792192,Alto de la Majada de los Carneros,2079.0
41.178402,-3.1511495,Cerro del Capetón,1765.0
41.188427,-2.8771992,Cerro de la Horca,1168.0
41.239178,-3.0013192,Alto de San Roque,1159.0
40.99538,-3.4008572,Cerro Concha,1775.0
41.24415,-3.0706577,Pico Mateote,1473.0
41.15782,-3.1412177,Peña del Reventón,1752.0
41.105186,-3.2598915,Ocejoncillo,1957.0
41.204502,-2.9290047,El Cerro,1088.0
41.13138,-3.15322,Mojón Cimero,1588.0
41.10131,-3.2486339,Peña Mala,1722.0
41.164215,-3.0733116,El Picoz,1806.0
41.039703,-3.1390624,Cerro Santotis,1560.0
41.16472,-3.043568,Peña de los Gavilanes,1761.0
41.236004,-3.3866563,Alto de la Escaleruela,1975.0
41.10936,-2.953271,Alto de la Tajarilla,1350.0
41.252506,-3.3997746,Buitrera,2044.0
41.157593,-3.024922,Peña del Mediodía,1538.0
40.659134,-2.5699787,La Redonda,1144.0
41.140965,-2.8671403,Alto de la Peña,1369.0
41.213955,-3.4016771,Peña la Silla,1935.0
41.17661,-3.1707218,El Cerrajo,1704.0
41.07423,-3.1844676,Peña del Mediodía,1207.0
41.249054,-3.3562021,Cabeza Gorda,1632.0
41.230446,-3.0826707,Pico del Ceño,1530.0
41.20228,-3.1158762,Cerro de las Lagunas,1396.0
41.197254,-2.9197104,Cabeza del Medio,1123.0
41.182053,-2.9394026,Alto de la Taina,1075.0
41.16043,-3.0077367,Mojón Gordo,1452.0
41.00192,-3.3671763,Cabeza del Cardo,1609.0
41.21576,-3.3954113,Tiñosa,1969.0
41.220592,-2.9341886,Cabeza del Pino,1188.0
41.146214,-2.870834,Alto de Mojón Blanco,1353.0
41.245026,-3.3984764,Alto del Cervunalillo,2016.0
41.093987,-3.1092246,Peña de la Faja,1325.0
41.041256,-3.1025784,Castillar de Robredarcas,1293.0
41.163727,-3.0369828,Peña de los Rollos,1737.0
41.20216,-3.4537737,Cerro del Aventadero,2006.0
41.118248,-2.9251547,El Mojoncillo,1327.0
41.214233,-3.39445,Peña de la Tiñosa,1961.0
41.186462,-3.178092,Cabezo Grande,1672.0
41.15034,-3.0808225,Peña Peribáñez de la Casa,1584.0
41.26937,-3.4248886,Cerro Gordo,1906.0
41.307533,-3.1162987,Alto del Cerro,1378.0
41.31788,-3.063962,Cabeza Rivas,1305.0
41.319935,-3.244009,Pico de Grado,1517.0
41.424828,-3.2812498,Peña del Monje,1063.0
41.28041,-3.0986762,La Peñota,1487.0
41.260246,-3.306687,Cabeza Grande,1598.0
41.30716,-3.1448722,Cabeza del Mazo,1297.0
40.992382,-3.478171,Porrejón Cimero,1532.0
40.999134,-3.3967936,Peña Centenera,1809.0
40.98272,-3.4759233,Porrejón Bajero,1353.0
40.959538,-3.4283595,Somosierra,1438.0
41.19813,-3.0959215,Cerro de la Cruz,1430.0
41.1835,-3.4708242,Alto de las Mesas,2257.0
41.19075,-3.4616885,Las Peñuelas,2215.0
41.009727,-2.6194339,Peña la Luna,1079.0
40.533203,-2.728006,Pico de Monte Abajo,809.0
40.512787,-3.4853268,Cerro de la Calahorra,689.0
41.099865,-3.4122667,Peña la Casa,1436.0
41.109253,-3.399555,Peña la Dehesa,1434.0
41.13435,-3.400842,Cerro de Peñalba,1558.0
41.17729,-3.4928555,Alto de los Picachos,2121.0
41.150894,-3.4266853,Cabeza la Zarza,1783.0
41.147057,-3.4200492,Morra del Segoviano,1752.0
41.146954,-3.4043944,Pico del Águila,1507.0
40.66315,-2.5665135,La Larga,1142.0
40.647453,-2.6178036,Cerro de Valdelaviña,906.0
40.64732,-2.623968,Cerro del Medio,906.0
40.640667,-2.6189177,Cerro Blanco,946.0
40.611504,-2.5886066,Cerro de la Nogueruela,1112.0
40.698242,-2.5766995,Cerro de la Cruz,818.0
40.694893,-2.5828884,Colvillo,772.0
40.700462,-2.5828571,La Mortera,837.0
40.859905,-3.489887,Cerrilo de Zumacar,826.0
41.10251,-3.4079556,Cabeza Grande,1487.0
40.932243,-3.3583367,Cerro de la Mina,998.0
41.161297,-3.3383381,Regajo de las Yeguas,1808.0
41.103134,-3.3369331,Cabeza de Ranas,1492.0
40.860332,-3.10204,El Colmillo,948.0
41.030174,-3.485813,Cerro Portezuela,1739.0
41.0317,-3.4895613,Peña Cuervo,1661.0
40.997807,-3.497687,Peña El Cuervo,1215.0
41.042774,-3.479577,Cerro Montejo,1682.0
41.04348,-3.4423237,Cabeza del Estillo,1671.0
41.038906,-3.448072,Cerro Hierro,1617.0
41.041706,-3.431152,Pinhierro,1695.0
41.051395,-3.411935,Cabeza del Viejo,1698.0
41.19969,-2.8740163,Cerro del Castillo,1248.0
41.018566,-3.4132123,Pico de La Tornera,1865.0
41.023968,-3.427492,Cabeza Minga,1623.0
40.969166,-3.3430471,Cerro la Alejandra,989.0
40.965527,-3.3734064,El Palancar,1273.0
40.953537,-3.4700854,Cabeza Antón,1396.0
41.175076,-3.1362112,Cabezo del Navalpotro,1688.0
41.100613,-3.208446,Cabeza de Helechosa,1431.0
41.136932,-3.279951,Campachuelo,1869.0
41.14477,-3.254779,Campo,1919.0
41.06895,-3.3136137,Jaralón,1118.0
41.07268,-3.3452268,Cabeza Lijón,1153.0
41.013985,-3.3218005,Las Majadas,1277.0
41.05003,-3.4586248,Porrejón,1824.0
41.042194,-3.381747,peña Rubial,1442.0
41.010414,-3.2743812,Cabeza Vistosa,1051.0
41.10394,-3.3573349,Peña el Águila,1089.0
41.071476,-3.2315342,Cerro Poyato,1423.0
41.052345,-3.2419283,Almiruete,1506.0
41.083145,-3.1747484,Cabeza Hoyosa,1132.0
41.09148,-3.1462276,Cerro del Castillar,1379.0
41.102474,-3.1467032,Cerro del Tomillar,1428.0
41.07656,-3.1456969,Cerro de las Peñuelas,1281.0
41.07037,-3.1236963,Peña Redonda,1414.0
41.056976,-3.1103587,Cerro del Gallinero,1169.0
41.058525,-3.078266,Peña del Toro,1067.0
41.161537,-3.282939,Peña del Recuenco,1659.0
41.196922,-3.3653605,Atalaya,1884.0
41.20199,-3.3706746,Pico Atalaya,1914.0
41.203964,-3.3849986,El Talayón,1898.0
41.225365,-3.4012728,Cerro de la Lagunilla,1903.0
41.033466,-3.0785723,Peña de los Lobos,1041.0
41.008335,-3.2607026,El Lomo,1117.0
41.006588,-3.261235,Alto del Lomo,1106.0
40.7962,-2.8007464,Cerro del Moro,906.0
40.631084,-2.5936174,Trascastillo,903.0
40.688572,-2.5861406,Silla del Caballo,874.0
40.504963,-2.5703354,Cerrillo de los Palomares,852.0
40.524918,-2.5884068,Cerro de Los Valdíos,1007.0
40.514835,-2.5304604,Cerro de la Horca,816.0
40.52495,-2.5292373,Cerro de la Casa,826.0
40.95638,-3.3660307,Peña Losal,1056.0
41.281498,-3.4265919,Alto de la Cruz,1735.0
41.216175,-3.395359,Pico del Granero,1973.0
41.22809,-3.3374922,Loma de la Torrecilla,1531.0
41.255726,-3.3468635,Valdebecerril,1765.0
41.250103,-3.2883964,Alto del Cerro,1695.0
41.17214,-3.3312836,Cabeza del Rocín,1756.0
40.99676,-3.4878743,Picos de Vizuerco,1445.0
41.165165,-3.3283772,Pico de los Zapateros,1763.0
41.478043,-2.5256088,Alto de la Horca,973.0
41.158707,-3.4395707,La Cebosa,2048.0
41.125046,-3.4958913,Cerro la Tinada,1506.0
41.05052,-3.4894497,Loma el Zarzo,1334.0
41.16039,-3.0142927,Peña Carresponde,1455.0
41.14055,-3.017705,Peña de los Abantos,1218.0
41.167282,-3.0398571,Peña de la Ventana,1671.0
41.13967,-2.9898639,Peña Rubia,1124.0
41.17015,-3.0819716,El Molondrón,1686.0
41.16788,-3.0785916,Peña del Cortijo,1689.0
41.273277,-3.0619826,El Portillo,1539.0
41.249714,-3.0565536,La Cocinilla,1445.0
41.254074,-3.0378764,Muela,1499.0
41.277473,-3.0723388,Cabeza Cabera,1529.0
41.28435,-3.094885,Cerrillo Chispas,1483.0
41.26845,-3.0755906,La Calera,1461.0
41.264034,-3.0814488,Alto de los llanillos ñ,1454.0
41.164387,-3.4376442,Cerro Rocín,2042.0
41.135708,-3.2677665,Chortal Largo,1929.0
41.214775,-3.4309146,Loma de Las Caseruelas,1863.0
41.278057,-3.4258468,Merino,1799.0
41.194992,-3.1605246,Peña del Abanto,1611.0
40.804993,-2.781352,Cerro de la Cruz,971.0
40.641277,-2.5931332,Peña del Águila,914.0
40.650814,-2.5807185,Peñarrubia,954.0
40.605648,-2.5949092,Iglesia,1138.0
40.62635,-2.5783708,Alto de la Cabeza,1045.0
40.610954,-2.5721788,Cerro de los Escalones,1095.0
41.285233,-3.427739,Collado de la Fuente,1627.0
41.122383,-3.468755,Cerro de Calahorra,1927.0
40.725414,-2.5811226,Pico Cobacha,909.0
40.712765,-2.5650654,Cerro del Tobar,863.0
41.417233,-3.3260002,Otero,1099.0
