latitude,longitude,name,elevation
-19.201906,-57.59237,Maciço do Urucum,1065.0
-19.033073,-57.633698,Morro Bocaina,430.0
-19.028854,-57.649597,Pico do Corumbá,252.0
-19.02427,-57.665607,Morro do Bandeira,267.0
-19.045792,-57.696033,Morro do Pimenta,311.0
