latitude,longitude,name,elevation
56.184067,-133.31187,El Capitan Peak,788.0
55.91218,-132.70271,Baird Peak,934.0
56.028553,-133.45403,Holbrook Mountain,799.0
55.914776,-133.33633,Pin Peak,54.0
56.045204,-133.43187,Tokeen Peak,716.0
55.623226,-132.6738,Rush Peak,833.0
56.050064,-133.36192,Pyramid Peak,737.0
