latitude,longitude,name,elevation
48.9364,19.640266,Ďumbier,2043.0
49.164032,20.13406,Gerlachovský štít,2654.0
48.8828,20.139128,Kráľova hoľa,1948.0
49.158073,20.227922,Hrebienok,1285.0
48.54698,19.733528,Jasenina,995.0
48.587803,19.734695,Homračka,814.0
48.597374,19.74349,Močiar,789.0
48.61867,19.700487,Drahová,1118.0
48.889114,20.106678,Stredná hoľa,1876.0
48.889053,20.086353,Orlová,1840.0
48.94143,19.605839,Konské,1889.0
48.947247,19.539913,Poľana,1890.0
48.938892,19.51742,Kotliská,1937.0
48.94301,19.592716,Chopok,2024.0
49.413822,20.414188,Trzy Korony (Okrąglica),982.0
48.65495,19.556305,Kľuka,942.0
49.162834,20.000046,Kriváň,2494.0
48.58214,19.664024,Bykovo,1110.0
48.540516,19.618483,Táňovo,929.0
48.536655,19.591812,Surovina,920.0
48.535892,19.572763,Vrchdobroč,918.0
48.566677,19.75738,Pálenica,939.0
48.56667,19.785368,Diel,934.0
48.565353,19.802216,Roveň,812.0
48.6258,19.792725,Cisárska hoľa,852.0
49.1878,20.05368,Cubryna / Čubrina,2376.0
49.225178,20.014584,Kościelec,2155.0
49.23019,20.264791,Bujačí vrch,1947.0
49.2369,20.240196,Veľký Košiar,1976.0
49.237133,20.232935,Zadné Jatky,2020.0
49.236843,20.220346,Hlúpy,2061.0
49.244804,20.207079,Ždiarska vidla,2142.0
49.25033,20.187386,Nový vrch,1999.0
49.251114,20.176785,Muráň,1890.0
49.19799,20.22517,Huncovský štít,2352.0
49.200634,20.220432,Malý Kežmarský štít,2513.0
49.199234,20.219461,Kežmarský štít,2556.0
49.205288,20.200924,Čierny štít,2425.0
49.198544,20.182766,Ľadový štít,2627.0
49.166077,20.184591,Slavkovský štít,2452.0
49.182373,20.048246,Kôprovský štít,2367.0
49.175278,20.145458,Východná Vysoká,2429.0
49.20902,20.137148,Široká,2210.0
49.18996,20.182777,Široká veža,2461.0
49.171104,20.129763,Litvorový štít,2423.0
49.173176,20.093512,Vysoká,2547.0
49.16623,20.13148,Zadný Gerlach,2616.0
49.149643,20.039062,Predné Solisko,2117.0
49.216652,20.215027,Kozí štít,2111.0
49.160213,20.142244,Kvetnicová veža,2433.0
49.182438,20.179407,Strelecká veža,2130.0
49.1552,20.035631,Štrbské Solisko,2302.0
49.175945,20.067535,Mengusovský Volovec,2227.0
49.167778,20.083889,Kôpky,2354.0
49.174255,20.103992,Gánok,2462.0
49.163303,20.013409,Krátka,2375.0
49.16385,20.021807,Ostrá,2351.0
49.197594,20.207996,Pyšný štít,2621.0
49.182823,20.067467,Mięguszowiecki Szczyt Czarny / Východný Mengusovský štít,2410.0
49.1789,20.075115,Volia veža / Wołowa Turnia,2373.0
49.187847,20.089249,Veľký Žabí štít / Żabi Szczyt Wyżni,2263.0
49.20493,20.237099,Veľká Svišťovka,2037.0
49.213436,20.006815,Valentková / Walentkowy Wierch,2156.0
49.18498,20.194357,Prostredný hrot,2441.0
49.18339,20.088007,Malé Rysy / Niżnie Rysy,2430.0
49.22316,19.998552,Krajná Kopa / Skrajna Turnia,2097.0
49.162,20.136322,Kotlový štít,2601.0
49.15731,20.114073,Končistá,2536.0
49.2108,20.19894,Kolový štít,2418.0
49.1659,20.115564,Popradský ľadový štít,2396.0
49.181324,20.13014,Hrubá veža,2086.0
49.206776,20.013414,Gładki Wierch / Hladký štít,2065.0
49.18952,20.050358,Druhý Mních / Zadni Mnich,2172.0
49.171337,20.155678,Bradavica,2476.0
49.165367,20.124142,Batizovský štít,2448.0
49.20164,20.19716,Baranie rohy,2526.0
49.219696,20.208103,Jahňací štít,2229.0
49.25656,20.15708,Kôň,1356.0
49.49686,20.365652,Biała,1090.0
49.146996,20.43932,Jeruzalemský vrch,705.0
49.228237,19.987923,Beskid / Beskyd,2012.0
49.41092,20.22273,Czarna Góra,804.1
49.417652,20.440376,Sokolica,747.0
49.197292,20.040106,Hrubý štít / Szpiglasowy Wierch,2172.1
49.19996,20.032255,Niżni Kostur / Nižný kostúr,2055.0
48.871696,20.157711,Kráľova skala,1690.0
48.89201,20.073843,Bartková,1790.0
48.90761,19.991846,Heľpianský vrch,1596.0
48.914013,19.981552,Veľká Vápenica,1692.0
48.90525,19.928333,Kolesárová,1508.0
48.909386,19.905523,Oravcová,1544.0
48.908222,19.877584,Zadná hoľa,1620.0
48.909294,19.86285,Homôľka,1660.0
48.90612,19.77702,Jánov grúň,1395.0
48.911274,19.718431,Rovienky,1602.0
48.940533,19.572803,Dereše,2004.0
48.595802,19.841888,Slopovo,853.0
49.21892,20.020039,Mały Kozi Wierch,2226.0
49.21832,20.028706,Kozi Wierch,2291.0
49.2649,19.941,Sarnia Skała,1378.0
48.863865,20.473194,Veľká Knola,1266.0
49.17812,19.793268,Ostredok,2050.0
49.173523,19.740826,Baranec,2182.0
49.193253,19.801275,Jakubina,2194.0
49.19263,19.840998,Blyšť / Błyszcz,2159.0
49.188618,19.842587,Bystrá,2248.0
49.18258,19.747976,Smrek,2074.0
49.1539,19.731852,Malý Holý vrch,1683.0
49.231007,19.903406,Ciemniak / Temniak,2096.0
49.23583,19.919224,Malolučniak / Małołączniak,2096.0
49.021053,19.631744,Poludnica,1548.0
49.000286,19.555323,Siná,1560.0
49.173885,20.148405,Kupola,2414.0
49.171955,20.152899,Weszterov štít,2409.0
49.170334,20.166159,Východná Slavkovská veža,2354.0
49.167877,20.178627,Slavkovská kopa,2346.0
49.178288,20.143953,Divá veža,2376.0
49.182858,20.147385,Svišťový štít,2382.0
49.185707,20.15886,Hranatá veža,2260.0
49.188187,20.162931,Malý Javorový štít,2385.0
49.187634,20.168287,Javorový štít,2418.0
49.188797,20.176317,Ostrý štít,2367.0
49.173943,20.13459,Velický štít,2319.0
49.163193,20.163553,Velická kopa,2227.0
49.166023,20.159113,Veľká Granátová veža,2318.0
49.17172,20.161165,Západná Slavkovská veža,2380.0
49.183445,20.163496,Zbojnícka kopa,2098.0
49.189796,20.158382,Velká Javorová veža,2291.0
49.186455,20.159437,Rovienková veža,2272.0
49.19285,20.149273,Predná Javorová veža,2222.0
49.197365,20.143532,Žabí vrch,2203.0
49.179905,20.201986,Malý Kostol,2088.0
49.185017,20.193235,Malý hrot,2420.0
49.182495,20.221933,Lomnický hrb,2041.0
49.186214,20.21772,Veľká Lomnická veža,2214.0
49.19845,20.216043,Veľká Vidlová veža,2523.0
49.170147,20.107777,Zlobivá,2426.0
49.168396,20.111835,Snežná kopa,2327.0
49.159107,20.001362,Malý Kriváň,2334.0
49.15978,20.012255,Krátka veža,2197.0
49.15815,20.021347,Liptovská veža,2272.0
49.155136,20.021025,Ostrá veža,2129.0
49.157063,20.033957,Malé Solisko,2336.0
49.162674,20.031977,Veľké Solisko,2412.0
49.17686,20.010073,Zadná Garajova veža,2349.0
49.201153,20.00522,Tichý vrch,1979.0
49.152267,20.0583,Patria,2202.0
49.155796,20.057566,Malá Bašta,2288.0
49.160366,20.055002,Predná Bašta,2374.0
49.170822,20.047617,Hlinská veža,2340.0
49.16967,20.048912,Veľká Capia veža,2364.0
49.148384,20.084675,Ihla v Ostrve,1890.0
49.14991,20.089977,Ostrva,1984.0
49.153507,20.101793,Tupá,2284.0
49.173706,20.091536,Ťažký štít,2500.0
49.162888,20.114523,Malá Končistá,2466.0
49.172817,20.105648,Rumanov štít,2428.0
49.192677,20.054907,Mnich,2068.0
49.183296,20.093912,Ťažká veža,2254.0
49.177326,20.105154,Kačacia veža,2197.0
49.199112,20.101894,Malý Mlynár,1973.0
49.15727,20.135416,Dromedárov chrbát,2227.0
49.167267,20.131289,Lavínový štít,2606.0
49.167595,20.157907,Malá Granátová veža,2298.0
49.164673,20.161314,Dvojitá veža,2311.0
49.202496,20.181124,Veľká Ľadová veža,2387.0
49.203575,20.173088,Malá Ľadová veža,2185.0
49.212833,20.191477,Svinka,2163.0
49.212116,20.201015,Zmrzlá veža,2312.0
49.2038,20.135767,štít Nad Zeleným,2130.0
49.216675,20.140638,Svišťovky,2070.0
49.211636,20.209923,Jastrabia veža,2138.0
49.222984,20.200233,Jahňacia vežička,1923.0
49.18703,20.059298,Mięguszowiecki Szczyt Wielki / Veľký Mengusovský štít,2438.0
49.183903,20.087383,"Niżne Rysy, Zadnia Turnia / Malé Rysy, Zadná veža",2410.0
49.28622,20.206957,Príslop,1214.0
48.623928,19.657166,Čierťaž,1102.0
49.216373,19.61397,Biela skala,1316.0
49.246227,19.784693,Bobrowiec / Bobrovec,1665.0
49.34845,19.503258,Javorový vrch,1076.0
49.456116,20.319939,Wdżar,767.0
48.773666,20.206755,Stolica,1477.0
48.792118,20.19552,Kyprov,1391.0
48.661205,20.308697,Hrádok,810.0
49.25903,20.076519,Gęsia Szyja,1489.0
49.23664,19.76664,Grześ / Lúčna,1653.0
49.41964,20.181646,Czerwona Skałka,789.4
48.94334,19.877962,Veľký bok,1727.0
48.993073,19.701353,Slemä,1514.0
48.56444,19.929388,Burianka,758.0
48.56284,19.907833,Železná tabla,860.0
48.554897,19.914522,Sinec,917.0
48.57049,19.879686,Bodnárka,833.0
48.53779,19.889606,Bištiakovica,666.0
48.542786,19.930838,Malý Sinček,604.0
48.541664,19.915182,Sinček,746.0
49.195145,20.213034,Lomnický štít,2634.0
48.803562,19.775509,Michalová,1149.0
48.62539,19.916426,Ostrá,1013.0
48.69954,19.961504,Šajba vrch,1075.0
48.689133,19.769758,Klenovský Vepor,1338.0
48.675625,19.754028,Machnáčov grúň,1097.0
48.670727,19.733862,Šopisko,1084.0
48.65476,19.740326,Železná brána,1164.0
48.640224,19.763165,Čremoš,982.0
49.199116,20.20145,Spišský štít,2483.0
49.198513,20.206633,Malý Pyšný štít,2590.0
49.17075,20.02701,Hrubý vrch,2428.0
49.168674,20.02739,Furkotský štít,2403.0
49.202343,20.186407,Snehový štít,2464.0
49.215958,19.758463,Rakoń / Rákoň,1879.0
49.200558,19.636084,Ostrá,1764.0
48.89003,20.392607,Suchý vrch,1122.0
48.870598,20.419687,Kráľova hora,1071.0
49.276432,19.989458,Nosal,1205.7
49.26819,19.991074,Nieborak,1219.0
49.201023,20.04737,Miedziane,2233.0
49.207493,20.059042,Opalony Wierch,2115.0
49.199207,20.033388,Vyšný kostúr / Wyżni Kostur,2083.0
49.20739,20.048506,Niedźwiedź,1812.0
49.219425,20.024292,Zamarła Turnia,2179.0
49.219654,20.013733,Niebieska Turnia,2262.0
49.21868,20.027647,Kozie Czuby,2263.0
49.22029,20.033827,Buczynowa Strażnica,2242.0
49.464825,20.48093,Przysłop,991.0
49.46539,20.402071,Marszałek,829.2
49.183926,20.040009,Vyšný Prostredný chrbát,2225.0
49.32564,19.59713,Košiarec,798.0
49.489323,20.338928,Lubań,1211.0
48.8557,20.262123,Ondrejisko juh,1260.0
49.234932,19.810505,Mały Kopieniec,1329.0
49.205006,19.77858,Deravá / Łopata,1958.0
49.212704,19.80795,Czubik,1846.0
49.219105,19.803726,Trzydniowiański Wierch,1758.0
49.19937,19.81994,Klin / Starorobociański Wierch,2176.0
49.205658,19.807585,Končistá / Kończysty Wierch,2002.0
49.23935,19.81,Wielki Kopieniec,1257.0
49.201653,19.829544,Sivá veža / Siwy Zwornik,1965.0
49.219048,19.832949,Ornak,1854.0
49.23129,19.966166,Pośredni Goryczkowy Wierch / Prostredný Goričkový vrch,1874.0
49.255875,19.964256,Kalacka Turnia,1383.0
49.240925,19.977644,Sucha Czuba,1696.0
49.252087,19.93815,Długi Giewont,1867.0
49.23227,19.957602,Goričkova kopa / Goryczkowa Czuba,1912.0
49.250954,19.934101,Wielki Giewont,1894.5
49.25443,19.953758,Kalacka Kopa,1601.0
49.233646,19.940321,Suchy Wierch Kondracki / Suchá kopa,1893.0
49.25801,19.942429,Suchy Wierch,1539.0
49.25191,19.973783,Myślenickie Turnie,1354.0
49.23752,19.87916,Upłazkowa Turnia,1608.0
49.213314,19.90234,Poľská Tomanová / Tomanowy Wierch Polski,1977.0
49.239513,19.889732,Upłaziańska Kopa,1796.0
49.204205,19.880856,Smreczyński Wierch / Smrečiny,2067.0
49.23605,19.8828,Wysoka Turnia,1643.0
49.234676,19.9003,Twarda Kopa,2026.0
49.216583,19.901926,Suchy Wierch Tomanowy / Suchý vrch,1869.0
49.25907,19.950552,Zameczki,1434.0
49.195343,19.87057,Veľká Kamenistá / Kamienista,2127.0
49.238213,19.895166,Chuda Turnia,1858.0
49.231667,19.909492,Kresanica / Krzesanica,2122.0
49.262154,19.915443,Łysanki,1446.7
49.21354,19.781574,Czerwony Wierch,1766.0
49.206963,19.834919,Kotłowa Czubka,1840.0
49.245197,19.80067,Hrubas,1499.0
49.245358,19.778444,Jamborowy Wierch,1565.0
49.21305,19.835808,Zadni Ornak,1867.0
49.21233,19.774921,Kopa,1596.0
49.244896,19.806503,Wielkie Turnie,1350.0
49.240814,19.83554,Kominiarski Wierch,1829.0
48.983795,19.715225,Ohnište,1508.0
49.26456,19.950132,Igła,1207.0
48.940968,20.376293,Rumanová,927.0
49.227192,20.280405,Skalné vráta,1620.0
48.835644,20.028557,Gindura,1099.0
49.04203,19.66008,Hrádok,877.0
49.233315,19.607868,Pálenica,1047.0
49.236404,20.035091,Mała Kopka,1793.0
49.22979,20.032728,Pańszczycka Turnia,2105.0
49.228073,20.033497,Skrajna Pańszczycka Czuba,2155.0
49.23366,20.039436,Wielka Kopka,1856.0
49.228954,20.032732,Wierch pod Fajki,2135.0
49.23448,20.029016,Żółta Turnia,2047.0
49.226944,20.033293,Skrajny Granat,2228.0
49.22477,20.03257,Zadni Granat,2240.0
49.48291,19.678387,Wertelowski Dział,698.0
48.706554,19.65964,Krížne,938.0
48.715454,19.651686,Salašíky,869.0
48.738544,19.6323,Urbanov vrch,809.0
48.761776,19.669535,Suchá,853.0
48.77469,19.567085,Hájny grúň,832.0
48.744644,19.537514,Tajchová,918.0
48.76408,19.548964,Gajdoška,967.0
48.75057,19.545086,Kraklová,984.0
48.776077,19.508644,Smolová,1019.0
48.788776,19.594688,Hnusné,750.0
48.79363,19.571918,Muškov hrb,642.0
49.414593,20.259552,Barwinkowa Góra,726.5
49.428978,20.126507,Obłazowa,670.0
49.430893,20.299023,Zielone Skałki,616.0
49.41518,20.278923,Cisówka,777.0
49.414227,20.288,Poręczkowa Skała,698.8
49.4182,20.22992,Żar,883.0
49.428463,20.133402,Kramnica,683.0
49.369526,19.92375,Bachledówka,958.0
49.200123,19.72298,Hrubá kopa,2166.0
49.20023,19.757448,Ostrý Roháč,2088.0
49.201424,19.70266,Pachoľa,2167.0
48.793533,19.539196,Samanovský vrch,925.0
49.19712,19.748123,Plačlivé,2125.0
49.175014,19.513435,Prosečné,1372.0
49.409744,19.869493,Domański Wierch,748.0
49.40004,19.920435,Hyrbik,732.0
49.45289,19.722595,Pirogówka,650.5
49.428875,19.939123,Szeligowa,723.0
49.422558,19.97672,Zdżar,773.2
49.287254,19.976894,Koziniec,936.0
49.180073,19.625805,Babky,1566.0
49.179317,20.088465,Rysy,2501.0
49.2257,20.032734,Pośredni Granat,2234.0
49.224384,19.680092,Malá Brestová,1903.0
49.317085,19.52392,Ostražica,768.0
49.301517,19.536541,Prostredný,672.0
49.204826,19.512001,Grúň,961.0
49.210682,19.507376,Súšava,1077.0
49.180492,19.52961,Hrádková,1206.0
49.18867,19.531939,Čierna hora,1094.0
49.198868,19.531189,Háj,949.0
49.188217,19.5533,Ostrý vrch,1128.0
49.243477,19.548094,Kopec,1251.0
49.18838,19.50518,Sekané,945.0
48.892303,19.5853,Mesiačik,1362.0
49.248653,19.886667,Piec,1472.0
49.250366,19.887133,Upłaziańska Kopka,1457.0
49.24328,19.906565,Ratusz Litworowy,1670.0
49.256332,19.878431,Upłaziański Wierszyk,1203.0
49.271656,20.016304,Wielki Kopieniec,1328.0
49.267776,19.889444,Hruby Regiel,1339.0
49.26712,19.964607,Krokiew,1378.0
49.27215,19.92684,Samkowa Czuba,1189.0
49.267544,20.096846,Goły Wierch,1206.0
49.26419,20.061172,Ostry Wierch,1475.0
49.25861,20.068056,Suchy Wierch Waksmundzki,1485.0
49.230556,20.055555,Pośredni Wołoszyn,2117.0
49.233334,20.0625,Skrajny Wołoszyn,2090.0
49.23901,20.072458,Turnia nad Dziadem,1901.0
49.232594,20.075716,Turnia nad Szczotami,1741.0
49.231945,20.046944,Waksmundzki Wierch,2189.0
49.235363,20.049513,Wielka Koszysta,2193.0
49.228333,20.05,Wielki Wołoszyn,2155.0
49.266045,19.852926,Pośrednia Kopka,1305.0
49.274166,19.86089,Przednia Kopka,1113.0
49.247585,19.852695,Suchy Wierch,1428.0
49.260113,19.858906,Zadnia Kopka,1333.0
49.25661,19.844667,Diabliniec,1241.0
49.256363,19.835167,Wierch Spalenisko,1324.0
49.251945,19.833055,Mały Opalony Wierch,1448.0
49.253796,19.824478,Spalona Czuba,1257.0
49.250305,19.83661,Wielki Opalony Wierch,1485.0
49.372875,20.077671,Jankulakowski Wierch,938.0
49.38419,20.080353,Kotelnica,917.0
49.20757,19.763128,Volovec / Wołowiec,2064.0
49.263973,19.806,Kryta Czuba,1246.0
49.271027,19.877556,Mały Regiel,1141.0
49.311195,19.644558,Bukovina,1023.0
49.312195,19.631718,Košiare,978.0
49.291878,19.971563,Antałówka,937.0
49.3018,19.906384,Butorowy Wierch,1160.0
49.307793,19.935932,Gubałówka,1120.0
48.90439,19.575632,Baba,1617.0
49.211098,19.53193,Klin,945.0
49.262295,19.885359,Niżnia Zawiesista Turnia,1180.0
49.263638,19.877773,Kończysta Turnia,1248.0
49.263126,19.885948,Zawiesista Turnia,1296.0
49.265125,19.882324,Czerwony Gronik,1294.0
49.436382,20.103788,Cisowa Skałka,685.0
49.42925,20.008701,Łysonka,712.5
49.438034,20.016783,Szaflarska Skała,650.0
49.369297,19.50356,Ostrý vrch,988.0
49.26461,19.987139,Boczań,1224.0
48.617752,19.750786,Beračka,736.0
48.78927,19.818882,Blato,1197.0
48.828033,19.827469,Brestovec,943.0
48.67286,19.660645,Dlhý grúň,1061.0
48.596638,19.792782,Farkaška,707.0
48.817223,19.74054,Hrachoviská,750.0
48.52301,19.568424,Jaseňový vrch,842.0
48.50381,19.831785,Jánošíkova skala,609.0
48.539684,19.859537,Kamenice,378.0
48.704674,19.843206,Kostolný vrch,1058.0
48.79087,19.838392,Lešník,1312.0
48.715702,19.889881,Magnet,965.0
48.811363,19.842316,Magura,1101.0
48.668766,19.701439,Nad Králičkou,1037.0
48.657917,19.784931,Oltárne,1034.0
48.642708,19.686628,Plešková,938.0
48.78433,19.853918,Psica,1397.0
48.732704,19.886667,Strieborná,987.0
48.800045,19.877594,Veľká Smrekovica,1322.0
48.772762,19.807974,Vysoká,926.0
48.538017,19.799196,Zdehýnovo,781.0
48.804974,19.75097,Čierny vrch,883.0
48.73526,19.834576,Dielik,987.0
48.67686,19.678202,Geravka,1005.0
48.98013,20.005285,Grúň,1309.0
48.726204,19.942743,Hajnáš,1019.0
48.842495,19.94714,Hudákov vrch,882.0
48.827553,20.059282,Hôrka,951.0
48.659893,19.901299,Jaslište,614.0
48.68982,19.865728,Javorina,971.0
48.644997,19.888685,Klen,811.0
48.792255,19.944754,Klátny grúň,995.0
48.957287,20.023512,Košariská,1361.0
48.74576,19.87735,Kučalach,1141.0
48.6259,19.98345,Kvakov vŕšok,863.0
48.839634,19.922064,Kýčera,794.0
48.778923,19.965828,Kľak,1409.0
48.72454,19.984936,Macov vrch,1096.0
48.723072,19.753693,Nad Lávkou,939.0
48.648483,20.002586,Nižný vrch,1082.0
48.612617,19.921198,Ohrablo,888.0
48.969696,19.959915,Oselná,1299.0
48.739483,19.968218,Ostrica,1223.0
48.64118,19.86753,Poľana,848.0
48.731133,19.848375,Remetisko,886.0
48.810505,19.994165,Rácovo,1089.0
48.87731,19.983072,Stajňová,909.0
48.81941,20.020754,Strundžaník,902.0
48.78643,20.023388,Veľký Cigán,1226.0
48.756184,19.913975,Vysoký vrch,1263.0
48.920616,19.877884,Zadná Široká,1534.0
48.817745,19.918638,Čierny vrch,1135.0
48.960342,20.306835,Baba,1000.0
48.918922,20.254583,Barbolica,1013.0
48.78069,20.452654,Biela skala,897.0
49.06398,20.154915,Bôrik,922.0
48.962944,19.904581,Chmelinec,1509.0
48.899227,20.346478,Cigánka,1137.0
48.780907,20.35775,Cipová,630.0
48.5835,20.160664,Drieňová,445.0
48.648254,20.141453,Dubník,516.0
48.707726,20.317104,Dúbrava,700.0
48.81916,20.395805,Fabiánka,685.0
48.744846,20.18259,Faltenov vrch,1338.0
48.75968,20.24405,Grúň,1197.0
48.693386,20.25784,Homôľka,745.0
49.033306,19.923096,Hošková,1116.0
48.734222,20.29709,Hriadky,756.0
48.923187,20.117895,Kolibisko,1388.0
49.03345,20.032825,Konská hlava,985.0
48.944073,20.222475,Koreň,1335.0
48.79228,20.449728,Kováčová,906.0
48.847908,20.398508,Kruhová,996.0
49.01637,20.265202,Krížová,941.0
48.592464,19.986769,Laz,686.0
48.57293,20.169024,Lipina,351.0
48.682156,20.276009,Magura,883.0
48.569958,20.244331,Malkiná,379.0
48.84759,20.415884,Martinka,1027.0
48.978115,19.942003,Mendíčka,1411.0
48.666126,20.079672,Michalová,879.0
48.980457,19.824335,Milkovo,1251.0
48.5941,20.271011,Muteň,466.0
48.81145,20.405102,Nové cesty,654.0
48.944588,19.813877,Olešková,1102.0
48.959938,19.787699,Olešková,1170.0
48.93165,20.096441,Opálené,1303.0
48.83286,20.423407,Ostrá,1014.0
48.74404,20.072802,Ostrý vrch,730.0
48.63525,20.094666,Paseka,511.0
48.898033,20.240156,Popová,1099.0
48.914223,20.202515,Predná hoľa,1546.0
48.755447,20.258236,Príslop,1165.0
48.967278,19.84333,Pukanec,1302.0
48.738304,20.114931,Radzim,960.0
48.86595,20.360043,Skala,1034.0
48.528385,20.165379,Skalka,389.0
48.81801,20.457453,Smrečinka,1266.0
48.803844,20.424383,Suchý vrch,972.0
48.661064,20.137846,Trešková,615.0
48.935898,20.302727,Tri kopce,1057.0
48.50716,19.88004,Urlak,543.0
49.023743,19.80365,Vachtárová,900.0
48.65003,20.093067,Valaský vrch,586.0
49.051487,20.107224,Valtierov vrch,918.0
48.829506,20.330276,Vincovka,881.0
48.720875,20.311289,Vysoká hora,711.0
49.001453,19.86972,Vysoké,1200.0
48.52533,19.937016,Vŕšok,466.0
49.03919,20.183037,Za hájom,973.0
48.61009,20.099108,Zráz,469.0
49.01143,20.289465,Zámčisko,921.0
49.059395,19.931284,Zámčisko,808.0
48.91706,20.14395,Záturňa,1302.0
49.002365,20.026957,Závrch,1259.0
48.756145,20.409927,Úboč,567.0
48.527317,19.976238,Čechová,510.0
48.936302,20.196136,Čierny vrch,1356.0
48.936222,20.236513,Človečia hlava,1269.0
48.73465,20.133621,Ščob,751.0
48.622795,20.062666,Želbán,514.0
48.62042,20.130123,Železník,814.0
48.845898,20.344336,Gápeľ,961.0
48.887978,20.44479,Hýľ,1158.0
48.89118,20.47686,Malý Muráň,961.0
48.909374,20.428404,Zadný Turník,933.0
49.405777,20.458504,Bučie,603.0
49.38297,20.416521,Kama,622.0
49.400837,20.422794,Kláštorná hora,657.4
49.22452,20.309843,Kobylí vrch,1109.0
49.198708,20.255043,Malá Svišťovka,1558.0
49.246304,20.437176,Malá hora,732.0
49.193417,20.102606,Mlynár,2170.0
49.387314,20.45362,Plašná,889.0
49.403343,20.483114,Psia hora,690.0
49.389256,20.415882,Uhliská,600.0
49.392326,20.49253,Šľachtovský vrch,633.0
48.701572,20.170557,Dachov diel,933.0
48.684204,20.372154,Glac,581.0
48.686947,19.509293,Hrončecký grúň,973.0
48.7016,20.385946,Kar,715.0
48.71409,19.72508,Karašovo,936.0
48.70307,20.414194,Knola,648.0
48.774887,19.924658,Malá Stožka,1204.0
48.68695,19.605238,Obrubovanec,1020.0
48.741753,20.088861,Petrov vrch,785.0
48.6555,20.385843,Psí chrbát,363.0
48.686447,19.5268,Spády,892.0
48.680435,20.218287,Stračina,547.0
48.68385,19.64079,Tlstý javor,1068.0
48.6604,20.343216,Trojštít,672.0
48.670605,20.269608,Veľká Šteť,753.0
48.75398,19.728916,Zrazy,974.0
48.708485,20.112577,Šturmanova hora,742.0
49.27762,19.519993,Blatnický vrch,831.0
49.338135,20.330626,Cigerník,829.0
49.279232,19.50183,Grapy,804.0
49.3469,20.341265,Grapy,775.0
49.370182,20.344553,Hardín,675.0
49.302723,20.399166,Hulok,1003.0
49.30002,20.453215,Kameniarka,935.0
49.298645,19.546991,Krásnický vrch,773.0
49.282623,20.423372,Spádik,1088.0
49.016335,19.661474,Biela Marušová,1098.0
49.0082,19.705578,Brtkovica,1175.0
49.02557,19.59115,Demänovská hora,1304.0
48.936348,19.85021,Domárka,1467.0
49.014,20.057611,Gregória,1046.0
49.027363,19.654707,Javorovica,1062.0
49.03596,19.692549,Kaštieľske lazy,951.0
49.04979,19.931316,Klobušov,955.0
48.984608,19.63284,Krakova hoľa,1752.0
48.93904,19.630716,Krúpova hoľa,1922.0
49.01681,19.599253,Kurence,1285.0
49.00963,19.634447,Kúpeľ,1270.0
48.952534,19.646252,Ludárova hoľa,1732.0
48.93456,19.967785,Malá Vápenica,1487.0
48.94895,19.864876,Malý bok,1534.0
49.01469,19.55806,Opálenisko,1143.0
48.94751,19.839201,Pavlová,1379.0
49.034927,19.654764,Rakytovica,916.0
48.94011,19.71337,Rovná hoľa,1723.0
48.98577,19.77851,Skribňovo,1151.0
49.033295,19.980011,Slamená,1106.0
48.950882,20.04838,Smrečiny,1365.0
48.997738,20.04565,Soľanka,1118.0
48.97289,20.012112,Zadný grúň,1321.0
48.959488,19.752598,Červená,1202.0
48.949814,19.793694,Špíglové,1281.0
48.936638,19.653826,Štiavnica,2025.0
49.227123,20.224197,Belianska kopa,1835.0
49.059494,20.094269,Kolombiarok,900.0
49.016163,20.161263,Kozí kameň,1255.0
49.366116,20.480534,Pašková,770.0
49.344086,20.239365,Petrolovka,941.0
49.30267,20.32726,Plešný vrch,1041.0
49.34846,20.42216,Rígeľ,886.0
49.318325,20.271244,Zlomiská,1019.0
49.21298,20.126352,Zámky,2010.0
49.371414,20.421871,Šajba,730.0
48.76491,19.508348,Dolinka,1014.0
48.505264,20.322205,Guba,322.0
48.52127,20.070974,Hlavina,429.0
48.529285,20.313087,Hámor,335.0
49.25437,19.635426,Ivanov,870.0
48.556793,19.502424,Jaseňovo,701.0
49.283188,19.744709,Jašteričie,878.0
49.183754,19.591654,Kamenné,1018.0
49.246803,19.746656,Kasne,1541.0
48.97304,20.289438,Kotlička,829.0
48.502193,20.16031,Lešť,434.0
48.733494,20.446877,Lučice,827.0
48.76387,20.427252,Macov hrb,502.0
49.175568,19.579092,Meštrová,869.0
48.668686,20.457325,Mních,654.0
48.695286,19.658394,Nad Skalicou,939.0
48.697636,20.432344,Nadždiar,680.0
48.93629,20.347198,Ogurčiak,869.0
49.263714,19.6975,Okolík,1328.0
49.17671,19.602797,Opálenica,1274.0
49.29137,19.619291,Osly,1039.0
49.25328,19.647959,Prieves,945.0
48.565178,20.342606,Slaný vrch,428.0
49.134937,19.883808,Surový hrádok,1016.0
48.555424,20.301723,Viničník,342.0
48.63482,20.424665,Vlčí štít,814.0
48.717983,20.408876,Čertov chrbát,505.0
48.63043,19.707088,Ďurkov vrch,957.0
48.578754,19.576227,Ľuľovka,832.0
49.249023,19.67376,Štít,1310.0
48.900257,20.030193,Andrejcová,1520.0
48.805443,19.509916,Belohrad,764.0
48.91819,19.675266,Besná,1807.0
49.19005,19.92881,Brdárová zvonica,1712.0
48.831512,19.972649,Brestinka,1042.0
48.531998,19.695131,Brložno,814.0
48.831432,20.253948,Buchvald,1293.0
48.87737,19.86374,Bukovinka,946.0
48.829277,19.795444,Bučiny,735.0
48.71621,19.82898,Bánovo,1039.0
49.014507,19.526108,Dobák,804.0
48.924583,19.781528,Fišiarka,1478.0
48.991306,19.951141,Garajky,1166.0
48.983414,19.794151,Gliaň,1220.0
48.796936,20.300833,Halen,724.0
48.818764,19.604395,Horné lazy,805.0
48.833424,19.850483,Horný kopec,884.0
48.637352,19.5296,Hukavský grúň,953.0
48.923786,19.923643,Javorový grúň,1210.0
48.68969,19.880089,Kereška,897.0
48.76919,20.284224,Kilhov,857.0
48.831112,19.91069,Kochlovec,825.0
48.65924,19.92752,Kochovo,686.0
48.947205,19.707914,Kráľov stôl,1580.0
49.21504,19.91627,Liptovská Tomanová,1839.0
49.394283,20.335089,Malinová hora,632.0
49.34938,20.25341,Malorovka,957.0
48.828976,20.342672,Maroň,765.0
48.587116,20.007313,Matejov hrb,532.0
48.889267,19.69621,Mlynárska,1052.0
49.17898,19.644808,Mních,1460.0
48.723312,19.548698,Moglov grúň,871.0
49.26888,20.28965,Na Skalku,926.0
48.61119,20.296417,Nad Hlbokou dolinou,486.0
48.67138,19.935938,Obadovo očko,524.0
48.576485,20.141674,Osek,496.0
49.243347,20.387497,Partizánska hora,937.0
48.74697,20.26437,Pavlova hora,995.0
49.03112,19.864202,Petráňová,920.0
48.596127,20.36513,Pipíš,594.0
48.719772,19.78451,Pomývačný grúň,1002.0
49.188526,19.966516,Predný Holý vrch,1984.0
48.615437,20.150072,Pri javore,676.0
48.86469,19.681473,Priehybka,1111.0
49.14833,19.509695,Prosiek,665.0
48.86677,20.236992,Rakytovec,1068.0
48.737503,20.24256,Rochová,804.0
48.52071,19.898024,Rovenec,436.0
48.630608,19.509552,Sedlo,1043.0
48.808212,19.914873,Slatvinské,1213.0
48.617783,20.296316,Strieborník,556.0
48.865032,19.620586,Stupka,936.0
48.68244,19.870031,Tepličné,878.0
49.12588,19.728123,Vrchlazy,905.0
49.36615,19.597645,Vyšný breh,772.0
49.17155,19.958956,Všiváky,1806.0
48.886234,19.617971,Zálomy,1176.0
48.554028,19.66106,Zámok,740.0
48.876728,19.684834,Zúbra,1192.0
48.820057,19.952448,Černákov vrch,1138.0
48.93691,20.148108,Čertovica,1428.0
48.6224,20.363089,Červená chrasť,483.0
48.692036,19.945347,Čremošná,749.0
49.41421,20.476177,Szafranówka / Šafranovka,742.0
48.858887,19.648338,Šanské,850.0
48.88409,19.897295,Štolba,1044.0
48.639256,20.172874,Štyri chotáre,647.0
49.1639,19.935062,Štíty,1448.0
48.917183,19.503433,Žiarska hoľa,1841.0
48.964817,19.54327,Bôr,1888.0
48.52727,19.855337,Cerové,518.0
48.774757,19.612795,Chamarová,682.0
48.79362,19.552122,Chvatimech,878.0
48.652073,20.027487,Dutková,904.0
48.867588,20.317348,Duča,1141.0
48.90521,20.119303,Dzurová,1559.0
48.549873,20.141798,Fišliška,450.0
48.804413,20.337572,Fridvald,718.0
48.6577,20.423288,Gerlašská skala,752.0
48.865185,20.203135,Gregová,1168.0
49.323063,20.362337,Hanušovská kopa,814.0
48.640182,20.117386,Havranová,592.0
48.896862,20.430521,Holý kameň,1107.0
48.589157,20.020824,Hruštie,610.0
48.92668,20.43586,Jabloň,988.0
48.99443,20.098654,Jedlinská,1091.0
48.577843,19.509655,Klopotovo,601.0
48.902348,20.290066,Kopanec,1132.0
48.915432,20.327581,Koč,1057.0
48.946476,20.322687,Krompľa,990.0
48.69081,20.038063,Krížna poľana,1018.0
48.641987,20.260098,Kubova hoľa,539.0
48.699345,19.912867,Kášter,909.0
49.165733,19.751854,Malý Baranec,2044.0
48.69294,20.088997,Nad Viničkou,507.0
48.945896,19.910313,Nemecká,1535.0
48.78606,20.09594,Prostredný vrch,1026.0
48.885452,20.221207,Prostredný vŕšok,1020.0
48.549126,20.096592,Rúbaň,479.0
49.150898,20.021015,Sedielková kopa,2062.0
48.619717,20.269455,Slovenská skala,621.0
48.76787,20.355959,Spúšťadlo,860.0
48.571026,20.061567,Stanište,513.0
48.56271,20.045013,Staré Brádno,464.0
48.598713,20.056412,Sušiansky vrch,628.0
49.243206,20.368223,Valtín,936.0
48.824352,19.99621,Vasilov,1037.0
48.878235,19.76421,Vrchbánsky grúň,1435.0
48.504253,19.915667,Zalužiansky vrch,482.0
48.875946,20.207527,Zbojnícka,1036.0
48.959225,20.407604,Zelená hora,655.0
49.03655,20.220661,Čarnušová,890.0
48.94528,20.437424,Čertova sihoť,822.0
48.895332,20.413303,Červená skala,1109.0
48.871857,19.707085,Čučoriedková,1316.0
48.79994,19.82448,Ďurová,1228.0
49.38957,20.36991,Šibeničná hora,626.0
48.678017,20.062704,Šrámová,906.0
48.811623,19.658949,Židľovo,608.0
49.298683,19.715834,Blatná,1155.0
48.737232,19.607224,Dolinský vrch,831.0
48.838306,20.08573,Dudlavá skala,892.0
49.263622,20.129604,Gombošov vrch,1194.0
48.65904,20.118393,Hiag,709.0
49.19445,19.904581,Hlina,1505.0
48.63564,20.233944,Hradovisko,345.0
48.76859,19.533804,Hrbček,729.0
49.097897,19.930767,Hrubý grúň,973.0
48.503254,19.859331,Hrubý hrab,530.0
48.509506,20.360077,Ivanovo,308.0
48.905293,19.761435,Končisté,1474.0
49.171963,19.85792,Kotlová,1985.0
48.596893,19.618923,Krčmárov vrch,883.0
49.191624,19.638674,Veľká kopa,1637.0
48.7911,19.89923,Malá Smrekovica,1375.0
49.245087,20.147198,Malý Baboš,1471.0
49.28843,19.661634,Mikulovka,1193.0
49.17858,19.830666,Nižná Bystrá,2162.0
49.17228,19.795572,Nižná Magura,1920.0
48.776756,20.098461,Nižná Skalka,980.0
48.75075,19.513315,Oprchlie,846.0
49.261127,19.721367,Osobitá,1687.0
49.05003,20.479483,Pikovská hora,905.0
49.266403,20.232367,Plošové Turne,1081.0
48.907463,20.150719,Prašivok,1329.0
49.012974,19.746881,Selnice,1244.0
49.22478,19.905201,Głazista Turnia / Stoly,1949.0
48.80797,20.44947,Stromiš,1192.0
48.81182,20.481842,Súľová,909.0
48.62017,20.220167,Tri peniažky,564.0
49.272785,19.782455,Turek,1186.0
49.018715,19.90516,Turková,1178.0
49.196877,19.942524,Veľká Brdárova grapa,1859.0
49.23779,20.150604,Veľký Baboš,1523.0
48.777317,20.339272,Veľký Radzim,991.0
49.262905,20.45233,Vojnianska hora,930.0
49.186207,19.796152,Vyšná Magura,2095.0
49.23273,20.12198,Zadná kopa,1674.0
48.790417,20.408867,Zadný hrb,586.0
48.65817,19.515337,Záhorská skala,1132.0
49.255,20.220257,Žľabina,1411.0
49.22718,20.040264,Wielka Buczynowa Turnia,2184.0
49.227425,20.043087,Mała Buczynowa Turnia,2172.0
49.406067,20.492416,Lažna Skala / Łaźne Skały,770.0
49.388584,20.07596,Szewczaków Wierch,907.0
49.412647,20.081388,Rusinów Wierch,751.0
49.161114,20.11406,Štôlska veža,2471.4
49.16869,20.146006,Guľatý kopec,2121.0
49.15576,20.177086,Senná kopa,1848.0
49.219315,20.012012,Gąsienicowa Turnia,2280.0
49.223278,20.015461,Mylna Kopa,2159.0
49.22369,20.015553,Zadni Kościelec,2162.0
49.22004,20.008642,Svinica / Świnica,2291.0
49.28086,20.325834,Bukovina,1176.0
49.198055,19.710346,Baníkov,2178.0
49.194016,19.710472,Príslop,2142.0
49.101566,20.35954,Barich,768.7
49.229588,19.893208,Kazalnica,1767.0
48.72237,20.17729,Klepaná skala,1192.0
48.977367,19.52909,Brestová,1519.8
48.94681,19.522722,Kopa,1570.8
48.95234,19.509432,Ostredok,1639.8
48.968746,19.522469,Prašivý vrch,1426.5
48.98596,19.529692,Píla,1428.6
48.953945,19.540894,Zákľuky,1914.5
48.979824,19.528023,Jaloviarka,1505.8
48.98128,19.54988,Havrany,1452.9
49.004265,19.547863,Rovienky,1342.0
49.00999,19.541328,Sitieň,1265.0
48.998905,19.527163,Uhlisko,1228.0
49.00768,19.504354,Sečisko,1019.0
49.046112,19.603565,Rohačka,827.0
49.163654,20.135012,Gerlachovská veža,2642.0
49.196518,19.740896,Nohavica,2051.0
49.23369,19.697014,Predný Salatín,1624.0
49.21364,19.686165,Salatín,2048.0
49.207577,19.707006,Spálená,2083.0
49.324463,19.90197,Gruszków Wierch,1030.5
49.342796,19.85588,Ostrysz,1023.0
49.334354,19.899265,Szeligowski Wierch,970.0
49.48443,19.94766,Wieśnostuka,681.6
49.34278,19.965971,Suchowiański Wierch,985.4
49.34632,19.935596,Gawronówka,966.2
49.380558,19.99537,Ganderów Wierch,816.8
48.913246,20.400253,Bykárka,1058.0
48.518616,20.486254,Dlhé bralo,487.0
48.907276,20.465208,Dubnica,990.0
48.874523,20.37817,Gačovská skala,1113.0
48.513203,20.499462,Husí vrch,520.0
49.291687,20.267214,Magurka,1196.0
49.273907,20.205795,Strednica,1129.0
48.905178,20.315187,Vahan,1139.0
48.865273,20.44417,Viničiar,1144.0
48.833744,20.472765,Šajby,1160.0
49.21942,20.009306,Svinica / Świnica,2302.0
49.49827,20.195349,Bukowinka,937.0
49.491142,20.22979,Kotelnica,946.0
49.496433,20.263956,Runek,1003.7
49.296032,19.794273,Magura Witowska,1232.0
48.650173,20.344324,Klen,600.0
48.66929,20.338741,Ortáš,503.0
48.671177,20.385202,Roveň,690.0
48.637676,20.365875,Háj,442.0
48.733356,20.261608,Veľká hôrka,675.0
49.215096,20.020393,Kołowa Czuba,2105.0
49.21991,20.015337,Zawratowa Turnia,2247.0
49.243755,20.053528,Mała Koszysta,2014.0
49.227333,20.035759,Orla Baszta,2177.0
49.228523,20.049232,Mały Wołoszyn,2145.0
49.222282,20.001236,Prostredná kopa / Pośrednia Turnia,2128.0
49.190544,20.05234,Mnichowa Kopa,2090.0
49.189663,20.04857,Temnosmrečinská veža / Ciemnosmreczyńska Turnia,2142.0
49.185555,20.08724,Spadowa Kopa,2252.0
49.18917,20.085844,Żabi Mnich,2146.0
49.184086,20.083532,Skrajna Tomkowa Igła,2109.0
49.178585,20.079306,Żabi Koń,2291.0
49.178604,20.077133,Żabia Turnia Mięguszowiecka / Žabia veža,2336.0
49.18192,20.080791,Bula pod Rysami,2055.0
49.185204,20.069727,Kazalnica Mięguszowiecka,2159.0
49.17942,20.074081,Rogata Turniczka / Rohatá vežička,2365.0
49.180946,20.069027,Hincova veža / Hińczowa Turnia,2372.0
49.18078,20.069113,Hińczowa Turniczka / Hincova vežička,2360.0
49.18356,20.065752,Chłopek,2340.0
49.200436,20.026493,Mała Kotelnica / Malá Kotolnica,1974.0
49.201622,20.020924,Wielka Kotelnica / Veľká Kotolnica,1987.0
49.20256,20.019371,Gładka Kotelnica / Hladká Kotolnica,1990.0
49.1985,20.086271,Żabia Czuba,2079.0
49.207134,20.086912,Granat,1751.0
49.196014,20.084219,Niżni Żabi Szczyt,2098.0
49.19487,20.084295,Marusarzowa Turnia,2075.0
49.193623,20.084599,Owcze Turniczki,2040.0
49.195415,20.08163,Apostoły,1953.0
49.188347,20.0845,Żabia Lalka,2095.0
49.2318,19.981562,Kasprov vrch / Kasprowy Wierch,1987.0
49.229935,20.011406,Mały Kościelec,1866.0
49.23654,19.932268,Kondratova kopa / Kopa Kondracka,2005.0
49.204174,19.883945,Smreczyński Wierch / Smrečiny,2068.0
49.212006,19.896898,Tomanowa Kopa,1899.0
49.20223,19.800817,Kopa Prawdy,2027.0
49.19747,19.795103,Jarząbczy Wierch / Hrubý vrch,2137.0
49.25568,19.790495,Parzątczak,1486.0
49.261623,19.78873,Furkaska / Veľká Furkaska,1491.0
49.276478,19.82516,Siwiańskie Turnie,1065.0
49.272137,19.840326,Cisowa Turnia,1112.0
49.270504,19.801907,Koryciańska Czuba,1161.0
49.261703,19.825787,Klinowa Czuba,1276.0
49.256336,19.818972,Jamska Czuba,1108.0
49.254124,19.804768,Jaworzyński Przysłop,1269.0
49.222115,19.833633,Suchy Wierch Ornaczański,1832.0
49.26358,19.83298,Zadnia Rosocha,1271.0
49.2657,19.836227,Skrajna Rosocha,1262.0
49.260742,19.857664,Świńska Turnia,1333.0
49.237865,19.869976,Ratusz,1296.0
49.239017,19.871998,Saturn,1391.0
49.246197,19.903126,Kobylarz,1430.0
49.244534,19.92024,Wielka Turnia,1847.0
48.96435,19.537111,Tanečnica,1770.0
49.255863,20.004845,Wielka Królowa Kopa,1531.0
49.25261,20.002691,Mała Królowa Kopa,1577.0
49.16393,20.191233,Nos,2273.0
49.309845,20.086432,Wierch Zgorzelisko,1105.0
49.169827,19.834547,Ježová,2043.0
48.95883,19.879503,Mačacia,1410.0
49.441223,20.489944,Bereśnik,843.0
49.431698,20.481022,Bryjarka,679.0
49.439,20.480944,Gucka,763.0
49.418694,20.476807,Palenica,722.0
49.420612,20.47264,Groń,687.0
49.422573,20.474802,Niżny Groń,605.0
48.96675,19.921673,Holica,1575.0
48.987453,19.881384,Pálenica,1370.0
49.265648,19.923069,Kiernia,1317.0
48.962383,19.856106,Kopa,1359.0
49.00134,19.787453,Mních,1150.0
48.98685,19.742674,Hradište,1326.0
48.91626,19.816917,Vrbovica,1394.0
48.557438,20.493097,Bujanov,539.0
49.36497,19.577606,Uhlisko,860.0
49.4925,20.44348,Błyszcz,945.2
49.4965,20.443583,Jaworzyna,935.9
49.485878,20.44223,Bleszcze,842.0
49.477097,20.475924,Kramarzówka,813.8
49.46826,20.496239,Kuba,887.6
49.472103,20.462378,Grań,827.0
49.47198,20.49848,Krótka,896.0
49.479927,20.497042,Bucznik,850.0
49.48133,20.464378,Cerchla,841.3
49.48162,20.458197,Pusta Góra,754.0
49.48295,20.466898,Walkowiec,818.2
49.441216,20.46329,Biała,681.4
49.436737,20.461914,Ciżowa,648.9
49.452774,20.48293,Czerteź,800.7
49.460728,20.452492,Groń,803.0
49.452927,20.490019,Kotelnica,847.0
49.464813,20.449558,Lipowiec,744.0
49.46964,20.451385,Prehybka,698.5
49.472015,20.44376,Wyśnia Góra,637.5
49.44617,20.463076,Kuśmierzowa,705.2
49.452885,20.455301,Jaworzyca,738.0
49.46289,20.457678,Wisielec,835.5
49.45557,20.44411,Stajkowa,722.5
49.49756,20.3863,Bulówka,733.4
49.46639,20.47454,Dzwonkówka,982.0
49.485794,20.42234,Goła Góra,649.0
49.496277,20.432661,Kolebisko,820.0
49.49353,20.381361,Palenica,822.0
49.489796,20.41594,Łapiakówka,544.0
49.30165,19.583956,Biedna,965.0
49.203964,19.582548,Holica,1342.0
49.155052,19.58315,Hájec,914.0
49.288795,19.636534,Javorková,1141.0
49.25368,19.575272,Machy,1202.0
49.299213,19.51599,Ostrvka,695.0
49.119984,19.57608,Plechy,695.0
49.14732,19.570179,Slatvina,830.0
49.237904,20.117092,Holica,1628.0
48.997524,19.61393,Pusté,1501.0
48.996326,19.791777,Sekanice,1116.0
49.286697,20.286713,Slodičovský vrch,1167.0
49.248993,20.10812,Tisovka,1372.0
49.127167,19.939278,Vrch Hybice,998.0
49.061813,19.878763,Za Martinom,826.0
48.980507,19.66295,Zadný vrch,1479.0
48.909782,20.491405,Medvedia hlava,905.0
49.05339,20.458347,Divá hora,856.0
49.176834,20.457726,Dlhá medza,637.0
49.02167,20.47695,Hruška,736.0
49.07186,20.444374,Kosov vrch,746.0
49.162014,20.479618,Kápa,795.0
49.09029,20.351357,Matejovský vrch,760.0
49.175304,20.48984,Najhy,762.0
49.04971,20.419544,Orlov,792.0
49.1392,20.451641,Pri ľubickom chotári,759.0
49.04494,20.473757,Sosna,887.0
49.063354,20.478178,Spálenisko,867.0
49.13062,20.308033,Sunderov vrch,741.0
49.034058,20.44367,Valaská,795.0
49.08346,20.449875,Vysoký výhon,746.0
49.077698,20.459757,Zajačie,735.0
49.154514,20.489346,Ľubický vrch,792.0
49.09145,20.436274,Šípkový vrch,720.0
49.131737,20.48135,Kamenný vrch,769.0
49.11884,20.471943,Malý Okrúhly vrch,678.0
48.90758,20.087137,Holica,1617.0
49.408424,20.446001,Holica,828.0
49.41186,20.478237,Vitkuľa / Witkula,736.0
48.504505,20.35588,Ivona,311.0
48.67085,20.419872,Kopolt,489.0
48.63198,20.354225,Na krížoch,389.0
48.54418,20.360037,Ohrady,296.0
48.504787,20.492641,Treberky,521.0
48.68507,20.478958,Turecká,953.0
48.7726,19.885696,Fabova hoľa,1439.0
48.61705,20.088524,Forovo,472.0
48.658092,19.984179,Holcková,1102.0
48.95168,19.943817,Holičná,1071.0
49.097523,20.169779,Humbierk,861.0
48.83866,20.006634,Kamenný vrch,969.0
48.860134,19.923088,Pivarčovské,677.0
48.610794,19.881935,Polomce,506.0
48.6556,20.00599,Predné Tŕstie,1093.0
48.834873,20.16486,Rovne,904.0
48.659866,19.997461,Salašiská,1132.0
49.07627,20.339827,Strážske,712.0
49.040493,20.11452,Sviniarka,934.0
48.999702,19.981895,Veľká Házička,1206.0
48.833958,19.895342,Volchovo,856.0
48.570465,20.31769,Bartov vrch,361.0
48.504,20.41842,Dlhá pláň,353.0
48.52634,20.4448,Kamenný kopec,493.0
48.56621,20.416,Lúčka,579.0
48.53004,20.493984,Malý Mlynský vrch,457.0
48.593224,20.40951,Nízka planina,570.0
48.538536,20.494493,Osteň,501.0
48.59041,20.24922,Prihradzianska Hradná,405.0
48.57329,20.363392,Veľký Kraslav,466.0
48.588398,20.493547,Vysoké bralo,672.0
48.719894,20.109526,Zubová,812.0
48.575623,20.382845,Záseky,517.0
48.853584,20.29097,Cúdenisko,1059.0
48.885445,20.254662,Hanzlov Ždiar,1077.0
48.807564,20.273651,Krížna jedľa,861.0
48.87708,20.345387,Marčeková,1101.0
48.87212,20.22435,Paločkovec,1038.0
48.880825,20.204758,Raptošov vrch,1021.0
48.85037,20.266907,Strmá prť,1199.0
48.792225,20.120918,Ploštiny,1030.0
48.766697,19.99664,Priehaliny,1125.0
48.7991,20.069826,Vrchy,1106.0
48.545776,20.087975,Bašta,503.0
48.966167,20.119743,Brdárová,1107.0
49.32442,20.18213,Brija,1000.0
48.601448,19.647963,Chocholná,1062.0
48.51018,19.724998,Chochorec,456.0
48.831013,19.584328,Chodorov vrch,746.0
49.270565,19.623207,Chotár,841.0
49.13254,19.689812,Chujavy,903.0
48.551792,19.986727,Cigán,601.0
48.976543,20.040329,Doštianka,1276.0
48.516037,19.847729,Dubové,623.0
48.509827,20.28431,Egrešový vrch,306.0
49.343327,20.316,Frankovská hora,870.0
48.720795,19.520376,Gazdov,1009.0
48.726257,19.560463,Havaška,893.0
49.06374,19.517998,Háje,737.0
49.08908,19.642101,Háje,747.0
49.117203,19.542328,Hájiky,613.0
49.044968,19.58834,Jamy,731.0
49.051155,19.556536,Jelšie,782.0
49.273922,19.765139,Ježov vrch,1086.0
49.233887,19.617266,Kamenné mlieko,1127.0
49.02111,20.019617,Kimberk,1104.0
48.56847,19.54411,Kochol,725.0
49.316605,19.566298,Kovaľovo,762.0
48.540577,19.522387,Kováčsky vrch,735.0
48.554283,19.541471,Košútka,726.0
49.002537,20.08599,Krahulec,1075.0
48.83359,19.64344,Krajčovo,860.0
49.36807,19.54493,Krivina,686.0
48.845543,19.705618,Kráľovská hora,784.0
49.307243,19.767206,Krúpová,1065.0
48.539867,19.505123,Kudloška,685.0
49.354538,19.649275,Kuhajdová,673.0
49.140522,19.53024,Kujanky,655.0
48.912,19.712944,Lajštroch,1602.0
48.72319,19.595512,Ludkov vrch,894.0
48.73623,19.78656,Lômik,1000.0
48.615036,19.548944,Malá Snoha,771.0
49.049305,20.195026,Malý Smolník,954.0
48.661995,20.252321,Miková,674.0
48.94163,20.066246,Mohyla,1360.0
48.572403,20.203829,Mrškovka,322.0
48.6582,20.152718,Nad Komárkami,573.0
49.034584,19.878416,Nad Valaskou,946.0
48.592056,19.552086,Nemcovka,775.0
48.557186,20.030344,Nemšiná,511.0
48.68898,19.568989,Nižné Zákľuky,961.0
48.86511,19.53875,Okosená,831.0
48.70513,19.895557,Pacherka,960.0
48.93387,20.059484,Panská hoľa,1429.0
49.053688,19.546862,Panské,762.0
49.011448,20.101902,Piercok,978.0
49.3977,20.459555,Polianka,706.0
49.360214,19.626236,Príbojec,657.0
48.67535,19.523512,Ramža,986.0
48.67027,19.858555,Rangaska,866.0
48.55653,19.583675,Rubiská,892.0
48.684246,19.849058,Salašík,823.0
48.51935,19.646978,Saské,588.0
48.663357,19.674147,Sedmák,1009.0
48.94964,20.090181,Skorkovec,1157.0
49.381966,19.503712,Stará hora,947.0
49.347424,19.612835,Staré lazy,697.0
49.048122,19.528345,Strana,679.0
48.60502,19.591352,Stračí vrch,835.0
48.526505,19.540823,Strhár,732.0
48.86418,19.561884,Suchá,879.0
48.86578,19.548271,Susedská,769.0
48.831764,19.543272,Svrkľa,605.0
49.22266,19.6821,Brestová,1932.0
48.760155,19.644447,Ungrovo,767.0
48.620346,19.5702,Veľká Snoha,782.0
48.807003,19.62341,Viselnice,540.0
48.64483,19.567005,Vlčie,905.0
49.36061,19.785002,Výr,837.0
49.054977,19.892887,Za cintorínom,827.0
48.73977,19.580288,Zemanová,866.0
48.889294,19.656282,Zingoty,1170.0
48.984753,20.075388,Zlomené,1103.0
48.792316,19.502281,Čelno,941.0
48.896847,19.744665,Čertova svadba,1463.0
48.671265,19.561424,Široký grúň,915.0
49.08211,19.704868,Švihrová,748.0
48.503635,19.54558,Žabica,666.0
48.531414,19.837915,Žabica,616.0
49.12267,19.673851,Žiarsky diel,851.0
49.276283,20.145805,Chovancov vrch,1038.0
48.94666,19.760513,Krajčov vrch,980.0
49.409084,20.383944,Macelowa Góra,801.0
49.40996,20.391624,Goła Góra,711.5
49.41053,20.404066,Podskalnia Góra,742.7
49.41461,20.396463,Nowa Góra,902.0
49.4151,20.381554,Cyrlowa Skała,816.0
49.415207,20.367899,Stronia,663.0
49.416473,20.364283,Rabsztyn,691.0
49.41776,20.351994,Flaki,810.0
49.41835,20.349424,Polenica,803.0
49.40832,20.34121,Sołtysia Skała,582.0
49.41187,20.339655,Pulsztyn,607.5
49.413174,20.353523,Zamczysko,688.0
49.417557,20.332922,Ubszar,656.0
49.419357,20.333767,Piekiełko,678.0
49.422905,20.33035,Czubatka,674.0
49.4232,20.335373,Ula,713.0
49.426407,20.365524,Groń,743.0
49.423756,20.368002,Kozia Góra,771.0
49.419624,20.37566,Macelak,857.0
49.41861,20.402927,Czoło,815.0
49.42608,20.3906,Groń,676.0
49.400093,20.431908,Klejowa,576.0
49.40937,20.423014,Łysina,795.4
49.41353,20.446774,Przechodni Wierch,552.0
49.420406,20.447065,Długi Gronik,569.0
49.045727,20.182775,Smolník,995.3
49.211132,19.642155,Sivý vrch,1805.0
48.870396,19.970816,Holý vrch,822.0
48.833977,19.979427,Pribylinka,1016.0
48.82521,19.961613,Čierny vrch,1103.1
48.93134,19.990156,Medvedia,1569.7
49.179577,20.088108,Rysy,2499.0
49.019146,19.568323,Pálenica,1021.0
48.730267,20.182774,Kohút,1409.0
48.870903,19.984617,Pustina,855.0
49.2076,19.80326,Jarząbczy Kopieniec,1702.0
49.496056,20.360615,Pasterski Wierch,1100.0
49.187214,20.195992,Žltá stena,2182.0
49.265354,20.113146,Łysa Skałka,1119.0
49.219017,20.124836,Horvátov vrch,1902.0
49.0014,19.652393,Kopa,1420.0
49.028694,19.621998,Končitý vrch,1390.0
49.035896,19.610357,Bodová,955.0
49.0697,19.684916,Vlčnenec,664.0
49.05914,19.701204,Veling,722.0
49.066,19.699886,Trhová,724.0
49.08031,19.66677,Vrch Hrádok,711.0
49.414444,20.412779,Nad Ogródki,940.0
49.41389,20.41639,Płaska Skała,950.0
49.414444,20.418888,Pańska Skała,920.0
49.226208,20.29543,Faixová,1489.0
49.233303,20.248995,Prostredné Jatky,1984.0
49.230927,20.251799,Predné Jatky,2012.0
49.156654,19.97928,Nižná priehyba,1775.0
49.1588,19.986687,Vyšná priehyba,1982.0
49.15207,19.981466,Kopa,1767.0
49.151943,19.971327,Grúnik,1576.0
49.006447,19.565453,Na jame,1438.0
49.021183,19.55953,Žiarce,907.0
49.022953,19.55223,Hrádok,848.0
49.433517,20.341507,Majerz,689.0
49.29793,19.692081,Skorušina,1314.0
49.426228,20.419634,Białe Skały,749.0
49.425606,20.414207,Bajków Groń,716.0
49.40899,20.489311,Załazie,733.0
49.40595,20.426773,Facimiech,668.0
49.019684,19.537046,Zvon,848.0
48.950157,19.599731,Konský grúň,1771.0
49.119267,19.555803,Krochva,654.0
49.13025,19.5487,Hrádok,683.0
49.030495,19.682594,Obertovica,855.0
49.03757,19.686312,Kameničná,928.0
48.917076,19.579548,Pálenica,1653.0
48.90334,19.534584,Snožka,1378.0
48.92898,19.519094,Skalka,1981.0
49.163155,20.05283,Satan,2421.0
48.99938,19.621614,Biela skala,1464.0
49.200146,19.726376,Tri kopy,2133.0
49.199924,19.728956,Tri kopy,2136.0
49.199924,19.728956,Tri kopy,2130.0
48.89645,19.831545,Babiná,1516.0
49.032555,19.593084,Kalište,986.0
48.955463,19.613634,Konská hlava,1436.0
48.955982,19.630854,Prašivá,1667.0
48.967693,19.632273,Tanečnica,1681.0
48.9425,19.641005,Baňa,1859.0
48.936977,19.732294,Chopec,1548.0
49.00539,19.71892,Bukovica,1117.0
49.04294,19.551888,Kŕč,773.0
49.17944,20.005482,Hrubá kopa,2221.0
49.173504,20.019285,Terianska veža,2375.0
49.15517,20.012041,Jamská kopa,2079.0
49.189575,20.023958,Posledný chrbát,1926.0
49.226246,19.939026,Štrky,1657.0
49.226295,19.666508,Zuberec,1753.0
49.230553,19.939898,Javorová kopa,1791.0
49.227406,19.91595,Rozpadlá kopa,1970.0
49.190876,20.191326,Pfinnova kopa,2201.0
49.161625,20.124287,Kostolík,2262.0
49.244476,20.187477,Štefan,1730.3
49.181522,19.960886,Krížna,2039.0
49.211742,19.968594,Magura,1901.0
49.207195,19.909887,Kňazová,1804.0
49.221985,19.747719,Zadná Zábrať,1690.0
49.19119,19.903706,Grešová,1494.0
49.18001,19.69414,Ráztoka,1950.0
49.1851,19.698362,Jalovecká kopa,1938.0
49.155487,19.732323,Holý vrch,1723.0
49.17157,19.74687,Štrbavý,2144.0
49.193783,19.767714,Kôpka,1670.0
49.1583,19.756853,Mládky,1945.0
49.162163,19.70236,Solisko,1530.0
49.181324,19.67316,Trnác,1680.0
49.20438,19.67226,Lysec,1830.0
49.176563,19.694603,Široká,1890.0
49.165257,19.66048,Zámčisko,1099.0
49.17111,20.059654,Hincova kopka,2000.0
49.24847,20.197687,Havran,2152.0
49.031673,19.632761,Opalisko,1260.0
49.15648,20.23519,Zbojnícka skala,1199.0
49.211296,20.267136,Rinias,1473.0
49.20781,20.276348,Stežky,1530.0
49.223312,20.17586,Úplaz,1784.0
49.217545,20.182102,Kopa brán,2022.0
49.26433,20.161654,Kýčera,1240.0
49.261208,20.202948,Stará Javorinka,1505.0
49.24497,20.243443,Gáflovka,1626.0
49.25327,20.23232,Veľký Grúň,1274.0
49.258648,20.274187,Tokáreň,1220.0
49.250286,19.696083,Kopa,1075.0
49.236694,19.643427,Ostrý grúň,1216.0
49.22415,19.646736,Kozinec,1462.0
49.229713,19.653673,Malý Klin,1426.0
49.23453,19.725622,Lysec,1387.0
49.271065,19.732058,Mihulčie,1215.0
49.255314,19.763525,Hrubý vrch,1329.0
49.269653,19.706131,Kremenná,1272.0
49.32651,19.760746,Bučník,958.0
49.34346,19.754683,Bučinka,919.0
49.388645,19.624722,Jurčová,671.0
49.305523,19.506083,Vŕšok,688.0
49.303413,19.550829,Grúň,734.0
49.4816,19.563547,Krzywań,801.0
49.466457,19.56056,Žiar,768.0
49.339203,19.536163,Úboč,764.0
48.986336,19.583836,Stodôlky,1212.0
48.965385,19.617193,nad Saláškami,1482.0
48.984047,19.624298,Červená,1660.0
48.99763,19.611082,Stav,1500.0
49.00763,19.604483,Magura,1376.0
49.013275,19.601168,Rovná,1229.0
48.99557,19.557104,Repiská,1406.0
49.18089,20.10881,Pustá stráž,1875.0
49.17015,20.083488,Veľká Kôpka,2354.0
49.152325,20.097996,Tupý hrb,2179.0
49.148613,20.103779,Klin,2183.0
49.165977,20.120234,Kačací štít,2401.0
49.171772,20.048748,Kôprovská veža,2250.0
49.18643,20.053274,Čubrinka,2310.0
49.21903,19.524529,Polianky,1066.0
49.23608,19.522942,Blato,1138.0
49.186295,19.594015,Nižná kopa,990.0
49.203823,19.618452,Suchý vrch,1477.0
49.041435,19.61262,Vápenná,792.0
49.00942,19.525097,Brdár,894.0
48.986927,19.569471,Bohuš,1153.0
49.02539,19.648277,Okrúhla,1085.0
48.974674,19.603851,Nižné Priečne,1070.0
48.960052,19.71144,Okrúhly vrch,1341.0
48.975357,19.705582,Ohnište,1535.0
49.029915,19.715248,Zápač,884.0
49.02473,19.695724,Vislavce,922.0
48.915485,19.723076,Kliesňová,1482.0
48.932354,19.736187,Kompík,1293.0
48.89553,19.500513,Žiar,1408.0
49.146877,20.140236,Suchý vrch,1792.0
49.021774,20.016115,Brada,1112.0
49.172527,19.557745,Hoľa,770.7
48.757645,20.355162,Vŕšok,682.0
48.643223,20.399277,Železné vráta,737.0
49.068626,20.477474,Hrad,845.0
48.752247,20.452335,Vysoký vrch,851.0
48.843006,20.315807,Čierna hora,1152.0
48.651104,20.430822,Nad Bystrianskou studňou,760.0
48.880157,19.732874,Beňuška,1542.0
48.746628,20.284494,Biela skala,857.0
49.225666,20.195562,Jahnence,1863.0
48.954422,19.678562,Salášky,1317.0
49.32505,19.659613,Ostrý vrch,942.0
48.881413,20.292591,Doštianky,1110.0
48.57266,20.380993,Malý vrch,466.0
48.691936,20.40545,Repisko,796.0
48.682976,20.44144,Košarisko,765.0
49.201996,20.217443,Ušatá veža,2265.0
49.34963,19.69692,Dúčalina,759.0
49.305405,19.664165,Javorinky,1140.0
48.738415,19.685257,Pustý vrch,657.0
49.186657,20.189398,Drobná veža,2319.0
48.910583,20.17569,Úplaz,1555.0
49.232105,19.664534,Veľký Klin,1553.0
49.291405,20.240894,Prehrštie,1209.0
48.507675,20.455927,Viničný vrch,507.0
49.340004,19.725134,Vrchdolinky,950.0
48.644596,20.460356,Roveň,528.0
49.466618,19.5216,Kýčera,803.0
48.71376,20.0441,Kamenná,718.0
48.54861,20.438414,Lysina,528.0
48.70015,20.284054,Vŕšok,528.0
48.752117,20.34245,Ježovec,677.0
49.34622,20.259876,Rohová,907.0
48.782005,20.275068,Vŕšok,771.0
48.894455,20.369595,Vrábľová,986.0
48.757336,20.056969,Cigánka,935.0
48.810295,20.294151,Strieborná,888.0
48.891056,20.266245,Javorina,1185.0
48.607323,20.340805,Veterník,610.0
48.527138,20.394306,Hradisko,310.0
48.80753,20.359716,Končistá,729.0
49.226074,19.734604,Predná Zábrať,1577.0
48.519062,20.466337,Rakytník,507.0
48.857883,19.562733,Hrádok,834.0
49.250572,19.515553,Turínok,1004.0
48.830063,20.46255,Babiná,1278.0
48.858383,20.293625,Honzovské,1172.0
48.60399,20.4044,Dubník,696.0
48.561028,20.378695,Koniar,491.0
48.55384,20.394453,Hrad,440.0
48.587105,20.45124,Bukový vrch,650.0
49.058052,20.49248,Hrádok,909.0
48.606373,20.462454,Veľký vrch,634.0
48.830074,20.192827,Homoľa,1083.0
48.523594,20.421724,Veľký vrch,417.0
48.60928,20.496258,Malý vrch,679.0
48.901093,20.334341,Lipovec,1114.0
48.546524,20.467913,Kamenec,584.0
48.744694,20.222658,Skalka,1116.0
48.628788,20.318478,Stará hora,638.0
48.760403,20.379538,Bučina,858.0
48.61577,20.407598,Ostrý vŕšok,775.0
48.68473,20.289684,Bredač,720.0
48.65306,20.411495,Štít,851.0
49.16777,20.050205,Zadná Bašta,2379.0
49.292065,20.19866,Repisko,1259.0
48.73143,20.364506,Ždiar,789.0
48.822613,20.275827,Skálie,1081.0
48.88977,20.344408,Havrania skala,1156.0
48.533497,20.343113,Dlhšie,303.0
48.541103,20.37591,Hôrka,360.0
49.444977,19.528357,Bobrovský grúň,693.0
48.651203,19.988089,Tŕstie,1121.0
49.354195,19.804358,Krowiarki,906.0
48.677788,20.395287,Sivá skala,739.0
48.795013,20.340998,Šibenica,620.0
48.770306,20.45347,Jaseňový vrch,850.0
49.330303,19.80227,Mašňáková,972.0
48.784378,20.39346,Krásna hôrka,551.0
49.197037,19.637136,Baňa,1648.0
48.603554,19.832756,Pasiečky,921.0
48.77634,20.326954,Malý Radzim,961.0
49.241302,20.326778,Pálenica,1174.0
49.354443,19.565924,Borová,780.0
49.258266,19.748137,Kýčer,1386.0
49.239033,19.75631,Roh,1573.0
49.42295,19.547527,Závrch,666.0
48.873898,20.288624,Ostrá skala,970.0
49.34599,19.55273,Žiarec,694.0
49.293026,19.538738,Prasatín,857.0
49.31663,19.581116,Skalky,785.0
48.654915,20.309109,Kameň,776.0
48.64769,20.417347,Vlčí štít,845.0
48.50766,19.637861,Tri chotáre,835.0
48.867573,19.575453,Príslop,891.0
49.147705,19.80954,Kečka,1489.0
49.270473,19.539774,Bane,943.0
49.163864,20.114569,Drúk,2395.0
48.826855,19.622534,Skalka,946.0
49.306087,20.486757,Špičiak,1051.0
48.89544,20.324966,Štrbáková,1096.0
48.884117,20.331524,Remiaška,1167.0
48.6817,19.92378,Hradová,887.0
49.493607,19.52661,Magura,865.0
49.04855,20.476732,Nad Bukovinskou horou,903.0
49.305645,19.974464,Bachledzki Wierch,902.0
49.15844,19.98976,Krivánsky Hrb,2000.0
49.161568,19.99035,Krivánska vežička,1904.0
49.19645,20.182589,Malý Ľadový štít,2602.0
49.48804,20.129007,Cederman,721.0
49.303364,19.886627,Palenica Kościeliska,1182.7
49.49924,20.087574,Styrek,841.0
49.491158,20.091673,Waksmundzka Góra,737.0
49.365314,20.198336,Kuraszowski Wierch,1038.0
49.308903,20.167738,Górków Wierch,1046.0
49.36896,20.166904,Pawlików Wierch,1016.0
49.381042,20.124794,Litwinka,902.0
49.497906,20.202026,Cyrla,912.0
49.498405,20.21487,Majcherek,927.0
49.493305,20.253464,Runek Hubieński,997.0
49.37152,20.148048,Wierchowina,963.0
49.36163,20.147738,Kozieniec,928.0
49.3635,20.156988,Sarnowska Grapa,936.0
49.35676,20.171259,Piłatówka,1004.0
49.34918,20.208403,Holowiec,1035.0
49.353676,20.227396,Pieskowy Wierch,980.4
49.417553,20.199268,Gajna Skała,782.0
49.418156,20.193953,Jurgowska Góra,733.0
49.42152,20.1913,Dziurowa Skała,751.0
49.304985,20.116592,Cyrla nad Białką,1155.0
49.316895,20.123476,Brzegowski Wierch,979.0
49.490486,20.103836,Niżnia Góra,745.0
49.497208,20.108578,Meków Gronik,801.0
49.495045,20.10057,Wicha,792.0
49.4974,20.096304,Łysa Góra,775.0
49.484505,20.123194,Legutków,704.0
49.488503,20.152102,Nowa Góra,741.0
49.4807,20.178228,Kierbag,601.0
49.49747,20.16367,Gronik,847.0
49.482315,20.172602,Słowik,636.0
49.48631,20.167686,Sas,693.0
49.494354,20.180298,Wierch Koszar,825.0
49.496475,20.180067,Cyrla,821.0
49.48331,20.147017,Grupki,646.0
49.48673,20.175041,Cyrnowa Góra,685.8
49.49143,20.20485,Koszark,829.0
49.49044,20.294228,Kudowski Wierch,1024.5
49.48692,20.345932,Średni Groń,1211.2
49.46893,20.409794,Siodło,748.3
49.490376,20.312128,Jaworzyny,1092.3
49.478485,20.328554,Kuternogowa,956.4
49.475758,20.336943,Pisarzowa,949.0
49.457226,20.341688,Sołtysia Góra,728.3
49.44317,20.420189,Kopia Górka,476.0
49.486732,20.272097,Komorowski Wierch,886.1
49.47315,20.258347,Goła Góra,656.6
49.490913,20.256525,Gronik,936.0
49.487705,20.241533,Wilczy Groń,898.8
49.499886,20.078463,Nietliborg,780.8
49.47841,19.95248,Góra,650.3
49.487423,19.939089,Smrodówka,683.4
49.24861,20.000696,Kopa Magury,1704.0
49.43442,19.956034,Skałka Rogoźnicka,670.0
49.48265,20.114902,Łopuczeńska Góra,642.1
49.201958,19.733618,Zelenô,2020.0
49.189407,20.13046,veža nad Poľanou,1804.0
49.36616,20.324007,Nad Księży Gąszcz,750.7
49.336834,20.027895,Galicowa Grapa,980.0
49.330776,20.060783,Skalnite,933.0
49.32838,20.05518,Nosol,947.0
49.322838,20.063599,Upłaz,1004.0
49.357677,20.272224,Tylki Hawiarskie,783.0
49.32422,20.106686,Wysoki Wierch,1015.8
49.36612,20.258362,Kunia,779.7
49.357098,20.202503,Dudasowski Wierch,1038.0
49.359882,20.249525,Klęzbarg,809.0
49.40091,20.144045,Wąska,776.0
49.366627,20.31081,Majowa Góra,741.6
49.346058,20.31758,Zarzędowe Smreki,848.0
49.352158,20.17844,Pusty Wierch,976.0
49.354237,20.314674,Serwoniec,787.0
49.357815,20.305346,Hajszyna,731.7
49.35214,20.32366,Góra Hardyn,804.0
49.39609,20.16542,Słoninów Wierch,758.0
49.37171,20.19058,Gacków Wierch,896.0
49.367817,20.230244,Kotelnica,801.0
49.3733,20.270699,Krzyżowa Góra,764.3
49.352432,20.25282,Kubuś,912.0
49.353146,20.161053,Szyszków Wierch,911.0
49.389397,20.203115,Kozi Grzbiet,719.0
49.384823,20.281607,Jakubia Góra,627.8
49.363358,20.257814,Pod Koszary,788.8
49.388134,20.27873,Nowe,631.0
49.39575,20.233498,Gruba,675.9
49.392925,20.273846,Maliniak,689.9
49.388294,20.187609,Bliźnia Góra,746.0
49.3974,20.22607,Howyż,671.6
49.38515,20.314468,Faltynowe Kąty,668.0
49.39385,20.256514,Glizówka,689.0
49.400425,20.150797,Szeroka,787.0
49.39039,20.165213,Kuśnierzów Wierch,814.0
49.379974,20.076263,Marków Wierch,913.0
49.363773,20.08773,Wysoki Wierch,948.0
49.36677,20.078743,Horników Wierch,927.0
49.42371,20.063898,Szewców Wierch,703.0
49.345158,20.085922,Kurucowski Wierch,972.0
49.35252,20.102436,Rusiński Wierch,948.0
49.352333,20.07411,Koszarków Wierch,968.0
49.42031,20.061064,Wierch,712.0
49.34333,20.070015,Dziadkówka,991.0
49.40503,20.07334,Budzów Wierch,751.0
49.434273,20.016008,Pańska Gruba,691.0
49.433807,20.01613,Zwierzyniec,694.0
49.42489,20.010103,Ranisberg,735.0
49.430325,20.03705,Długa Góra,677.0
49.43448,19.989899,Skałki,661.0
49.4343,19.987494,Skałki,678.0
49.415653,19.944427,Karbówka,772.0
49.410614,19.94927,Siodłowa Góra,731.0
49.368706,19.838745,Kotelnica,856.0
49.42385,19.922304,Bucznik,701.0
49.41238,19.90553,Juhasi Groń,682.0
49.41673,19.925722,Groń,763.0
49.399323,19.888424,Czerwona Góra,692.0
49.379715,19.934635,Nadbudza,900.0
49.363873,19.826803,Cyrlica,896.0
49.35645,19.84139,Tomiński Wierch,837.0
49.36863,19.86911,Zadkowski Wierch,887.0
49.37281,19.883108,Grapa,860.0
49.189007,20.08545,Żabi Kapucyn,2138.0
49.1913,20.046146,Kopa nad Wrotami,2075.0
48.945248,20.46263,Ľudmanka,667.0
49.49088,19.870607,Bucznik,712.0
49.488483,19.755856,Kamieniec,688.0
49.48966,19.583893,Bucznik,807.0
49.4828,19.612436,Bucznik,741.0
49.480865,19.613533,Graniczek,722.0
49.488888,19.59746,Rabczycki Dział,798.0
49.41964,20.420519,Zamkowa Góra,799.0
49.28731,19.944191,Walczacki Wierch,868.0
49.288464,19.934914,Gąsieniców Wierch,868.0
49.285107,19.931988,Gronik,876.0
49.12387,20.029411,Rakytovec,1325.0
49.16173,20.032448,Prostredné Solisko,2400.0
48.91548,19.630411,Veľký Gápeľ,1776.0
49.154606,20.036701,Mlynické Solisko,2301.0
49.156384,20.034508,Furkotské Solisko,2320.0
49.17183,20.095371,Dračí štít,2523.0
49.184795,19.837524,Grúň,2108.0
49.216965,19.603273,Javorina,1277.0
49.204964,19.642324,Malá Ostrá,1703.0
49.16969,20.097065,Veľký Ošarpanec,2348.0
48.834446,20.219067,Tresník,1390.0
49.478436,20.129562,Wielka Góra,601.0
49.41285,20.332148,Popieska,523.0
49.410587,20.28429,Humbark,736.8
49.418945,20.299755,Bartuśka,646.3
49.42029,20.312155,Tabor,602.0
49.420933,20.307705,Nad Tabor,617.8
49.420803,20.314556,Groby,605.5
49.423203,20.287262,Edeki Wierch,643.8
49.423897,20.302378,Biała Góra,635.7
49.4225,20.283207,Chedecki Wierch,648.0
49.416855,20.260183,Ślepcza,702.1
49.424397,20.250534,Łysa,737.5
49.44648,20.4911,Cieluszki,811.0
49.418156,20.218647,Lós,882.0
49.418423,20.38893,Łączana,818.4
49.480045,20.362022,Jaworzyna Ligasowska,1064.0
49.478245,20.314226,Łysa Góra,886.8
49.467457,20.3139,Dudowa Góra,754.8
49.471725,20.342009,Żarnowiec,912.2
49.482533,20.316597,Stos,928.4
49.468433,20.389612,Brożek,843.5
49.4612,20.35229,Gronik,775.7
49.46806,20.393267,Kotelnica,825.3
49.471752,20.385498,Czyrteż Grywaldzki,861.8
49.467968,20.420586,Matusek,625.2
49.489628,19.5184,Gluchová,881.0
49.201084,20.18435,Zadný Ľadový štít,2512.0
49.185654,20.190666,Žltá veža,2385.0
49.187405,20.188757,Sokolia veža,2340.0
49.188534,20.18575,Priečna veža,2353.0
49.401318,20.190489,Grandeus,795.8
49.405956,20.192625,Kalotów Wierch,781.3
49.407013,20.212605,Honaj,752.0
49.421673,20.197063,Bigosowa Skałka,699.2
49.408833,20.193172,Grapa,781.0
49.423145,20.190243,Sosnowa Góra,710.1
49.419487,20.177172,Mikołajczyna Skała,736.3
49.41648,20.242727,Krempaszankowa,825.9
49.415478,20.239838,Dziurawe,821.3
49.41777,20.239555,Szumne,849.1
49.415405,20.23226,Humbarg,827.6
49.41066,20.241907,Ostra Góra,793.1
49.392338,20.227875,Kopa,707.9
49.4026,20.235575,Tynusia Góra,691.1
49.402607,20.245878,Sołtysia Góra,699.5
49.376076,20.218876,Groń,792.0
49.372803,20.259094,Stawiska,737.0
49.378025,20.276022,Łospysek,728.6
49.401363,20.308971,Głębokie,660.8
49.36558,20.304205,Tylka,673.9
49.396465,20.307943,Jędras,708.5
49.358295,20.285551,Lipia Góra,695.9
49.363102,20.27758,Winterłajd,728.3
49.408268,20.341196,Sołtysia Skałka,581.5
49.40105,20.386932,Mardułowy Gronik,548.2
49.405872,20.386183,Gronik,602.6
49.395702,20.393679,Obłaźnia Góra,590.7
49.401836,20.404522,Szewców Gronik,515.7
49.41532,20.410696,Kopa,798.5
49.33473,20.131313,Koziniec,902.0
49.320812,20.129711,Za Wierch,967.7
49.329906,20.128256,Zagóra,930.7
49.319805,20.116997,Brzegowska Góra,994.5
49.31508,20.111616,Wołowiec,1044.3
49.32739,20.115059,Pasieczny Wierch,930.6
49.427948,20.149391,Stembrów,647.6
49.42237,20.17949,Furmaniec,717.3
49.424168,20.226393,Krzanowe,720.4
49.427097,20.216908,Czarna Góra,710.5
49.27619,20.00498,Mały Kopieniec,1170.0
49.41817,20.394812,Sylwków Gronik,807.9
49.163593,20.095318,Zlomisková veža,2137.0
49.168034,20.093708,Veľká dračia hlava,2254.0
49.16732,20.172787,Predný Slavkovský hrb,2289.0
49.16832,20.16919,Zadný Slavkovský hrb,2318.0
49.27539,19.712004,Zadná Kremenná,1219.0
48.96266,19.589792,Vyšné Priečne,1354.0
48.624268,20.139416,Antalka,712.0
49.195976,20.20966,Posledná veža,2560.0
49.161495,20.139254,Čertova veža,2525.0
49.40622,20.052961,Stasiki,780.0
49.389732,20.053476,Stefański Wierch,877.0
49.49043,20.143505,Szpica,712.0
49.24907,19.99341,Jaworzyńska Czuba,1625.0
49.264305,19.994087,Wysokie,1287.0
49.264057,19.963753,Mała Krokiew,1365.0
49.42225,20.434216,Czertezik,772.0
49.213257,20.045385,Wyżnia Kopa,1725.0
49.214535,20.051008,Niżnia Kopa,1711.0
49.21436,20.058847,Świstowa Kopa,1875.0
49.21647,20.057518,Świstowa Czuba,1763.0
49.228527,20.090765,Roztocka Czuba,1425.0
49.459316,20.49485,Mała Chrzanka,778.0
49.274483,19.914684,Jasiowe Turnie,1050.0
49.276028,19.903086,Kierpcówka,980.0
49.2656,19.906223,Kohut,1014.0
49.268177,19.91143,Pośredni Wierszyk,1262.0
49.266594,19.899227,Rapasiowa Turnia,1075.0
49.274567,19.883135,Nędzowski Dział,940.0
49.25243,19.86693,Okręt,1052.0
49.275795,19.857418,Skałki w Jarońcu,1117.0
49.27585,19.852722,Między Ściany,1026.0
49.25954,19.810377,Grześ,1050.0
49.261112,19.798887,Pośrednie,1260.0
49.260426,19.822536,Huciański Klin,1180.0
49.261044,19.831997,Kuca,1294.0
49.263756,19.83303,Banie,1270.0
49.27522,19.813627,Mała Furkaska,1132.0
49.298893,20.011036,Toporów Wierch,929.0
49.234676,20.067135,Wierch nad Zagonnym Żlebem,2039.0
49.214607,20.069654,Kępa,1683.0
49.23127,20.079052,Roztocka Turniczka,1536.0
49.21237,20.204409,Malý Kolový štít,2276.0
49.21246,20.205034,Zadný Kopiniak,2255.0
49.22847,20.046412,Kopa nad Krzyżnem,2135.0
49.22793,20.045042,Ptak,2131.0
49.227207,20.035313,Mała Orla Turniczka,2158.0
49.227043,20.034948,Wielka Orla Turniczka,2162.0
49.256554,19.91715,Grzybowiec,1417.0
49.25399,19.924866,Bacuch,1507.0
49.256615,19.72165,Javorina,1581.0
49.221344,20.032513,Czarny Mniszek,2178.0
49.223686,20.033424,Pośrednia Sieczkowa Turnia,2205.0
49.219013,20.026098,Kozie Czuby,2239.0
49.218803,20.02694,Kozie Czuby,2256.0
49.21804,20.225824,Žeruchová kopa,1744.0
49.208767,19.698317,Zvon,1890.0
49.208244,19.701488,Gankova kopa,1980.0
49.295387,19.811321,Witowski Przysłop,1164.0
49.167393,20.113747,Východný železný štít,2340.0
49.16889,20.109577,Západný železný štít,2360.0
49.18847,20.055315,Cubryńska Strażnica,2335.0
49.18684,20.16058,Kresaný roh,2305.0
49.17328,19.890472,Holý vrch / Hlinov vrch,1863.0
49.243446,19.997005,Małe Uhrocie Kasprowe,1750.0
49.275455,19.95398,Kopa nad Białym,1035.0
49.26583,19.943644,Zawieszka,1339.0
49.2691,19.947859,Łomik,1270.0
49.26544,19.970694,Śpiąca Gora,1186.0
49.42302,20.432405,Czerteż,774.0
49.25573,20.041954,Łasicowa Czubka,1461.2
49.27119,20.029306,Kotlinowy Wierch,1304.0
49.42452,20.42835,Ociemny Wierch,744.0
49.164734,20.00226,Rameno Kriváňa,2395.0
49.42626,20.405058,Wysoki Dział,731.0
49.430756,20.381037,Wierchy,680.6
49.205704,19.984596,Zadná Licierova kopa,1958.0
49.18093,19.949425,Malé Krížné,1919.0
49.207912,19.952175,Malá Licierova Magura,1785.0
49.20807,19.95948,Prostredná Licierova Magura,1933.0
49.20692,19.966408,Veľká Licierova magura,1995.0
49.20065,19.97388,Veľká kopa,2052.0
49.202847,19.98349,Veľká Garajova kopa,1969.0
49.201187,19.98803,Malá Garajova kopa,1929.0
49.19988,19.99413,Zadná Garajova kopa,1949.0
49.303722,19.919655,Gubałówka,1133.0
49.314728,20.48375,Riňava,1005.0
49.211845,19.688013,Malý Salatín,2046.0
49.170708,20.04132,Štrbský štít,2381.0
49.172268,19.58675,Baba,870.0
49.17735,20.089123,Kopa nad Váhou,2385.0
48.97535,19.585104,Ostredok - južný vrchol,1169.0
49.219376,20.009611,Świnicka Kopa,2298.0
49.22628,19.989769,Liliowa Kopka,1979.0
49.22845,20.012825,Czuba nad Karbem,1896.0
49.213955,20.007412,Niżnia Walentkowa Baszta / Nižná Valentkova bašta,2129.0
49.214523,20.007685,Wielka Walentkowa Czuba,2128.0
49.21486,20.008186,Vyšný Valentkov zub / Wyżnia Walentkowa Czuba,2114.0
49.215164,20.008507,Pośrednia Walentkowa Czuba / Prostredný Valentkov zub,2107.0
49.215893,20.008999,Mała Walentkowa Czuba / Malý Valentkov zub,2108.0
49.195194,20.040556,Hrubý zub / Szpiglasowy Ząb,2120.0
49.19066,20.046959,Chałubińského vežička / Turniczka Chałubińskiego,2073.0
49.184975,20.061726,Mięguszowiecki Szczyt Pośredni / Prostredný Mengusovský štít,2389.0
49.185364,20.061302,Igła Milówki / Veľká mengusovská ihla,2355.0
49.1865,20.060453,Mięguszowiecka Baszta,2410.0
49.233364,19.940245,Suchá kopa,1895.0
49.23303,19.94844,Mała Sucha Czuba Kondracka,1832.0
49.232807,19.950235,Pośrednia Sucha Czuba Kondracka,1844.0
49.23227,19.954077,Wysoka Sucha Czuba Kondracka,1876.0
49.23236,19.957138,Goričkova kopa / Goryczkowa Czuba,1911.0
49.16134,19.912687,Žerucha,1381.0
49.18396,19.880056,Grešovo,1911.0
49.416565,20.382608,Gumienko,820.2
49.16747,20.130674,Lavínová veža,2600.0
49.307194,19.867945,Mietłówka,1118.0
49.181126,19.613075,Fatrová,1446.0
49.165188,20.051105,Diablovina,2390.0
49.16428,20.050934,Pekelník,2374.0
49.168663,20.049295,Malá Capia veža,2322.0
49.16575,20.051416,Zlatinská veža,2350.0
49.175346,20.011972,Predná Bednárova veža,2358.0
49.177795,20.007442,Prostredná Garajova veža,2349.0
49.178722,20.006725,Predná Garajova veža,2270.0
49.174934,20.013826,Prostredná Bednárova veža,2352.0
49.171947,20.023155,Prostredná Nefcerská veža,2364.0
49.17178,20.023676,Zadná Nefcerská veža,2362.0
49.172188,20.022444,Predná Nefcerská veža,2362.0
49.17286,20.02071,Prostredná Valova veža,2355.0
49.17306,20.020168,Predná Valova veža,2364.0
49.173557,20.018019,Predná Terianska veža,2357.0
49.174225,20.016243,Zadná Bednárova veža,2358.0
49.17243,20.021639,Zadná Valova veža,2357.0
49.171303,20.025682,Zadná Terianska veža,2381.0
49.183846,20.08403,Zadnia Tomkowa Igła,2133.0
49.178455,20.088501,Rysy,2472.0
49.184296,20.086954,"Niżne Rysy, Skrajna Turnia / Malé Rysy, Predná veža",2375.0
49.22786,19.903498,Głazista Czubka,1982.0
49.213757,19.86926,Jaferowa Kopa,1595.0
49.2682,20.062954,Zadnia Kopa Sołtysia,1420.0
49.27133,20.06092,Średnia Kopa Sołtysia,1362.0
49.274933,20.059767,Przednia Kopa Sołtysia,1334.0
49.274117,20.076513,Filipczański Wierch,1223.0
48.84787,20.3903,Dobšinský kopec,974.0
49.25398,19.946081,Turnia nad Białem,1740.0
49.25343,19.942635,Juhaska Turnia,1834.0
49.25114,19.927725,Skrajna Giewoncka Baszta,1730.0
49.25181,19.92847,Szara Turnia,1647.0
49.250656,19.928293,Biała Giewoncka Baszta,1728.0
49.250046,19.928692,Zadnia Giewoncka Baszta,1735.0
49.24986,19.929161,Giewoncki Chłopek,1730.0
49.25008,19.928438,Wysoka Giewoncka Baszta,1738.0
49.255363,19.944082,Sucha Czubka,1562.0
49.261654,19.96355,Biała Czubka,1333.0
49.24812,19.933126,Kondracka Kopka,1776.0
49.261974,19.919876,Czarna Turnia,1323.0
49.266956,19.923254,Samkowy Zwornik,1316.0
49.26497,19.921362,Jatki,1377.0
49.26343,20.008099,Suchy Wierch Olczyski,1227.0
49.277542,19.965895,Kogutki,1011.0
49.277485,19.96577,Kogutki,1013.0
49.26893,20.207033,Malý Príslop,1165.0
49.2678,20.177904,Malý vrch,1176.0
49.25137,20.186974,Nový Mníšek,1980.0
49.2516,20.186573,Nový Kopiniak,1995.0
49.247383,20.217545,Hlasna skalka,1660.0
49.259323,20.227224,Malý Regiel,1187.0
49.24513,20.286888,Kardolinsky vrch,1127.0
49.25441,20.163189,Muránska Turňa,1440.0
49.255478,20.160868,Muránske kopky,1390.0
49.22973,20.253822,Holica,1981.0
48.856873,20.265106,Ondrejisko,1271.0
49.430164,19.954622,Sowia,681.7
48.863537,20.197033,Ždiar,1167.0
49.1518,19.750158,Pod Barancom,1701.0
49.149525,19.774036,Klinovaté,1630.0
49.46283,20.435213,Dąbrówka,604.0
49.185707,20.031853,Nižný Prostredný chrbát,2100.0
49.18373,20.04022,Palec,2220.0
49.182583,20.04646,Malý Kôprovský štít,2350.0
49.43207,20.41845,Łupisko,659.0
49.311604,20.006088,Walkoszów Wierch,905.0
49.30586,20.011179,Piszczorów Wierch,910.0
49.463974,20.368778,Mikówka,778.0
49.471165,20.314976,Drzyślawa,790.0
49.430473,20.429678,Zimna Skała,611.4
49.429634,20.435913,Koszarka,560.0
49.426968,20.41377,Bańków,721.0
48.71947,19.847319,Nad Bánovom,861.0
49.191948,20.059927,Turnia Zwornikowa,1962.0
49.309113,19.852463,Płazowski Wierch,1059.0
49.31587,19.860924,Iwański Wierch,1023.0
49.300148,19.820831,Urchoci Wierch,1106.0
48.74574,19.753538,Stará Priehybina,867.0
48.711967,19.811274,Báňova,1078.0
49.354057,20.053892,Łasiów Wierch,965.0
49.378098,20.052996,Czarnichowski Wierch,908.0
49.37255,20.055752,Pawlikowski Wierch,925.0
49.343258,20.056087,Iwański Wierch,958.0
49.213173,19.628502,Sivá kopa,1600.0
48.59009,19.968798,Štepový vrch,664.0
48.5384,20.03382,Kopan,504.0
48.624844,19.728764,Jaseninka,978.0
49.265438,20.172298,Nižná medzistenná veža,1273.0
49.263874,20.172644,Vyšná medzistenná veža,1319.0
48.80883,19.729483,Pôbyšovo,763.0
48.8255,19.57262,Brezinky,716.0
49.17269,20.094185,Vysoká,2559.0
49.18855,19.636042,Malá Kopa,1565.0
49.174984,19.638067,Sokol,1316.1
49.231976,20.249567,Malý Košiar,2012.0
49.180855,20.049505,Koprovské plece,2312.0
49.1712,19.58088,Žiarik,760.3
49.20756,19.610167,Javorový vrch,1363.6
49.49848,20.240004,Certez,877.0
49.202183,19.700203,Plačlivô nad Vrecom,2130.0
49.49637,20.225952,Lipowiec,869.0
49.494007,20.220766,Bukowinka,923.0
49.491924,20.299038,Kudów,1009.0
49.493446,20.338638,Bukowinka,1103.0
