latitude,longitude,name,elevation
42.996292,17.15953,Sveti Ilija,961.0
43.338398,17.041054,Sedmina,1563.0
43.307163,17.05058,Perčin,1374.0
43.310795,17.046232,Vošac,1421.0
43.304527,17.059484,Prženovac,1363.0
43.2964,17.06391,Sinjal,1335.0
43.303608,17.069221,Rasovo brdo,1394.0
43.309093,17.066303,Stipkovac,1423.0
43.30815,17.074625,Bukov vrh,1420.0
43.301662,17.080196,Zvitovac,1436.0
43.28767,17.080795,Zavodi,1293.0
43.29279,17.092087,Lađena,1435.0
43.28632,17.095781,Viskovac,1409.0
43.27849,17.09331,Badališće,1084.0
43.32358,17.072292,Runjava glavica,1429.0
43.31694,17.070744,Pale,1438.0
43.312862,17.078375,Debeli brig,1414.0
43.319084,17.05328,Kadulja,1441.0
43.33393,17.054504,Veliki Troglav,1658.0
43.329376,17.074476,Oštruljak,1332.0
43.350433,17.095964,Križica,807.0
43.355816,17.086805,Sinokosa,837.0
43.36168,17.068335,Šije brig,955.0
43.36144,17.041689,Križ,1196.0
43.361115,17.01124,Korenik,1556.0
43.35105,17.024609,Čeprlj,1512.0
43.391544,16.91255,Oštra glavica,581.0
43.41751,16.910032,Kula,387.0
43.23365,17.141523,Miljeva glava,594.0
43.233295,17.132269,Kosmatac,647.4
43.243137,17.14889,Liva glavica,810.0
43.24277,17.157377,Veliki pod,818.0
43.22305,17.170895,Visoka glav.,631.0
43.22642,17.1594,Bulića gradina,601.0
43.212517,17.196045,Velika glava,719.0
43.20721,17.196754,Trnova glava,618.2
43.215973,17.22507,Gradina,595.0
43.217197,17.214373,Visoka,784.0
43.21334,17.240244,Kičer,605.0
43.197533,17.23478,Bile Paščine,563.0
43.19018,17.225866,Debeli brig,801.6
43.184147,17.22043,Kokuljevica,1039.0
43.18014,17.23758,Burićevac,760.3
43.162727,17.23433,Križina,208.2
43.171474,17.241796,Sokolić,788.0
43.17685,17.178064,Golo brdo,156.0
43.206352,17.152613,Andrijaš,775.0
43.21139,17.138218,Živac,801.9
43.217167,17.135132,Velika Srnća,766.4
43.216347,17.12894,Lisac,728.3
43.22065,17.126862,Kljen,808.7
43.19174,17.194191,Velika Kapela,1157.6
43.340496,17.013771,Borovac,1413.0
43.337154,17.011534,Mali Borovac,1253.0
43.327644,17.040604,Štropac,1451.0
43.342007,17.053835,Sveti Jure,1762.0
43.3463,17.10582,Stražica,789.0
43.318825,17.115395,Grad,895.0
43.321564,17.090155,Sokolov brig,1031.0
43.27205,17.114891,Unišća,1308.0
43.264565,17.112291,Glogovik,1142.0
43.25162,17.110975,Supin,1033.2
43.31331,17.00871,Tri križa,198.0
43.36927,17.05657,Rašac,969.0
43.327038,17.11086,Plena,775.0
43.35296,16.999537,Umac,706.0
43.355465,17.01637,Ćulica,1529.0
43.355843,17.023092,Lipa glavica,1526.0
43.371464,16.997095,Sveti Ilija,1642.0
43.25322,17.140987,Grabovica,1002.0
43.265324,17.132183,Vikovica,1230.0
43.258965,17.127834,Križić,1122.0
43.259205,17.147787,Zečica,1114.0
43.262726,17.160723,Crna ljut,1013.0
43.25706,17.156897,Stegoša,1058.0
43.25032,17.149633,Ljutež,1082.0
43.28075,17.234224,Mali Šibenik,1226.0
43.326084,17.156275,Tovarni brig,725.0
43.329433,17.146364,Platnica,761.0
43.29503,17.132853,Kozjak,1367.0
43.287952,17.159557,Goli brig,894.0
43.289223,17.147795,Veli Rudišnjak,1160.0
43.306587,17.121775,Sutvid,1332.0
43.28121,17.158316,Plemenita glava,920.0
43.274437,17.169039,Šibenik,868.0
43.250286,17.193233,Jerova glavica,731.0
43.2646,17.175627,Lastovačka,808.0
43.268036,17.181667,Ćupova gradina,782.0
43.27341,17.147484,Čubrijan,1289.0
43.289032,17.2234,Satulija,1169.0
43.277214,17.129198,Velika Mačka,1440.0
43.278465,17.125593,Vitrenik,1457.0
43.423584,17.048658,Mala Orljača,889.0
43.440613,17.083624,Bajića kar.,836.0
43.472202,17.092072,Glavica,539.0
43.422195,17.101858,Vardišće,670.0
43.41229,17.081015,Veliki Drežanj,775.0
43.468403,17.015898,Kravlja glavica,588.0
42.946632,16.693268,Hum,376.0
43.30971,17.049047,Štrbina,1338.0
43.164074,16.508951,Motokit,328.0
42.909363,16.80583,Komole glave,147.7
42.90914,16.819998,Debela glava,204.0
42.9095,16.78413,Grčka glava,182.4
42.9192,16.794462,Granica,281.0
42.9109,16.795578,Mišina glava,116.0
42.932056,16.815863,Petrov vrh,393.0
42.936546,16.850296,Subotica,435.0
42.93705,16.859163,Kom,508.0
42.92165,16.77159,Dubovo,318.0
42.923695,16.782232,Papuša,243.0
42.94135,16.787731,Mali Učijak,119.0
42.94239,16.795021,Veli Učijak,163.0
42.940002,16.77425,Veprijak,177.0
42.930733,16.778885,Spivnik,266.0
42.955276,16.775618,Mišjak,216.0
42.967102,16.77634,Straževica,139.0
42.95705,16.760489,Kopila,225.0
42.950832,16.795004,Seca,179.0
42.963413,16.800571,Kantilišća,167.0
42.961716,16.810904,Vela glava,155.0
42.95915,16.82025,Gradac,126.0
43.38096,16.975597,Šćirovac,1619.0
42.77641,17.37335,V. Gradac,157.0
42.768898,17.41953,Veliki Planjak,392.0
42.87384,17.457409,Sveti Ivan,469.0
42.894413,17.478285,Ulenje,417.8
42.750393,16.882256,Poljanica,226.0
42.74578,16.879333,Bokonjin vrh,206.0
42.741856,16.891277,Brdo,205.0
42.751995,16.905584,Sv. Vid,187.0
42.767754,16.909595,Velji vrh,203.0
42.768284,16.90008,Kaštel,186.0
42.773228,16.859959,Sozanj,236.0
42.741066,16.869429,Sovrnjal,233.0
42.737274,16.845694,Tapalj,219.0
42.748074,16.829107,Dragovode,133.0
42.767174,16.81666,Mostni vrh,137.0
42.72939,16.892464,Lovorike,90.0
42.75161,16.860626,Hum,417.0
42.753677,16.86817,Mali hum,284.0
42.76734,16.842192,Široki dolac,120.0
42.76712,16.806627,Jurjev Vrh,155.0
42.742687,16.836983,Zirine,251.0
42.73887,16.920446,Vranine,180.0
42.765602,16.933788,Novi hum,204.0
42.761677,16.925915,Na rodice,135.0
42.7732,16.790586,Mrčara,99.0
43.190872,16.595665,Glavica,111.0
43.08931,16.719198,Bičac,77.0
43.14975,16.55788,Gomilica,386.0
43.141495,16.894709,Greben,275.0
43.13793,16.631426,Česminova glava,555.0
43.156555,16.5322,Humac,395.0
43.090557,16.683384,Velika glava,112.0
43.139698,16.782557,Kržišće,402.0
43.14948,16.857306,Vela glava,315.0
43.13474,16.664175,Hum,604.0
43.13293,17.097557,Stražišće,170.0
43.12101,17.145803,Glavica,91.0
43.128826,17.117662,Ublina,246.0
43.1182,17.092947,Borovik,128.0
43.129524,17.14238,Brdo,205.0
43.169174,16.584793,Tusto brdo,287.0
43.415703,16.800098,Golo brdo,697.0
43.430874,16.730883,Kula,863.0
43.45567,16.715593,Biloševo,376.0
43.41424,16.820866,Sinjal,761.0
43.44594,16.677967,Babnjača,334.5
43.413715,16.830881,Kozji rat,788.0
43.410797,16.85198,Biline stine,597.0
43.407127,16.872972,Šatarice,642.0
43.411602,16.8371,Kozjak,722.0
43.412407,16.842169,Lokvica,671.0
43.418816,16.825052,Drobobulja,743.0
43.489304,16.69198,Sveti Jure,1319.0
43.35044,17.01486,Motika,1472.0
43.376053,16.959412,Bukovac,1262.2
43.216534,17.332815,Sveti Rok,1062.0
43.139935,17.2998,Viter,769.0
43.099594,17.375721,Sveti Ilija,773.0
42.91204,17.482878,Kapa,159.0
43.42951,17.036108,Velika Orljača,909.0
43.279655,16.619778,Vidova gora,780.0
43.12971,17.156305,Lukovac,164.0
43.00658,17.473782,Uplav,60.0
42.76845,16.51316,Sušac,239.0
43.263763,17.438152,Klobuk,478.0
43.29218,17.444077,Stražnica,303.0
43.326046,17.42566,Gradina,390.0
43.378574,17.44497,Veliki lončac,590.0
43.41611,17.344688,Mijovilovača,712.0
43.43155,17.310211,Nečajno,790.0
43.410458,17.336123,Svetigora,490.0
43.4871,17.339985,Velika Greda,1132.0
43.49646,17.444252,Priševica plana,1226.0
43.290512,17.350967,Trstike,819.0
43.343586,17.292147,Umac,663.0
43.327377,17.31784,Veliki Jagodnik,592.0
43.347942,17.363598,Veliki Malič,619.0
43.28785,17.389986,Zelinkovac,598.0
43.27963,17.404509,Litica,465.0
43.347828,17.26562,Jegulja,711.0
43.41735,17.395426,Krstine,890.0
43.339172,17.275213,Lupoglav,641.0
43.35579,17.27543,Maica Gredina,481.0
43.273052,17.312532,Medveđa ploča,1075.0
43.144512,16.597612,Sveti Nikola,628.0
43.347786,17.317717,Petnjik,481.0
43.157772,16.696875,Račić,71.0
42.880177,17.48654,Gruhovica,361.0
42.881176,17.458504,Oštra glavica,272.44
42.89417,17.460846,Petrovo brdo,211.0
43.329872,16.860857,Vojski rat,68.2
43.27609,17.258015,Veliki Šibenik,1314.0
43.264233,17.242496,Sveti Mihovil,1245.0
43.21466,17.34525,Kota 900,900.0
43.49009,16.737326,Ćukovača,716.5
43.497955,16.71423,Ploče,625.1
43.499832,16.723896,Prčevice,754.2
43.496037,16.70325,Kuto,865.0
43.490337,16.723356,Kremena,684.8
43.475628,16.732132,Biorevica,944.8
43.466534,16.76831,Lišnica,949.5
43.46264,16.78258,Zlo brdo,589.9
43.46113,16.799252,V. Ratak,517.0
43.459274,16.80423,M. Ratak,422.4
43.466488,16.832705,Velika glavica,381.0
43.463993,16.840988,Žukovača,317.2
43.470585,16.826181,Orlovac,509.2
43.470036,16.812813,Orjak,566.2
43.469467,16.79805,Veliki Kom,642.1
43.47298,16.794338,Vučije brdo,569.0
43.474476,16.78273,Čelinka,618.3
43.47136,16.776657,Hum,633.0
43.478832,16.770927,Zvonigrad,745.4
43.467903,16.737282,Baba,679.0
43.47082,16.727386,Rastovača,767.7
43.475937,16.716726,Kupinovac,1001.9
43.483444,16.706705,Bila,1127.0
43.484684,16.778131,Prvaj,462.0
43.49048,16.78052,Stražišće,347.2
43.48506,16.788158,Široka kosa,412.0
43.487816,16.795969,Dragović,369.8
43.481762,16.799854,Tilovac,359.0
43.480125,16.824894,Stražina,332.6
43.4892,16.812685,Gradina,308.0
43.46409,16.863884,Zelenikovac,316.8
43.469414,16.802832,Mali Kom,620.1
43.49951,16.79271,Dubić,383.0
43.47077,16.745686,Rašeljka,828.0
43.48046,16.708216,Ljutovac,1050.0
43.497013,16.6846,Mali Kozjak,1194.0
43.460682,16.789066,Ozubić,563.0
43.460777,16.793756,Jasenovice,535.0
43.459908,16.80085,Mekiševica,460.0
43.46873,16.75561,Orisac,830.0
43.303383,16.61763,V. Gažul,707.0
43.341717,16.587763,Jurjevo brdo,497.0
43.288204,16.630693,Kadujno brdo,734.0
43.277428,16.635185,Veliko Koštilo,602.0
43.291264,16.569767,Vela Visoka,624.0
43.273125,16.567284,Kuk,342.0
43.294815,16.679083,Vestac,636.9
43.29175,16.70202,Veščić,516.3
43.286007,16.743505,Brkata,437.8
43.2921,16.651846,Borova glava,686.5
43.336323,16.626951,Pliš,395.8
43.32316,16.654139,Vele Čelo,529.6
43.323574,16.584793,Cminje brdo,542.0
43.30527,16.542128,Humčac,490.1
43.291603,16.547478,Jakove stine,533.9
43.32107,16.566006,Mali Oštri Humac,515.7
43.303402,16.588995,Mala Visoka,648.4
43.311626,16.588722,Mala pliš,622.1
43.304024,16.554941,Oštri Humac,554.9
43.307667,16.571953,Veli hrastovik,609.7
43.286438,16.538935,Vran,454.9
43.316803,16.55767,Čelina,523.9
43.284294,16.515812,Blacina glava,247.3
43.313374,16.510439,Dubovi Hunčac,352.6
43.318844,16.505272,Glavica,360.7
43.305676,16.513298,Gnjilo brdo (Plitvina),371.9
43.306946,16.529469,Humac,431.2
43.309715,16.500013,Oštri vrh,306.5
43.317917,16.517698,Polova glavica,380.4
43.31492,16.523373,Smokovo brdo,432.8
43.29815,16.521812,Stražice,391.2
43.298485,16.528805,Veli kuk,400.0
43.31945,16.538523,Štićeno brdo,496.8
43.32152,16.711275,Brišćenova glava,423.6
43.290073,16.714783,Gračišće,486.8
43.28996,16.765963,Hum,437.6
43.29765,16.816874,Hum,351.4
43.27615,16.748945,Humačac,419.4
43.288013,16.721941,Humačac,407.9
43.287582,16.840569,Kale,191.9
43.292915,16.749765,Kopinje brdo,380.3
43.32676,16.692362,Kruna,442.9
43.353374,16.727358,Mala Bračuta,139.6
43.35717,16.687792,Makova glava,176.5
43.27131,16.792599,Pliš,327.6
43.296787,16.827993,Rujnik,297.3
43.28101,16.769258,Smrčevik mali,444.8
43.279118,16.778637,Smrčevik veli,449.6
43.308674,16.689268,Veliko Grečišće,552.9
43.355724,16.51192,Vela gomila,296.4
43.3423,16.535652,Kraljevica,287.4
43.353413,16.531807,Velebit,361.9
43.352005,16.556501,Gnjilac,387.2
43.32866,16.505985,Veli Hum,369.1
43.328785,16.512947,Mali Hum,367.1
43.32474,16.52184,Čelo,406.7
43.31748,16.548689,Crna korita,520.3
43.35943,16.603188,Humčac,249.9
43.28249,16.850298,Visoka,157.6
43.317886,16.87306,Veliko brdo,201.4
43.31838,16.861483,Gračišće,222.3
43.316193,16.848873,Zečevo,232.5
43.329784,16.832777,Gračišće,111.8
43.324924,16.816082,Šćirova glava,211.6
43.325397,16.804316,Glavica,244.1
43.351307,16.766876,Gračišće,131.4
43.345364,16.75847,Čad,168.2
43.318523,16.727207,Klinje glava,461.5
43.305832,16.740088,Malo Gračišće,411.3
43.30365,16.773697,Trbošin,400.0
43.27397,16.660551,Miljena glava,375.4
43.34475,17.009787,Veliki Šibenik,1467.0
42.90197,16.865711,Kupa,179.6
42.926994,16.678526,Brdo od Ravanca,53.6
42.927505,16.704763,Gradac,224.0
42.92429,16.721653,Greben,211.0
42.923485,16.724403,Piket,202.0
42.910866,16.767246,Brdo Duboke,168.3
42.913975,16.755041,Brusje,216.8
42.915955,16.812923,Morkan,325.3
42.917976,17.193146,Ražnjić,76.5
42.918503,17.137426,Zmija brdo,151.2
43.47345,16.595537,Ostrog,480.3
43.466606,16.582232,Veliki Mutogras,109.0
43.022453,17.463348,Galičak,32.0
43.003098,17.484829,Velika glava,103.0
43.347466,16.6175,Velo brdo,267.0
42.961514,17.098227,Potkočina glava,73.0
42.957165,17.084642,Strmeni vrh,242.0
43.15679,16.561247,Radinjac,425.0
43.287045,17.11206,Kimet,1536.0
43.444836,16.698267,Fortica,303.0
42.987343,17.152014,Zmijino brdo,715.0
43.447636,17.069841,Veliki Vilinjak,887.0
43.140614,16.759981,Glavica,352.0
43.13838,16.805264,Vela gomila,347.0
43.138306,16.790962,Plošnjak,355.0
43.167645,16.689846,Burkovo,86.0
43.169373,16.672329,Tatinja,102.0
43.15638,16.663296,Planik,145.0
43.167618,16.634022,Hum,207.0
43.142056,16.65209,Gvozd,544.0
43.136284,16.64809,Romanova špilja,513.0
43.13391,16.674948,Grablje,511.0
43.134827,16.683651,Borovik,500.0
43.205708,16.657175,Humac,115.0
43.214832,16.6413,Tatinja,56.0
43.19467,16.634567,Maslinovik,66.0
43.156445,16.736986,Mačica,181.0
43.18645,16.676908,Kaštilac,77.0
43.179337,16.697601,Glavica,26.0
43.16168,16.644703,Gračišće,155.0
43.19255,16.612677,Mali Starač,108.0
43.19684,16.609123,V. Starač,117.0
43.189384,16.658522,Vetežinji hum,125.0
42.94814,17.008415,Klupca,569.0
43.235733,17.199356,Velika Vidovica,910.0
43.492615,16.573114,Križ,533.2
43.18059,17.16638,Suzina,107.9
43.249104,17.120369,Osoje,961.4
43.24535,17.108995,Troje gomile,822.0
43.239895,17.098965,Gučva,702.4
43.240734,17.120476,Suzina,765.0
43.238186,17.112709,Promajna,696.2
43.224777,17.119715,Sućuraj,749.4
43.22766,17.15028,Glavičica,563.6
43.217243,17.17663,Hrastovac,697.8
43.22111,17.181244,Pločina glava,680.0
43.22269,17.188604,Vučja glava,831.7
43.21581,17.187809,Kose,678.0
43.200485,17.214653,Drini,568.2
43.20437,17.208796,Glavice,558.7
43.189816,17.20105,Mala Kapela,1097.0
43.204063,17.180511,Crna ljut,704.0
43.214684,17.166653,Velika Čučavica,592.9
43.21026,17.159893,Badanj,699.6
43.45486,16.653763,Zahod,593.7
43.156967,16.519615,Podne,348.0
43.173447,16.55413,Kolci,219.0
43.18134,16.543303,Miloševića glavica,186.0
43.17874,16.532999,Lozova glava,341.0
43.181156,16.523285,Ozdrin,442.0
43.17802,16.515676,Česminova glava,361.0
43.18907,16.515894,V. Železnik,411.0
43.161537,16.563787,Duga gomila,340.0
43.193554,16.514502,M. Železnik,372.0
43.19211,16.504889,Ćaća glava,389.0
43.223812,16.529705,Bila glava,129.0
43.220257,16.540539,Stupišće,84.0
43.22283,16.564491,Priluka,70.0
43.210197,16.56629,Zemunjava gomila,66.0
43.44076,16.733799,Visečki kuk,218.0
43.445057,16.748938,Štrbina,276.0
43.44793,16.806211,Vranje,240.0
43.49838,17.20297,Maćanov vrt,716.0
43.368687,17.464827,Mamića brdo,562.0
43.409035,16.863644,Smričice,601.0
43.436523,16.721756,Stražina,731.0
43.41956,16.767536,Baba,665.0
43.414783,17.403738,Rtina gomila,862.0
43.40671,17.41471,Orlov kuk,734.0
43.15661,17.308737,Šapašnik,919.0
43.131462,17.31701,Križ,681.0
43.123928,17.340237,Crvene stine,732.0
43.11767,17.354578,Skok,716.0
43.10817,17.373316,Sv. Paškal,715.0
43.11969,17.34819,Kaba,719.0
43.40575,17.454357,Kuci,723.0
43.45787,17.478777,Strmica,990.0
43.167397,17.490929,Odžanica,161.0
43.16482,17.497255,Sobač,92.0
43.18447,17.465933,Veliki Semij,136.0
43.206882,17.446724,Visoka,99.7
43.269257,17.336151,Vrlosin,954.0
43.269066,17.35414,Mala Kruševica,796.0
43.262497,17.374176,Bulićuša,439.0
43.269306,17.413689,Vojnića gradina,351.0
43.3209,17.385939,Lucina gomila,240.0
43.35184,17.30822,Mali Petnjik,342.0
43.357277,17.294079,Otok,296.0
43.367683,17.296444,Orlov kuk,423.0
43.36366,17.323969,Rašeljka,287.0
43.3207,17.368683,Kanica kula,190.0
43.487022,17.392408,Ivšine glavice,1044.0
43.487465,17.411024,Koslja glava,1149.0
43.48938,17.377613,Šopla grabovica,1027.0
43.47786,17.376808,Velika Glavica,1033.0
43.492706,17.485126,Vidova kosa,1128.0
43.330135,17.41068,Samograd,411.0
43.180996,17.476496,Radalj,141.8
43.178745,17.487932,Gradina,130.3
43.175415,17.485975,Zmijanac,110.0
43.246273,17.475397,Zelengora,284.0
43.251602,17.46933,Planikovača,220.0
43.255875,17.463182,Utvica,215.0
43.26568,17.4307,Markovište,460.0
43.311207,17.334312,Otarište,489.0
43.317543,17.31558,Grad,530.0
43.322655,17.327366,Kazazina,511.0
43.36464,17.43533,Mandina gomila,344.0
43.35788,17.44602,Krstina,365.0
43.352192,17.405132,Donji Zelenikovac,401.0
43.361664,17.392023,Gornji Zelenikovac,415.0
43.313976,17.451794,Lukina grd,310.0
43.156536,17.491688,Zelenikovac,65.9
43.269142,17.152319,Veli Križić,1239.0
43.27266,17.133844,Mala Mačka,1356.0
43.26952,17.127985,Zaspije,1121.0
43.263645,17.145065,Veliki Topalovac,1178.0
43.2615,17.14043,Mali Topalovac,1181.0
43.24632,17.137873,Velika Prisika,996.0
43.24572,17.132706,Mala Prisika,993.0
43.28493,17.091219,Ravna Vlaška,1350.0
43.045864,17.484352,Sestrun,54.8
43.37279,17.36253,Mlinska gomila,460.0
42.762627,17.424831,Grabova glava,384.0
42.7735,17.45468,Medna gora,270.0
42.770615,17.396658,Zle stijene,308.0
43.294277,17.142014,Mali Knjić,1244.0
43.348797,17.084967,Oštra glavica,967.0
43.34853,17.059572,Seveljev brig,1549.0
43.355694,17.037514,Podrašac,1339.0
43.327026,17.098185,Vela Strana,1007.0
43.375927,16.98711,Ledenica,1589.0
43.37906,16.97024,Ćorlina,1583.0
43.380787,16.967813,Zec,1578.0
43.388412,16.968843,Jagodnik,1534.0
43.40098,16.95968,Božurača,1185.0
43.39532,16.929512,Čelo,624.0
43.402744,16.918825,Oštra glavica,489.0
42.766495,16.521717,Velji Grk,206.0
42.7621,16.529152,Mali Grk,162.0
43.227787,17.178833,Gradac,768.0
43.282658,17.164537,Izlazak,871.0
43.387894,17.015148,Golo brdo,434.0
43.165173,17.235056,Kupa,208.0
43.155544,17.241642,Lučki brig,62.0
43.171837,17.184286,Matijaševica,81.0
43.4523,17.062622,Mali Vilinjak,859.0
43.116707,17.474308,Neum,231.0
43.147743,17.473526,Veliki Šubir,503.0
43.15435,17.468267,Mali Šubir,368.0
43.04173,17.4605,Vranjačka glava,14.0
43.043774,17.469383,Veliki Trovro,114.0
43.031364,17.476551,Kozjak,81.0
43.002655,17.46711,Perleta,75.0
43.14446,17.485826,Popovača,150.0
43.184483,17.417698,Križ,433.0
43.18866,17.404974,Gomila,480.0
43.18995,17.392292,Veliki brig,401.0
43.18834,17.368645,Čelina,398.0
43.179184,17.393494,Mosor,231.0
43.22006,17.314228,Zagon,920.0
43.274097,17.294416,Ober,1098.0
43.28062,17.27314,Rasoji,1109.0
43.268715,17.278183,Kalivret,1051.0
43.243637,17.244158,Jelaška gradina,490.0
43.23731,17.24641,Velika gradina,460.0
43.267784,17.267996,Velika glavica,1030.0
43.285748,17.248512,Široka glavica,1211.0
43.240005,17.362335,Velika Glavica,683.0
42.865444,17.488155,Crna Ljut,506.0
42.96375,17.36165,Rota,713.0
42.95673,17.353582,Gusti brig,422.0
42.941307,17.381264,Šipočica,567.0
42.945988,17.372702,Sutvara,567.0
42.902832,17.437687,Stražica,332.0
42.978493,17.32545,Dubovo brdo,562.0
42.99078,17.136683,Vrh M. Kontija,707.0
43.007362,17.237587,Velji vrh,474.0
43.003532,17.26323,Oštri vrh,330.0
43.006435,17.185488,Čašnik,667.0
43.000584,17.175543,Rasme,810.0
42.988552,17.074627,Veliki vrh,268.0
43.009792,17.117308,Pelinovjak,773.0
43.00413,17.141876,Veli Sopaj,770.0
43.005596,17.13662,Mali Sopaj,745.0
43.01112,17.13531,Gliševica,726.0
43.01054,17.10336,Orja,634.0
43.012012,17.09733,Ripiška,551.0
42.99852,17.147562,Ščućevo brdo,871.0
43.006413,17.081816,Debeja,365.0
42.994377,17.07495,Goč,400.0
42.995335,17.064135,Vrh Roguje,362.0
42.99665,17.057632,Karkadur,340.0
43.00853,17.057827,Veli Knez,302.0
43.006413,17.03587,Pavlovića stan,207.0
42.910263,17.473732,Rožine,104.0
42.919113,17.467745,Grad,59.0
42.918217,17.479353,Jagodište,50.0
42.952717,17.28478,Kučak,321.0
42.99511,17.254885,Spasovo brdo,422.0
43.005733,17.248062,Gradac,352.0
42.955875,17.271112,Baretulović,290.0
42.87092,17.473282,Debeli brig,491.0
42.97748,17.274368,Baba,594.0
42.97401,17.281258,Dubravica,569.0
42.976147,17.263855,Trišljena gruda,463.0
42.95132,17.3101,Crvena zemlja,500.0
42.960712,17.262487,Veliki rat,298.0
42.993275,17.172022,Kabal,629.0
42.992947,17.185411,Vižanjica,454.0
42.99417,17.19541,Žrnovica,356.0
42.9934,17.203564,Pčelinjak,278.0
42.95776,17.300531,Goli brig,506.0
43.03384,17.045706,Zaglavak,59.0
42.99631,17.126987,Poljski vrh,605.0
42.929226,17.443546,Mali Prinos,99.0
42.923588,17.448503,Veli Prinos,105.0
42.927814,17.424536,Gradina,242.0
43.02257,17.152624,Rudina,108.0
43.01606,17.175003,Završ,297.0
43.008434,17.175219,Veli Obrak,430.0
43.01369,17.206932,Veli Gradac,312.0
43.02195,17.039911,Planikovac,93.0
43.018326,17.049374,Osobak,128.0
43.001743,17.046944,Veli vrh,258.0
43.01216,17.02201,Vela glavica,68.0
43.011127,17.062159,Mali Knez,289.0
43.011677,17.069132,Vrh,306.0
43.04565,17.007742,Lenga,32.0
43.00358,17.089308,Kopinje,406.0
43.029778,17.047743,Koritna,92.0
43.021294,17.027466,Vitorina glavica,52.0
43.017887,17.030277,Biljčina glavica,80.0
43.019173,17.035383,Viskovića glavica,83.0
42.973614,17.250433,Zaramje,367.0
42.96983,17.25687,Kapetan,364.0
42.965073,17.303776,Kotorac,414.0
42.9925,17.116215,Pišćet,449.0
43.0182,17.091282,Ljubin,189.0
43.022797,17.057808,Ribanska,98.0
42.929375,17.372982,Ćučin,615.0
42.918777,17.41415,Klačina,303.0
42.96003,17.325813,Križ,415.0
42.927956,17.400995,Motoružnice,370.0
42.90119,17.453804,Kunjavica,282.0
42.905952,17.428677,Ljut,235.0
42.890675,17.467194,Sut Nikola,242.0
42.87681,17.443075,Čerjan,310.0
42.80573,17.360586,Velika glava,50.0
42.796047,17.401237,Bočina,75.0
42.7786,17.353806,Solominj rat,53.0
42.76904,17.378803,Špiljica,107.0
42.773464,17.347712,Glog,131.0
42.7648,17.37007,Veli Petral,118.0
42.762264,17.374876,Pudarica,113.0
42.79886,17.382505,Veli vrh,116.0
42.755875,17.497572,Brdska gora,345.0
42.75725,17.383741,Glavica,66.0
42.78548,17.318197,Goli rat,14.0
42.78348,17.32837,Turska straža,48.0
42.7848,17.334763,Popova glavica,27.0
42.777447,17.33356,Korizmeni rat,92.0
42.775196,17.340279,Debela glavica,123.0
42.76836,17.355385,Krst,89.0
42.76475,17.383505,Solinska glavica,64.0
42.794533,17.377281,Galiora,114.0
42.772186,17.38631,Montokuc,259.0
42.784157,17.352991,Goćuh,52.0
42.79022,17.355503,Veli Petral,108.0
42.774986,17.391975,Žukova gora,262.0
42.78357,17.370968,Brakova glavica,151.0
42.782303,17.39382,Veli Desni Dub,172.0
42.783005,17.386053,Mali Desni Dub,151.0
42.778618,17.410532,Glavice,188.0
42.780727,17.417656,Veja gora,285.0
42.777374,17.422611,Vriješće,296.0
42.77307,17.427355,Vilin Gradac,305.0
42.768963,17.434027,Veli Žabokik,288.0
42.780907,17.433266,Gložak,229.0
42.782104,17.425991,Hripe,183.0
42.7558,17.457598,Brijezi,220.0
42.785263,17.43994,Kula,57.0
42.76744,17.411953,Korubica,347.0
42.779182,17.454937,Knežić,115.0
42.75918,17.413288,Hljeb,154.0
42.764828,17.44923,Bijeđ,333.0
42.754,17.449171,Debela glavica,226.0
42.76079,17.452986,Veliki vrh,266.0
42.760715,17.462685,Gložak,267.0
42.770325,17.443222,Travište,178.0
42.765396,17.488132,Bandjera,348.0
42.754196,17.46954,Mjendela glavica,187.0
42.769318,17.46954,Štuk,217.0
42.748997,17.494452,Veliki vrh Bugara,340.0
42.764626,17.499763,Viliška glavica,250.0
42.759365,17.490751,Velika glavica,271.0
43.089394,17.475864,Sirač,404.0
43.0772,17.482367,Plavač,416.0
42.942863,17.39564,V. Vepar,558.0
42.94641,17.320156,Sv. Juraj,546.0
42.954033,17.144602,Carevića glava,43.0
42.94959,17.01487,Vela glava,562.0
42.950546,16.839346,Spivnik,315.0
42.942284,16.993004,Zeča brdo,565.0
42.9537,17.039974,Veli vrh,473.0
42.948284,16.82469,Vrsine,173.0
42.92252,16.761433,Izmeta,315.0
42.925457,16.797375,Greben,337.0
42.93545,16.730146,Vela Strana,258.0
42.93702,16.716286,Kupica,225.0
42.92944,16.71054,Celinjak,265.0
42.937553,16.705729,Konšćar,281.0
42.922504,16.80425,Divna glava,337.0
42.923862,16.746782,Kula,313.0
42.94292,16.71717,Mrtvinjak,253.0
42.94792,16.731934,Ančinovo,104.0
42.94115,16.734251,Maslinovik,196.0
42.937775,16.7397,Krajak,216.0
42.937523,16.746975,Puhovac,162.0
42.938473,16.65299,Tvrdana glavica,107.0
42.9547,16.723886,Kokotovac,45.0
42.909695,16.889051,Stražica,236.0
42.943943,16.89828,Uljani vrh,364.0
42.92424,16.655329,Dance,114.0
42.90753,16.8381,Vela glava,226.0
42.90558,16.844784,Vela Oštra glava,91.0
42.956413,16.748955,Veli Lisac,160.0
42.96472,16.708427,Vranac,70.0
42.95648,16.896498,Vela strana,327.0
42.95849,16.915682,Kupa,395.0
42.958817,16.927568,Velo brdo,380.0
42.916435,16.90034,Stražišće,199.0
42.91961,16.893236,Srednje brdo,178.0
42.90831,16.904438,Sutvara,184.0
42.911312,16.90905,Stinivska glava,141.0
42.925407,16.90536,Brig,139.0
42.926617,16.913149,Mihajna brdo,158.0
42.938038,16.918943,Velo brdo,304.0
42.925507,17.111702,Žukov brig,308.0
42.95326,16.94641,Bilostrmski vrh,441.0
42.94729,16.949263,Javna brdo,437.0
42.947464,16.956085,Čmar,467.0
42.958065,16.972008,Gradina,555.0
42.959743,16.962824,Hlapja brdo,531.0
42.958424,16.980848,Volujak,537.0
42.953808,16.994774,Grabovac,549.0
42.954216,17.009344,Točilo brdo,554.0
42.936413,17.060905,Veliki Hom,442.0
42.94943,17.078678,Veli vrh,334.0
42.957603,16.700777,Pupanj,90.0
42.93956,17.057243,Homić,336.0
42.928623,16.925482,Gomila,192.0
42.933056,16.954685,Stražišće,189.0
42.92969,16.946703,Kavni vrh,181.0
42.929127,16.980606,Ripanski vrh,122.0
42.948204,17.06926,Moška glavica,296.0
42.920258,17.111488,Kalac,272.0
42.928318,17.085835,Vrh Hrastove,390.0
42.94172,16.983,Borova glava,491.0
42.93432,17.014015,Oblik,464.0
42.938766,17.006163,Smričeva glavica,508.0
42.9387,17.021248,Zasidaje,453.0
42.941696,17.015486,Gorča glava,553.0
42.947662,16.67831,Maslinov vrh,219.0
42.960682,16.681723,Ošjak,62.0
42.95954,16.738264,Vrh Potorače,103.0
42.95442,16.733435,Vlašića glavica,48.0
42.931892,16.64623,Vrh od Trstene,93.0
42.963863,16.732378,Mrka Griža,145.0
42.949635,16.70856,Humić,180.0
42.972374,16.705513,Giča,144.0
42.971416,16.724138,Brkat,188.0
42.971832,16.72034,Spilski rat,171.0
42.97365,16.740984,Sprtišča,182.0
42.9748,16.728485,Veli vrh,178.0
42.98536,16.674068,Vrh od Orsana,79.0
42.91024,16.73204,Debela glava,57.0
42.908337,16.737856,Fratri,56.0
42.94091,16.954052,Stubica,349.0
42.940987,16.964502,Jelin rog,398.0
42.954575,17.116917,Gola glava,126.0
42.939465,17.128782,Klokolina,170.0
42.93153,17.1264,Dračevica,190.0
42.954933,17.09134,Gnoja,218.0
42.955124,17.102003,Sridnje brdo,209.0
42.952183,17.096827,Unišća,270.0
42.96291,17.105984,Vrh glave,69.0
42.954113,16.819265,Njivica,148.0
42.926186,17.060593,Zmija glava,342.0
42.976765,17.009575,Žukovica,66.6
42.919525,16.918007,Prapratski brig,131.0
42.95034,16.905285,Vela glava,349.0
42.946213,16.92392,Čelisnica,372.0
42.92471,16.824717,Žarina glavica,301.0
42.940533,17.049305,Mali Hom,403.0
42.933933,17.041689,Vrh Kosirica,366.0
42.928955,17.040873,Jubak,346.0
42.945908,17.431532,Glavica,102.0
42.95817,17.40973,Sveti Martin,104.0
42.9417,17.43369,Šuplja glavica,88.0
43.141144,16.909008,Sveti Ivan,327.0
42.987854,17.483263,Orlić,270.0
43.132973,17.004295,Glava,275.0
43.131996,17.07413,Maslinje,207.0
43.142525,16.976181,Likova glava,418.0
43.13366,16.859869,Vrh,317.0
43.14592,16.936972,Brdo,373.0
43.496902,16.622202,Makirina,684.0
43.491222,16.632984,Ljubiš,623.0
43.231567,17.208195,Mala Vidovica,852.0
42.968933,16.678154,Oštra glavica,40.0
43.31207,16.549055,Mali Propor,497.0
43.09842,17.363348,Grabovica,746.8
43.377037,16.943817,Borovac,790.0
43.265926,17.098944,Čelišnik,1086.0
43.333687,16.688702,Dubrovno brdo,297.0
43.433834,17.294304,Brist,673.0
43.426838,17.315178,Mlična gomila,746.0
43.42333,17.301632,Krstina,486.0
43.44514,17.308445,Gradina,740.0
42.788067,17.36073,Straža,156.0
42.780884,17.399565,Vukov brijeg,185.0
42.774315,17.36602,Sladin gradac,58.0
42.80543,17.357645,Mala glava,23.0
42.79587,17.39818,Glavica,68.0
42.99374,17.09013,Pranja,337.0
43.005684,17.09723,Poratak,481.0
43.004864,17.052692,Kosmej,202.0
42.95493,16.883772,Kupa,272.0
42.762806,16.83298,Platidog,216.0
42.72812,16.840889,Kamenice,105.0
42.775925,16.834318,Žrvanj,62.0
42.76411,16.860674,Glavice,256.0
42.745453,16.911575,Mali vrsi,202.0
42.747013,16.905653,Veliki vrsi,211.0
43.498356,17.378569,Obadova glava,1092.0
43.31321,17.225246,Velika Kitica,853.0
43.31516,17.220627,Mala Kitica,839.0
43.32333,17.207705,Brščanova glavica,820.0
43.29625,17.267317,Plišavica,871.0
43.28098,17.30097,Okruglica,927.0
43.304012,17.275406,Trovro,834.0
43.295853,17.282423,Visoka glava,820.0
43.23689,17.377293,Debelo brdo,635.0
43.23046,17.41854,Ružovača,421.0
42.97169,17.49769,Brijeg,100.0
42.988384,17.491106,Ljubić,254.0
42.98255,17.496035,Šibenik,293.0
42.984776,17.495558,Gradina,286.0
43.170555,16.602398,Purkin kuk,276.0
43.003147,17.476921,Rep,34.0
43.009357,17.464216,Kablo,41.0
43.005352,17.468153,Veliki škoj,51.0
43.336933,16.514658,Vela glava,329.0
43.20228,17.190535,Velika glava,698.4
43.196186,17.204765,Rasovac,799.8
43.198677,16.62578,Gobaško brdo,64.0
43.192142,16.648735,Skunjevac,77.0
43.159527,16.629848,Ravan,227.0
43.15299,16.83156,Periška glava,215.0
43.150608,16.833014,Gravanjuša,213.0
43.126877,17.10004,Rebra,181.0
43.140457,16.993876,Liković,238.0
43.49916,16.56519,Stražnica,500.7
43.467316,16.612164,Jasenak,449.2
43.46575,16.622597,Letuša,452.0
43.4629,16.629492,Sukmaksim,499.4
43.458622,16.643812,Gradina,560.4
43.450127,16.665817,Čeline,455.6
43.472645,16.577002,Mali Mutogras,107.6
43.108955,17.412973,Graine,275.5
43.11199,17.42573,Gradina,394.2
43.110172,17.384207,Duga,579.4
43.11809,17.412115,Grabovik,228.9
43.123848,17.422491,Pliševac,295.6
43.124252,17.431032,Velika glavica,215.5
43.13385,17.401924,Izgorjak,386.5
43.0887,17.439907,Vukovac,195.8
43.09442,17.432611,Umac,340.7
42.998573,17.279528,V. Zasadica,291.5
42.989567,17.272146,Velja glavica,228.3
43.10133,17.475138,Buljevac,50.9
43.09716,17.46364,Viginja,78.9
43.07094,17.452232,Kolovrat,228.2
43.05747,17.47174,Kuke,254.0
43.053642,17.45876,Međak,134.8
43.06902,17.426615,Gradina,98.3
43.06786,17.408936,Bukočica,225.6
43.046314,17.412706,Višnjica,243.5
43.08546,17.38067,Selišta,129.9
43.174213,16.539482,Dugi rat,212.0
43.132114,16.881826,Željina glava,282.0
43.127407,16.892742,Medvidina,262.0
43.127605,16.905485,Plana,309.0
43.125656,16.986046,Vela Stina,259.0
43.13664,16.98935,Glavičice,310.0
43.130657,17.010931,Humac,260.0
43.137115,17.020027,Bristova glava,216.0
43.127396,17.026392,Bogosina glavica,241.0
43.137592,17.028793,Podgorilska glava,182.0
43.12177,17.010048,Vela gomila,244.0
43.117813,17.056389,Glavica,143.0
43.121075,17.076801,Kamenova glava,158.0
43.126854,17.085255,Rogovišća,202.0
43.12139,17.09987,Gračišće,145.0
43.116352,17.105131,Bočić,53.0
43.130596,17.132113,Gubavo korito,220.0
43.13074,17.167576,Umič,63.0
43.129543,17.172047,Lečevišta,48.0
42.99975,17.116169,Sućurska,528.0
43.001842,17.106459,Hrid,523.0
43.26967,17.36935,Gradina,579.0
43.15251,17.343567,Kvartir,848.0
43.176743,17.29705,Velika glava,618.0
43.171352,17.216202,Brig,230.0
43.178326,17.256,Vitrenjak,607.0
43.193447,17.250908,Gradina,469.0
43.18134,17.347727,Juriša glava,157.0
43.174088,17.305965,Stražnica,666.0
43.177853,17.342709,Mala glavica,318.0
43.183968,17.251616,Grab,564.0
43.142387,17.342669,Mali Hum,842.0
43.16545,17.263647,Krive toke,739.0
43.164036,17.338219,Obala,844.0
43.178974,17.309662,Doci,444.0
43.17309,17.249067,Marića kosa,730.0
43.184372,17.304432,Klačina,259.0
43.171085,17.264725,Kadanj,632.0
43.124226,17.356379,Kljena glavica,509.0
43.11328,17.361578,Odar,629.0
43.18125,17.277359,Kokulj,559.0
43.14631,17.34301,Veliki Hum,869.0
43.182697,17.261734,Suvi kljen,572.0
43.13895,17.327496,Velika glavica,661.0
43.1476,17.31363,Sovina,733.0
43.134712,17.350336,Gradina,760.0
43.127453,17.362423,Drinovača,475.0
43.131947,17.365543,Bilasova glavica,334.0
43.15709,17.365906,Vanik,762.0
43.144157,17.377958,Gravište,718.0
43.169216,17.293058,Sinjal,796.0
43.19118,17.300127,Crno brdo,382.0
43.15459,17.318584,Velika gostina,849.0
43.16338,17.317406,Gradina,918.0
43.165867,17.311758,Tomaševica,881.0
43.143444,17.361595,Gomila,701.0
43.170437,17.278168,Veliki podzvizd,764.0
43.185707,17.325323,Lopar,267.0
43.162952,17.276325,Velja luka,791.0
43.157997,17.345247,Orlić,788.0
43.181396,17.317339,Mala Oštra,448.0
43.161995,17.349983,Božurkovica,825.0
43.15392,17.364271,Prisoje,728.0
43.167423,17.325565,Samograd,869.0
43.17254,17.345123,Velika glavica,373.0
43.172405,17.333342,Medvedija,627.0
43.1814,17.330063,Velika Oštra,491.0
43.162956,17.295431,Tribić,889.0
43.17074,17.361074,Vitrenjak,135.0
43.353603,17.33663,Kadunjača,402.0
43.299088,17.293703,Visoka,805.0
43.265675,17.322113,Sedlo,952.0
43.2523,17.329388,Gradina,529.0
43.247063,17.341854,Stiljska gradina,557.1
43.248077,17.360672,Veliki Brig,604.0
43.258907,17.401968,Gradina,117.0
43.258392,17.368956,Glavica,342.0
43.2548,17.381208,Velika Gomila,193.0
43.48253,17.144428,Čava,569.0
43.49029,17.127829,Penjačica,560.0
43.439873,17.110676,Glavica,644.0
42.750473,16.712446,Kaleb,57.0
43.384422,17.221972,Mračaj,534.0
42.76444,17.491209,Straža,339.0
42.766254,17.477253,Stražić,293.0
42.759808,17.486362,Mala glavica,209.0
42.729107,16.904665,Podpoljice,121.0
42.72723,16.888544,Ploče,102.0
42.737057,16.894537,Debeli brijeg,139.0
42.73434,16.895615,Čeberjan,123.0
42.72736,16.897778,Bačva,95.0
42.755703,16.83088,Tomin vrh,151.0
43.08687,16.688179,Mala glava,87.0
43.088306,16.676676,Zelenikova glava,107.0
43.128944,17.09431,Korica,178.0
43.122875,17.084122,Sridnja glavica,174.0
43.147163,17.275713,Plana,260.0
43.14548,16.863272,Glavičica,228.0
43.22732,17.126112,Mali Privor,710.0
43.24672,17.17918,Biluša,802.0
43.14794,16.869785,Humić,195.0
43.146458,16.895933,Humac,248.0
43.11566,17.00798,Zaglavac,103.0
43.15659,16.822289,Glavica,112.0
43.116844,16.997465,Radičini Kuci,90.0
43.139637,16.94376,Vela gomila,370.0
43.115498,17.002699,Strižina glava,94.0
43.155254,17.25528,Plišivac,242.0
43.242752,17.191729,Privorac,788.0
43.23424,17.22431,Brig,490.0
43.215843,17.270563,Velika gomila,274.0
43.217346,17.203262,Veliki Štropac,897.0
43.2328,17.21621,Orlovac,685.0
43.207417,17.285643,Gradina,316.0
43.226765,17.19297,Crno osoje,872.0
43.24547,17.212822,Rukavić,498.0
43.216984,17.250998,Dubravica,502.0
43.225025,17.216194,Jakina glavica,708.0
43.228477,17.278675,Gradina,476.0
43.20091,17.269411,Rasadnjača,343.0
43.219048,17.207685,Mali Štropac,867.0
43.205795,17.255787,Gravište,526.0
43.195858,17.288546,Krčunova glavica,372.0
43.239758,17.232628,Jagoda,370.0
43.24875,17.217676,Gradina,422.0
43.218204,17.240114,Oštra glavica,568.0
43.197502,17.300362,Debelo brdo,357.0
43.226578,17.308893,Malo Plesno,838.0
43.204704,17.29785,Umac,303.0
43.22359,17.314152,Veliko Plesno,847.0
43.222946,17.292274,Umac,641.0
43.20714,17.245827,Veliko brdo,563.0
42.774094,17.472921,Rusaja,102.0
43.44418,16.706366,Vrh Pleća,489.0
43.437756,16.86443,Gradac,308.0
43.42557,16.850384,Mali Batnjik,139.0
43.42375,16.841946,Vinac,247.0
43.432106,16.837116,Vrišanj,158.0
43.43538,16.880777,Crna pola,236.0
43.431343,16.852613,Težine,186.0
43.44256,16.71163,Debela glavica,563.0
43.443867,16.85916,Plana,266.0
43.451736,16.800978,Bašica kuk,238.0
43.4242,16.853508,Veliki Barnjik,216.0
43.445595,16.789204,Višnjevac,180.0
43.435547,16.832708,Križina,199.0
43.42563,16.818117,Unčine,414.0
43.428253,16.862211,Kravarica,180.0
43.432957,16.819168,Sušića glavica,224.0
43.44697,16.784178,Rat,210.0
43.46213,16.749197,Gradina,504.0
43.487263,16.742687,Kleničnik,728.0
43.42921,16.82884,Mačkova glavica,233.0
43.45191,16.787443,Božica glavica,253.0
43.439606,16.823229,Matijin kuk,190.0
43.45912,16.762169,Visoka,578.0
43.45973,16.756372,Križina,492.0
43.45622,16.770847,Pročelak,496.0
43.46527,16.743608,Vali kuk,559.0
43.493286,16.670815,Poratak,847.0
43.461803,17.066216,Glavica,752.0
43.463844,17.08215,Gradina,633.0
43.36353,17.13944,Lukovac,746.0
43.301853,17.143759,Veli Bukovac,904.0
43.37863,17.128155,Mali Vitrenik,759.0
43.376324,17.118034,Veliki Vitrenik,787.0
43.353485,17.103382,Hum,725.0
43.32161,17.165733,Mala glavica,667.0
43.334633,17.137117,Radovački brig,785.0
43.28072,17.13636,Krajna Mačka,1380.0
43.31694,17.121302,Stražica,742.0
43.28567,17.151964,Široka glava,1037.0
43.312237,17.13758,Velika Glavica,579.0
43.29739,17.147913,Mali Rudišnjak,936.0
43.32141,17.16303,Velika Glavica,664.0
43.35477,17.231989,Gomilice (Kapina),725.0
43.313427,17.257391,Gradinica,710.0
43.379112,17.162975,Oštric,854.0
43.39887,17.11838,Uništa,794.0
43.393196,17.090515,Križica,755.0
43.344017,17.235966,Mali Gostinac,544.0
43.408863,17.11321,Petrov vrh,720.0
43.341946,17.112148,Gradac,760.0
43.365692,17.18586,Mala Jajina,777.0
43.395355,17.12722,Gradina,865.0
43.37046,17.176744,Gradinica,786.0
43.394875,17.202148,Gradina,488.0
43.409267,17.098576,Kosmetovica,691.0
43.327255,17.258293,Zetovanj,586.0
43.391544,17.13579,Piljevača,868.0
43.36128,17.199158,Velika Jajina,842.0
43.3134,17.240583,Dikavačka glava,794.0
43.336117,17.266195,Gnjilovac,564.0
43.33832,17.242836,Gostinac,586.0
43.380905,17.198864,Liskovac,543.0
43.39421,17.19033,Majdan,469.0
43.40037,17.190733,Gajić,411.0
43.410282,17.15177,Gradina,517.0
42.761127,17.382652,Sredni rat,71.0
42.765667,17.484043,Korubljica,297.0
42.76703,17.488424,Orje brdo,323.0
43.420174,17.062536,Križice,794.0
43.40857,17.018688,Vela glava,548.0
43.427334,17.02442,Tjeme,737.0
43.379993,17.03976,Križić,713.0
43.342663,17.081287,Vodena glavica,1201.0
43.337215,17.07691,Ploča,1308.0
43.404045,17.015665,Bašina glavica,479.0
43.39831,17.024765,Gradac,518.0
43.356358,17.079353,Kamenik,1070.0
43.372467,17.02329,Rat,1009.0
43.36567,17.01296,Oštri vrv,1492.0
43.408756,16.93075,Kurtova glava,522.0
43.44841,16.990255,Sidoč,848.6
43.420628,17.03485,Bestina,782.0
43.409237,17.33279,Borina kota,440.0
