latitude,longitude,name,elevation
47.34222,-99.287895,Hawks Nest,645.0
47.305,-99.217896,Mount Morian,610.0
46.79165,-99.06678,Mount Pleasant,580.0
47.12916,-99.03594,Round Top,587.0
46.900543,-99.12122,Terpena Hill,592.0
46.539143,-99.218445,Cactus Point,642.0
46.557198,-99.174835,Buffalo Hill,652.0
46.500137,-99.30798,Streeter Moraine,693.0
