latitude,longitude,name,elevation
59.90889,-151.42886,Ninilchik Dome,596.0
59.98355,-151.07208,Ptarmigan Head,869.0
59.762882,-151.33766,Bald Mountain,598.0
59.525757,-151.37192,Sadie Knob,640.0
59.608795,-150.79399,Iceworm Peak,1524.0
59.525074,-151.17345,Poot Peak,762.0
59.70931,-151.45784,Lookout Mountain,494.0
59.527912,-150.67146,Mount Diablo,1088.0
59.507816,-150.79668,Needle Peak,1371.0
