latitude,longitude,name,elevation
18.544998,105.79128,Núi Hồng Lĩnh,676.0
19.406208,105.79082,Núi Do Xuyên,94.0
18.646713,105.699356,Núi Quyết,102.0
18.866291,105.59687,Núi Thần Vũ,441.0
19.304798,105.684074,Núi Mồng Gà,265.0
18.587187,105.64001,Núi Thành,169.0
18.664757,105.56506,Núi Chung Sơn,50.0
19.329935,105.81934,Núi Biện Sơn,162.0
18.959047,105.5325,Lèn Hai Vai,149.0
18.760149,105.53472,Núi Đại Huệ,436.0
