latitude,longitude,name,elevation
44.735863,-63.50906,Melancholy Mountain,109.0
44.67857,-63.56903,Mount Thom,88.9
44.70525,-63.58856,Beech Hill,90.0
44.69632,-63.534424,Miller Mountian,100.0
44.685863,-63.509888,Mount Edward,110.0
44.67311,-63.510075,Break Heart Hill,100.0
44.71822,-63.637665,Shaffebough Hill,90.0
44.687843,-63.58398,Pine Hill,85.0
