latitude,longitude,name,elevation
53.089405,70.25939,Болектау,147.0
53.0908,70.23593,Старшая Сестра,573.0
53.092648,70.26221,Отдельная Гряда,500.0
53.08692,70.246765,Окжетпес (Слон),480.0
53.092205,70.270454,Корова,444.0
53.05705,70.17808,гора Бура (Верблюд),690.0
53.08014,70.1888,гора Кокшетау (Синюха),947.0
52.990692,70.32922,Майлыкора,495.0
53.0211,70.14917,Жеке-Батыр,826.0
