latitude,longitude,name,elevation
44.819233,-69.1306,Abbott Hill,130.0
44.52257,-69.19782,Aborn Hill,304.0
45.33283,-68.9417,Acorn Hill,216.0
44.591187,-68.6792,Atkins Hill,128.0
45.33227,-69.081154,Bailey Hill,219.0
44.928955,-68.564476,Baker Hill,81.0
44.69646,-68.82864,Bald Hill,77.0
45.401722,-68.666145,Bald Hill,148.0
44.658512,-68.604866,Bald Mountain,342.0
44.895626,-68.70198,Bangor Hill,82.0
45.41558,-69.37039,Barren Mountain,742.0
44.632294,-69.08032,Bartlett Hill,162.0
45.101444,-69.32616,Bean Hill,239.0
44.56313,-69.04893,Bear Hill,248.0
44.71618,-69.30449,Beech Hill,105.0
45.284775,-69.24838,Ben Chase Hill,166.0
45.388382,-69.311714,Benson Mountain,559.0
44.698963,-68.56197,Big Hill,338.0
45.44922,-68.73781,Birch Mountain,228.0
45.249218,-69.30338,Birch Mountain,286.0
44.753407,-68.56642,Blackcap,312.0
44.562298,-68.647804,Blaisdell Hill,134.0
44.50452,-68.84642,Blanchard Hill,142.0
44.680073,-68.68253,Blood Mountain,97.0
45.377213,-69.40368,Borestone Mountain East Peak,604.0
45.191162,-69.49755,Brown Hill,305.0
45.30394,-69.04615,Brown Hill,200.0
44.854237,-68.70948,Buck Hill,93.0
45.259495,-69.079765,Buck Hill,242.0
45.23033,-69.325325,Buker Mountain,311.0
45.09978,-69.06393,Bull Hill,255.0
45.391994,-69.073654,Bull Hill,164.0
45.255886,-68.759476,Bunker Hill,169.0
44.69313,-68.64475,Button Hill,130.0
45.126163,-69.47533,Campbell Hill,291.0
44.67313,-68.69114,Cancer Hill,82.0
44.592297,-68.67225,Cave Hill,162.0
45.456448,-69.25596,Chairback Mountain,667.5
45.036724,-69.35532,Chandler Hill,194.0
44.707016,-68.630585,Chase Mountain,172.0
44.630905,-69.032265,Chicks Hill,148.0
45.258663,-69.17727,Citron Hill,158.0
44.57146,-69.04337,Clement Hill,210.0
44.64813,-68.810036,Cobb Hill,172.0
44.834793,-68.6642,Coffey Hill,115.0
45.449284,-69.26855,Columbus Mountain,707.0
44.633682,-69.18504,Common Hill,300.0
44.624798,-68.65447,Condon Hill,183.0
44.516186,-69.02643,Coon Hill,186.0
44.73785,-68.70309,Copeland Hill,222.0
45.277275,-69.1456,Crocket Hill,220.0
44.652016,-69.064766,Croxford Mountain,179.0
44.738956,-69.074486,Davis Hill,176.0
45.109783,-69.01671,Davis Hill,236.0
45.280052,-69.3906,Davis Mountain,290.0
44.70146,-68.678085,Deer Hill,90.0
45.251995,-69.36838,Deer Hill,339.0
44.588684,-68.926704,Delaware Mountain,144.0
44.965057,-69.4756,Devils Head,265.0
44.647297,-68.64753,Dodge Hill,234.0
44.54813,-68.51252,Dollard Hill,156.0
44.61785,-69.03865,Dolloff Hill,186.0
45.1045,-69.49449,Dorr Hill,290.0
44.615906,-68.89309,Downs Hill,141.0
44.617294,-68.71281,Dressers Mountain,105.0
44.58535,-68.93587,Dutch Mountain,200.0
45.468384,-69.063934,Ebeemee Mountain,556.0
44.523964,-68.954475,Mount Ephraim,226.0
44.533962,-68.814476,Ersking,98.0
44.939198,-68.742874,Fairdale Hill,70.0
45.23533,-69.44699,Faunce Hill,238.0
44.61646,-69.21255,Files Hill,270.0
45.34589,-68.50808,Fish Hill,201.0
44.719517,-68.630585,Fitz Mountain,99.0
44.60313,-68.62086,Flag Hill,270.0
45.15061,-69.32477,Flanders Hill,258.0
44.50563,-68.86809,Fletcher Hill,177.0
44.612576,-68.62503,Flying Moose Mountain,245.0
44.857006,-69.46227,Ford Hill,113.0
44.561733,-69.49477,Foss Hill,131.0
45.432404,-69.31939,Fourth Mountain,714.0
44.649796,-68.96754,Fred Low Hill,153.0
45.15422,-69.41449,French Hill,198.0
44.872562,-69.38949,Furbush Hill,161.0
45.268383,-69.34477,Garcock Hill,191.0
45.348938,-69.019485,Gerrish Hill,219.0
45.199497,-69.37699,Glass Hill,255.0
44.643406,-69.081985,Goodwin Hill,178.0
45.294216,-69.34393,Granite Mountain,223.0
45.269775,-69.09448,Gray Hill,151.0
45.300888,-68.54725,Grays Hill,161.0
44.600906,-68.66753,Great Pond Mountain,291.0
45.36005,-69.390884,Greenwood Mountain,344.0
45.22783,-69.35866,Guilford Mountain,387.0
45.038113,-69.488106,Ham Hill,211.0
45.260883,-69.36588,Hampshire Mountain,340.0
44.66507,-69.14699,Mount Harris,355.0
44.607292,-69.08698,Haskell Hill,208.0
45.083115,-69.118095,Hatch Hill,236.0
44.580074,-68.84503,Heagan Mountain,162.0
44.52674,-68.90976,Hedgehog Hill,89.0
44.534794,-69.1506,Hedgehog Hill,168.0
44.621464,-68.640305,Hedgehog Hill,93.0
44.598408,-68.92642,Hedgehog Mountain,93.0
45.29644,-69.320885,Hedgehog Mountain,153.0
44.842293,-68.87365,Hermon Hill,110.0
45.03395,-69.25255,Hersey Hill,268.0
45.077003,-69.133095,High Cut,267.0
44.77507,-68.96948,Hinkley Hill,153.0
44.730907,-68.68003,Hog Hill,206.0
44.621742,-68.66559,Hothole Mountain,98.0
45.428383,-69.21977,Houston Mountain,423.0
44.556183,-69.05448,Houstus Hill,242.0
44.981457,-68.923645,Hudson Hill,111.0
44.872005,-69.49616,Huff Hill,211.0
44.66396,-69.016426,Ide Hill,198.0
44.581184,-69.03476,Irish Hill,196.0
44.646183,-68.75976,Jacob Buck Mountain,215.0
44.883682,-68.72003,Kelley Hill,102.0
44.73368,-68.99254,Kelly Mountain,171.0
44.672295,-68.75365,Kings Mountain,256.0
45.28922,-69.11393,Ladd Hill,196.0
44.85812,-69.34894,Lang Hill,125.0
45.358105,-69.45088,Ledge Hill,235.0
45.319775,-69.20866,Levansaller Hill,221.0
44.85701,-69.29588,Libby Hill,155.0
45.44144,-68.71226,Little Mattamiscontis Mountain,333.0
44.567295,-68.887535,Mack Mountain,172.0
44.96311,-69.496994,Mainstream Mountain,233.0
44.768127,-68.64697,Mann Hill,141.0
45.256996,-69.041985,Maquire Hill,200.0
44.538963,-69.016426,Marden Hill,140.0
44.59285,-69.10115,Mason Hill,227.0
44.578407,-68.67558,Mason Mountain,183.0
45.45311,-68.718925,Mattamiscontis Mountain,380.0
44.54952,-68.787254,McCloud Mountain,101.0
44.600628,-69.02032,McDonald Hill,136.0
44.591187,-68.661415,Mead Mountain,163.0
45.318108,-69.06643,Merrill Hill,225.0
45.284775,-69.10782,Mount Misery,177.0
44.50063,-68.71392,Montgomery Mountain,96.0
44.578407,-68.86753,Mosquito Mountain,173.0
45.25783,-69.10338,Moulton Hill,210.0
44.860893,-69.41533,Negro Hill,130.0
44.901737,-68.71531,Newman Hill,82.0
44.533405,-69.0717,Norton Hill,186.0
44.513405,-69.09893,Oak Hill,258.0
44.577297,-68.99031,Oak Hill,158.0
44.668686,-68.61225,Oak Hill,182.0
44.671764,-68.90893,Oak Hill,113.0
44.951458,-68.65225,Oak Hill,49.0
45.236164,-69.38366,Oak Hill,269.0
44.579243,-68.78837,Mount Olive,61.0
44.64646,-68.72142,Orcutt Mountain,211.0
45.43366,-69.20393,Ore Mountain,364.0
44.665905,-68.84476,Page Hill,114.0
44.891174,-69.36005,Palmer Hill,153.0
44.602295,-69.03476,Parker Hill,162.0
44.64174,-68.9392,Partridge Hill,112.0
44.501465,-68.68503,Patton Hill,109.0
44.66285,-68.64142,Peaked Mountain,258.0
44.702293,-69.07893,Peaked Mountain,351.0
45.29561,-69.07782,Perham Hill,219.0
44.731182,-68.95726,Pickard Hill,119.0
44.76424,-68.51642,Pisgah Mountain,234.0
44.60785,-69.06948,Plummer Hill,187.0
44.509796,-69.143654,Pond Hill,248.0
45.273106,-69.375885,Poverty Mountain,311.0
45.051727,-69.217545,Preble Hill,314.0
44.651184,-68.85254,Punchbowl Hill,75.0
44.550346,-69.344765,Quaker Hill,183.0
44.502575,-69.03615,Quarry Hill,202.0
45.28922,-69.34977,Ragged Mountain,256.0
45.40562,-69.253876,Roaring Brook Mountain,523.0
44.568684,-69.07976,Roberts Hill,160.0
44.54396,-69.04143,Robertson Hill,157.0
44.617016,-69.04893,Robertson Mountain,178.0
45.44505,-69.219215,Roundtop Mountain,408.0
44.901726,-69.48171,Rowell Hill,179.0
44.975613,-69.45727,Saint Albans Mountain,319.0
45.458107,-68.96948,Schoodic Mountain,314.0
45.365883,-68.98976,Searles Hill,238.0
44.559235,-69.47004,Shore Hill,118.0
44.526463,-69.141426,Skyscraper Hill,205.0
44.543964,-68.8942,Smith Hill,96.0
44.65785,-68.94698,Snow Mountain,211.0
45.316162,-68.98949,Stickney Hill,242.0
45.285053,-69.013374,Swett Hill,152.0
44.517017,-69.155876,Taggert Hill,249.0
45.4439,-69.297264,Third Mountain,610.0
44.652847,-69.051155,Thurlow Hill,213.0
44.581463,-68.97198,Town Farm Hill,135.0
45.26533,-69.06059,Town Farm Hill,204.0
44.54841,-68.82392,Mount Tuck,172.0
44.84256,-69.48838,Tuttle Hill,138.0
44.62896,-69.01698,Twombly Mountain,185.0
45.288662,-69.02782,Varney Hill,187.0
44.580627,-68.89587,Mount Waldo,320.0
45.196995,-69.474495,Walker Hill,242.0
45.162556,-69.33643,Watson Hill,206.0
45.25033,-69.10143,Weaver Hill,213.0
44.597572,-69.04254,Webber Hill,123.0
44.63674,-68.65308,Whites Mountain,221.0
44.60041,-69.07136,Wilde Hill,129.0
45.332558,-68.51419,Wilson Hill,167.0
44.777126,-68.54158,Woodchuck Hill,249.0
44.559795,-68.825584,Eustis Mountain,167.0
44.590073,-68.61752,Oak Hill,223.0
45.029224,-69.38366,Fush Hill,191.0
45.21783,-69.16754,Garland Hill,211.0
45.123947,-69.15227,Norton Hill,191.0
45.241722,-68.85781,Paddy Hill,160.0
44.94173,-69.125046,Bragg Hill,151.0
44.942287,-69.12087,Bragg Hill,173.0
44.910343,-69.14671,Clark Hill,159.0
44.94062,-69.109764,Eaton Hill,177.0
44.69035,-69.05226,Frank WEst Mountain,300.0
44.688404,-69.06671,Piper Mountain,318.0
44.920578,-68.66654,Heart Attack Hill,64.0
44.901043,-68.70575,Bangor Hill,94.5
