latitude,longitude,name,elevation
10.513469,-85.80144,Cerro Grande,195.0
11.485899,-85.62644,Loma El Mogote,215.0
11.232902,-85.84917,Cerros Sucios,224.0
11.179802,-85.68018,Cerro Ceilan,374.0
11.288495,-85.84999,Cerros La Cuesta,420.0
11.14168,-85.75154,Lomas de La Leona,238.0
11.358955,-85.9056,Montaña Santa Cornelia,243.0
11.353671,-85.85636,Lomas Santa Rosa,47.0
11.361664,-85.92166,Lomas El Jengibre,226.0
11.396331,-85.95121,Lomas Miramar,214.0
11.411202,-85.8929,Lomas Las Mesas,263.0
11.42376,-85.90002,Lomas Las Mesas,263.0
11.443459,-85.99937,Cerro La Mojosa,469.0
11.443599,-85.89137,Cerros Los Camastros,326.0
11.453865,-86.02749,Cerro Jalteva,297.0
11.453991,-85.98995,Cerro Huastomate,317.0
11.448622,-85.97678,Cerro Taltuza,333.0
11.487191,-86.06434,Cerro El Limón,207.0
11.198385,-85.568115,Cerro Peña Bruja,477.0
11.208436,-85.67349,Cerro La Zopilotera,308.0
11.48373,-85.959785,Loma Los Sánchez,191.0
11.221061,-85.696236,Cerro Carrera Buena,265.0
11.208223,-85.68599,Cerros Los Saltos Guapes,243.0
11.204019,-85.72701,Cerro Fátima,404.0
10.609133,-85.69421,Cerro Pando,117.0
10.582707,-85.67314,Loma Corral,144.0
10.549519,-85.71228,Cerro La Flor,191.0
10.570166,-85.69557,Punta Cacique,104.0
10.531739,-85.74013,Cerros Mojagua,241.0
10.522832,-85.68809,Cerro Ceiba,387.0
10.509478,-85.77239,Cerro Matapalo,403.0
11.000864,-85.54427,Cerro El Hacha,617.0
10.518879,-85.66358,Loma Sabanilla,180.0
10.838186,-85.53181,Loma Cerro Grande,180.0
10.896987,-85.93264,Cerro Punta,127.0
10.900696,-85.92196,Fila Carrizal,182.0
10.872165,-85.89503,Cerro Pelado,123.0
10.828605,-85.79401,Fila La Penca,279.0
10.924519,-85.78425,Loma Higueronal,272.0
10.698393,-85.64942,Cerro Cabuyal,194.0
10.922229,-85.73394,Cerros Murciélago,304.0
10.886208,-85.75724,Cerros Santa Elena,346.0
10.520036,-85.72798,Cerros Peine de Mico,296.0
10.523212,-85.71862,Lomas Alcornoque,275.0
10.527151,-85.715965,Cerro Pelón,300.0
10.502801,-85.643715,Cerro Colorado,55.0
11.358292,-85.829636,Loma de La Burra,112.0
11.165587,-85.671524,Cerro La Moca,505.0
11.255926,-85.7506,Cerro La Campana,374.0
11.298324,-85.68995,Caña Gordo,54.0
11.167872,-85.768814,Cordillera Cerro Grande,294.0
11.24119,-85.850655,Cerros Sucios,188.0
11.2380085,-85.84755,Cerros Sucios,208.0
