latitude,longitude,name,elevation
29.30613,-9.212416,أفا نتمسولت,1050.0
29.313025,-9.210078,أفا أودرار العين,1260.0
29.32403,-9.224548,قمة جبل إكوصدر,1305.0
29.313574,-9.219997,أفا نتكاديرت,1240.0
29.32009,-9.214646,أفا أوخضير,1190.0
29.30445,-9.223994,أفا نتكدمين,1310.0
