latitude,longitude,name,elevation
43.241283,-3.5810583,Mortillano,1410.9
43.097332,-4.0206747,Pico Jano,1289.0
43.091877,-4.3455334,Cuetu de la Concilla,1900.0
43.047127,-4.289701,Liguardi,1967.0
43.047947,-4.3232965,Cordel,2061.0
43.053516,-4.33756,Peña Iján,2085.0
43.37475,-3.6669228,Pico San Gregorio,126.0
43.384193,-3.750917,Pico El Castillo,263.0
42.889194,-3.9243462,Peña Severa,916.0
43.17969,-3.9766781,Espina del Gallego,965.0
43.325775,-3.6231782,La Ruela,531.0
43.323456,-3.6257446,Alto del Pozo,502.0
43.308945,-3.6822329,Peñal de Brenas,653.0
43.302605,-3.6576736,Cotero la Alta,701.0
43.300167,-3.6758041,La Garma,705.0
43.353264,-3.6938612,La Mortera,239.0
43.33378,-3.697829,Peña Redonda,290.0
43.338814,-3.7085824,Lamadrid,205.0
43.337948,-3.7142036,Peñarada,292.0
43.336937,-3.7111435,El Castillo,263.0
43.31555,-3.6851428,Alto de los Escajos,655.0
43.333508,-3.732701,Cotillamón,399.0
43.342068,-3.7076604,Cutitán,175.0
43.3257,-3.7282822,Pico Levante,415.0
43.330822,-3.7123797,Peña Coba,462.0
43.32592,-3.7194164,El Macío,325.0
43.319653,-3.7037668,Peña del Chiflo,413.0
43.32271,-3.7044096,El Canto Partido,366.0
43.32769,-3.7084293,Morro del Escajal,373.0
43.327602,-3.6966474,El Cumbrío,367.0
43.340122,-3.7122724,Cotorruco de la Higuera,166.0
43.329838,-3.731651,Ortigales,432.0
43.335487,-3.7134745,Montecavado,265.0
43.335857,-3.7165065,Salto del Cabrito,275.0
43.334347,-3.71851,Cuerdavilloso,340.0
43.332016,-3.7206876,Peña Milanera,405.0
43.330578,-3.7173223,Peña del Pozón,464.0
43.33456,-3.7055883,La Gatera,231.0
43.30837,-3.7410688,Peña Pelada,708.0
43.309868,-3.729995,El Castro,624.0
43.31122,-3.7245762,Peña Anconera,575.0
43.309776,-3.7354226,El Brezal,556.0
43.34929,-3.6712203,La Mazuca,287.0
43.316784,-3.6319733,El Cueto,554.0
43.303127,-3.692325,La Mota Grande,644.0
43.306408,-3.6972232,Peña El Campanario,573.0
43.312374,-3.7130158,Peña La Berzosa,459.0
43.23835,-3.6609154,Porracolina,1414.0
42.661697,-4.144511,Peña Amaya,1369.0
43.479633,-3.5558286,Monte Cincho,249.0
43.32844,-3.723727,Peña Redonda,434.0
43.327637,-3.7201562,Pico del Cabalio de Tarnio,432.0
43.04751,-4.377344,Pico Boveda,2067.0
43.048527,-4.389473,Pico Cornón,2125.0
43.038,-4.404197,Pico de los Tres Mares,2171.0
42.966286,-4.3000274,Peña Rubia,1937.0
43.02694,-4.3909135,El Cuchillón,2174.0
43.030514,-4.3940506,Las Hoyas,2174.0
43.109753,-4.358324,Cueto de los Escajos,1517.0
43.30393,-4.0135007,Pico de La Capía,606.0
43.15983,-3.6938066,Picón de los Lastreros,1406.0
43.16615,-3.7011144,El Coterón,1268.0
43.183857,-3.7147782,La Zamina,1238.0
43.193558,-3.714976,Picón de la Vayorga Honda,1139.0
43.196705,-3.7198405,Cerro Crespo,1008.0
43.199802,-3.7224727,Alto del Cerro Crespo,1018.0
43.203674,-3.7289715,Coterotejo,1051.0
43.191505,-4.186854,Pico Tordías,968.0
43.30307,-3.6704876,Las Piqueras,692.0
43.26118,-3.6873665,Alto del Tejuelo,938.0
43.246754,-3.6562846,Porra de las Hormigas,1223.0
43.292274,-3.6418188,Alto de Linares,782.0
43.295055,-3.5956545,Piluca,675.0
43.27215,-3.6824358,Alto de Bustablao,715.0
43.292484,-3.6811724,La Mesa,701.0
43.261982,-3.6918101,Picones de Castrillos,928.0
43.237747,-4.0722,Pico Gedo,593.0
43.241238,-4.1078568,Garita Collado,699.0
43.25018,-4.133724,Campo La Cruz,652.0
43.358875,-3.7071972,El Coterón,138.0
43.36254,-3.710205,Sierra de Navajeda,132.0
43.296246,-3.7884452,Pico Pindio,603.0
43.27943,-3.7431855,Peña Herrera,971.0
43.28464,-3.7409215,Peña de los Lobos,917.0
43.28821,-3.747643,Las Enguinzas,964.0
43.298912,-3.753818,Peña de la Maza,705.0
43.30078,-3.737878,Castrejón,758.0
43.29632,-3.7336447,Castroliva,682.0
43.439896,-3.9445,Monte Picota,240.0
43.4473,-3.9419866,Monte Tolio,234.0
43.197712,-4.121617,Pico del Cuervo,877.0
43.467087,-3.502633,Brusco,237.0
43.180164,-3.6493425,Picón del Fraile,1625.0
43.181896,-3.6648571,Veinte,1507.0
43.198105,-3.6678813,Pizarras,1472.0
43.21685,-3.640635,Colina,1441.0
43.228973,-3.65958,Madera Cortada,1355.0
43.221375,-3.6585672,El Senderón,1333.0
43.229176,-3.672503,El Mazo,972.0
43.221268,-3.6992877,La Maza,998.0
43.234253,-3.682475,Las Amuescas,1003.0
43.228878,-3.6206498,Cerrilla,1066.0
43.217003,-3.620456,Saco,1196.0
43.214535,-3.6300018,Mesón de Saco,1336.0
43.20733,-3.6649451,Mortero,1168.0
43.155773,-3.6781619,Torcaverosa,1544.0
43.157745,-3.6808207,Pico de la Miel Occidental,1512.0
43.158146,-3.6873868,La Mota de Cucolobrero,1408.0
43.177216,-3.7052276,Pico del Haya,1265.0
43.219707,-3.7316976,El Caracol,898.0
43.222107,-3.726015,El Mojón,856.0
42.8656,-4.116648,Peña Castillo,1239.0
42.85719,-4.125145,Peña Mora,1234.0
42.861767,-4.1230426,Peña Hoyales,1221.0
43.355198,-3.7012205,El Cerro,148.0
43.352913,-3.668007,Cocino de la Barca,199.0
43.35762,-3.6758733,La Mortera,132.0
43.36817,-3.7074153,La Maza,145.0
43.36381,-3.6940844,El Cueto,129.0
43.365593,-3.7202697,San Vicente,145.0
43.091427,-4.178694,Alto Abedules,1403.9
42.96094,-4.0144706,Cabañas de Tomasuco,1082.5
43.274952,-4.2712903,Canto Redondo,675.2
43.031113,-4.0414853,Fuente del Moro,1252.8
43.045563,-4.4321394,Peña Labra,2028.7
42.90223,-4.160215,Otero II,1183.0
43.37606,-3.9188473,Obeña,281.5
43.14612,-4.089199,Navajos,1064.0
42.929485,-3.8588946,El Castro,1220.2
42.96035,-4.1047792,Cotio,1162.6
43.44956,-3.8586116,Peña Castillo,140.0
43.105206,-3.8701134,Coto Alisas,1022.8
43.145847,-3.6818998,Castro Valnera,1718.0
43.203682,-3.728943,Coterotejo,1051.3
43.04674,-4.0025053,Otero,1250.6
43.085648,-3.7570407,El Cotero,1500.9
43.00867,-3.7153432,Dulla,1143.1
43.044292,-3.5317662,Bedón,1091.5
42.589195,-3.9781196,San Miguel,1023.7
42.993343,-3.5351577,Fresnedo,862.1
42.966743,-4.3654165,Valdecebollas,2142.7
43.124813,-3.5298889,Alto del Caballo,1493.2
43.00445,-3.611425,Pantarra,916.8
42.943825,-3.663767,Escaño,1108.0
42.85987,-3.536947,Peña Corva,1333.0
43.00865,-3.7150729,Cerro de la Muela,1151.0
42.872147,-3.7151802,Alto de los Tornos,724.0
42.917088,-3.7611945,Alto del Alguacil,901.0
42.855225,-3.631338,Alto de San Cristóbal,1092.0
42.767097,-3.6723597,Peña Cabezada,936.0
43.349792,-3.6504729,Alto del Portillón,429.0
43.211605,-3.6540794,Carrío,1424.0
43.33358,-3.6902184,La Muela,378.0
43.209717,-3.691125,Picones de Calleja Albira,1027.0
43.252995,-3.619844,Peña Lavalle,1035.0
43.215103,-3.6946414,Cueto Cabrones,1026.0
43.047626,-4.189731,Pericuetos,1361.0
43.34478,-3.6336775,Alto de La Collada,418.0
43.06917,-3.9290552,Castro la Arena,1246.0
42.98834,-4.217373,Monte Mezuz,1201.0
43.026596,-4.1657495,Otero,1117.0
43.254055,-3.6753156,La Muela,1034.0
43.048107,-4.160767,Pico Ropero,1492.0
43.379078,-3.7786167,Pico Llen,566.0
43.319813,-3.6013467,El Naso,505.0
42.817028,-3.8864975,Peña Camesía,1161.0
43.340893,-3.632002,El Mazo,369.0
43.34983,-3.6849272,Pico San Juan,277.0
43.25072,-4.1922092,Cotero Lobo,879.0
43.33631,-3.5281558,Alto de Fuente Pico,385.0
43.381275,-3.6983771,Pico Vizmaya,248.0
43.339077,-3.626413,Mazo de la Gatuna,378.0
43.095634,-4.484564,Robal de la Cruz,1300.0
43.331436,-3.7344017,Marimón,403.0
43.29809,-3.5545323,Cotorro,520.0
43.344902,-3.64927,El Portillón,369.0
42.92955,-4.390492,El Portillo,1333.0
43.02606,-4.4889216,Peña Baila,1448.0
42.737545,-4.3425875,Alto de las Calles,1157.0
42.892246,-4.331477,Montemilagro,1365.0
43.02307,-4.452266,Peña Abismo,1717.0
43.019424,-4.4630737,Alto de Pozarión,1541.0
42.78498,-4.1149287,Alto del Ahedo,1214.0
42.8226,-4.465011,Alto del Matorral,1252.0
42.755127,-4.3462462,Peña Miján,1095.0
43.045536,-3.5814936,Peña Caballera - Citorca,1037.0
42.65101,-3.9272196,Alto de Hoyos,1026.0
43.07813,-3.6946096,Pico Polluelo,1366.0
42.876354,-3.6072414,Pico Valdeabuz,852.0
42.706753,-3.5752137,Alto del Cuadro,1035.0
42.856102,-3.579494,Pico de las Labradas,938.0
42.939823,-3.7977204,Alto de las Matas,1028.0
42.815323,-3.618254,Alto de la Mazorra,1005.0
42.93488,-3.6139834,Alto de la Cavadilla,869.0
43.018143,-3.5564575,Pico del Gavilán,838.0
42.741817,-3.663599,Alto del Cerro,1143.0
42.95142,-3.6731057,Coterejón,1092.0
42.662518,-4.1551137,Alto del Barrancón,1136.0
42.85623,-3.6822736,Pico de Casares,1006.0
42.97678,-3.635019,Alto de Zozana,812.0
43.090675,-3.695198,Nevero del Poyuelo,1514.0
42.698708,-4.2165747,Peña Mesa,1175.0
42.93656,-3.6816623,Alto de la Nevera,1026.0
42.722233,-3.5756311,Alto del Corvellar,1048.0
42.978455,-3.7561524,Cerro de las Cruces,938.0
42.74609,-3.6190145,Alto del Montón,1027.0
42.92921,-3.8185053,Pico del Cueto,1164.0
42.725258,-3.6389143,Alto de la Lata,1134.0
42.878105,-3.6721919,Cerro de Porterín,1053.0
42.872574,-4.4927855,Peña la Artesa,1062.0
43.342358,-3.9049034,Los Pandos,274.0
42.966503,-4.409943,La Verdiana,1766.0
43.226738,-4.0543466,Alto del Cueto Moroso,605.0
42.924,-4.310502,Cotero Águila,1412.0
43.222267,-3.5515087,Peña del Mazo Grande,1199.0
42.871002,-4.3916035,Peñas Albillas,1157.0
43.25334,-3.5101075,Mazo del Calero,427.0
43.320057,-3.5756607,La Colina,593.0
42.86921,-4.4161263,Alto de Costanas,1105.0
42.64054,-4.3424315,El Gurugú,953.0
42.974766,-4.4244676,Peña del Gato,1629.0
42.90407,-4.2584424,Peña Cocoto,1513.0
42.970642,-4.4013906,Peña Viarce,1782.0
43.124092,-4.383068,Cuetu La Jaya,1311.0
42.927868,-4.337524,Cueto Morales,1662.0
43.25642,-3.517969,Porrón de la Cruz,574.0
42.89936,-4.4981785,Peñas Negras,1295.0
42.98742,-4.4568424,Alto de la Requejada,1231.0
42.888252,-4.3011813,Peña Tabaco,1061.0
43.331436,-3.920367,Cotero Somero,269.0
42.88399,-4.0035625,Bigüenzo,1289.0
42.969166,-4.3953447,Peña de los Redondos,1875.0
42.96017,-4.399652,Peña del Cuervo,1666.0
43.226017,-3.559501,Peña del Mazo Chico,1126.0
42.896988,-4.367296,Peñalada,1272.0
43.272564,-4.341816,Cotero Castillo,892.0
43.04888,-4.358096,Cueto de la Horcada,2111.0
42.86735,-4.4452224,Alto de la Cuesta,1087.0
42.97483,-4.1341076,Rasa,1056.0
42.878304,-4.2449875,Terena,1338.0
42.9584,-4.377446,Cueto de Comunales,2089.0
43.293392,-3.509337,Picón Rubrillo,740.0
43.037956,-4.4761863,Cueto Moncó,1471.0
42.8856,-4.387095,Alto de Goina,1133.0
43.33682,-4.3688965,Pico Sarria,332.0
42.965252,-4.3926487,Peña Tejedo,1856.0
43.067986,-4.199934,Cueto de Fuentes,1383.0
42.87337,-4.2514563,Alto de San Pedro,1194.0
42.96482,-4.418821,Peña Cebollera,1583.0
43.102364,-4.0004163,Pico Ureño,1142.0
42.91215,-4.2680216,Alto del Pical,1492.0
43.23812,-4.045568,Peña el Moro,378.0
42.95973,-4.415963,Peña del Águila,1582.0
43.25717,-3.5092275,Alto Ancillo,514.0
43.1143,-4.2252975,Alto de los Cabreros,1241.0
42.908443,-4.4580846,Peña Corco,1342.0
43.00556,-4.374714,Cueto Mañín,2122.0
42.869724,-4.3889985,Peñas Negras,1181.0
42.72052,-4.215572,Pico de Fuentefría,1065.0
42.89644,-4.25122,Alto de Fuente Tejeros,1391.0
43.283344,-3.892076,El Caballar,656.0
42.959953,-4.3896785,Peña Briame,1829.0
43.281498,-3.7428968,La Esquenta,978.0
42.891724,-4.3635693,Peña Albilla,1184.0
42.966496,-4.480143,Peñasendino,1232.0
43.266342,-3.557781,Cutios,696.0
42.886047,-4.363557,Peña Ciella,1187.0
42.89116,-4.3445215,Peña Urrillas,1329.0
42.978035,-4.431317,Peña Bermeja,1584.0
42.86891,-4.212424,Peña Tabla,1114.0
42.966335,-4.2814193,Peñas Majaducas,1951.0
43.259914,-3.512232,Porrón de las Colinas,508.0
42.953064,-4.2998734,Alto Gorrobao,1602.0
42.88256,-4.35855,Peña Mayor,1213.0
42.953636,-4.393774,Peña las Zorras,1659.0
43.12537,-3.7044365,Pico del Rostro,1236.0
42.91149,-4.3241024,Camportillo,1482.0
42.97179,-4.424665,Peña del Sol,1708.0
43.255196,-3.5043447,Mazo del Currucuco,448.0
42.588,-4.2979655,El Castro,918.0
42.889385,-4.322697,Peña Corba,1252.0
42.97739,-4.480153,Peña Tremaya,1441.0
42.87099,-4.386254,Peña Redonda,1171.0
43.115852,-4.3328066,Pico Fonfria,1371.0
42.874634,-4.40878,Alto de las Vallejadas,1127.0
43.166164,-3.953956,Cildá,1065.0
43.07771,-3.9587195,Mediajo Frío,1328.0
43.06942,-3.9710393,El Mojón,1171.0
43.0558,-3.9096868,Peñas Gordas,1211.0
43.246254,-4.1802793,Alto del Toral,899.0
43.109062,-4.232397,Tambuey,1252.0
43.10232,-3.7085216,Castro del Horno Norte,1412.0
43.099827,-3.7058873,Castro del Horno Sur,1406.0
43.319244,-3.5617957,Muela,802.0
43.12257,-3.9858935,Peña Arceral,896.0
43.143204,-3.6839032,Alto de los Dojos,1693.0
43.132706,-3.6881747,La Capía,1496.0
43.15578,-3.6707642,Alto de la Piluca,1412.0
43.258247,-3.653253,Collado de la Espina,923.0
43.243416,-4.263947,Baucíu,559.5
42.741062,-3.8716273,Corral Nuevo,1084.0
43.093422,-3.6189923,Carrascosa,1359.0
43.16981,-3.6140537,Lusa,1574.0
42.92411,-3.793512,Cielma,1194.0
43.0019,-3.7881675,Maza,1165.0
42.76454,-3.7043574,Peña Otero,1258.0
42.825188,-3.7440493,La Urría,1002.0
42.864502,-3.7861495,Escampado,973.0
42.87098,-3.639451,Canales,1257.0
42.923542,-3.6075227,San Miguel,889.0
43.063774,-3.831936,Otero Mayor,1200.0
42.748726,-3.5541525,Los Castillos,1141.0
42.71449,-4.003508,Adrero I,1047.0
42.781616,-4.1023207,Valcabado,1224.0
42.62822,-3.9369435,Cantón,1093.0
42.69735,-3.7556067,Cotorra de Barrios,999.0
42.95308,-4.471128,Oterillo Tercero,1383.0
42.59,-3.6559181,Castrejón,1036.3
43.250225,-4.2688804,Picu la Cuchilla,415.3
43.254517,-4.2572007,Llendelazepa,335.8
42.768936,-4.4649596,Alto de La Cubilla,1081.0
42.832912,-4.478689,Peña Umoma,1271.0
42.787106,-4.4846363,Alto del Silo,1077.0
43.176453,-3.6568675,Alto de La Grajera,1594.0
43.154778,-3.660001,Peñas del Estremecín,1389.0
43.16267,-3.6072388,El Copete de Tramasquera,1454.0
43.233852,-3.5648558,Pico Tejes,1189.0
43.233387,-3.5521398,Mazo Helguera,1159.0
43.24046,-3.5210202,Cotélliz,1123.0
43.237247,-3.502182,Pico Hoyufresnu,1056.0
43.254402,-3.5760198,Peña Rocías,1342.0
43.310856,-3.55611,Mullir,841.0
43.16173,-3.6668591,Alto de Las Corvas,1563.0
43.13676,-3.6748965,Cubada Grande,1605.0
43.101406,-3.750392,Marruya,1392.0
43.10839,-3.7195,Motas del Pardo,1415.0
43.10325,-3.698344,Castro de la Lobuca,1276.0
43.09213,-3.6488621,Zurruzuela,1377.0
43.129944,-3.6580274,La Horadada,1415.0
43.168365,-3.659694,Pico de la Brena,1392.0
43.139908,-3.6599784,Cubada Pequeña,1377.0
43.137714,-3.646577,Curro,1333.0
43.08265,-3.5968084,Domingo Pájaro,1077.0
43.0875,-3.5753765,Costal - Larbosa,1100.0
43.09975,-3.5967777,Bustulama,1279.0
43.11175,-3.632378,Crespas,1427.0
43.110023,-3.6690273,Peña Enal,1265.0
43.14868,-3.5577261,Alto de Tiñones,1454.0
43.1539,-3.5889647,La Pedraza,1332.0
43.131855,-3.5474794,Picón Blanco,1529.0
43.15779,-3.6676848,Pico de la Miel,1563.0
43.04601,-3.5523365,Picón,1051.0
43.044678,-3.6154218,Peña Oricedo,983.0
43.01391,-3.70964,El Paño,1139.0
43.042828,-3.6471274,Cornejo,954.0
43.02962,-3.70871,La Pelada,1027.0
43.015327,-3.678012,Peñota,983.0
43.024673,-3.642604,La Mesa,944.0
43.022892,-3.6076071,Cueto,826.0
43.059944,-3.7671406,Cueto Cervera,1208.0
43.051193,-3.7653863,Cotero Atalaya,1145.0
42.51118,-3.701339,Conchuelas,1017.0
42.50249,-3.7157376,Monteacedo,1036.0
42.771484,-3.7665565,Castro Siero,843.0
42.761654,-3.7779603,Pedro Campo,1062.0
42.79566,-3.7512524,Pico del Águila,1017.0
42.840317,-3.7483654,La Rad,956.0
42.828384,-3.7538984,El Cotorro,975.0
42.833797,-3.7898772,Castillo de Orbaneja,804.0
42.876373,-3.7468784,Peña Nava,1076.0
42.918037,-3.7730372,Valdericanes,1064.0
42.901295,-3.7558265,La Serna,995.0
43.26061,-4.3222675,Monte Aá,649.0
43.250046,-3.6325057,Mosquiteru,1206.0
43.141083,-4.3969903,Potro Callicedo,1140.0
42.62638,-3.7265754,Alto de la Madalena,1003.0
42.636307,-4.024498,Ulaña,1226.0
43.301582,-4.063963,Jerrapiel,399.0
43.175434,-3.6308577,Alto del Cuadro,1332.0
43.14346,-3.505057,Pinión,1171.0
43.098503,-4.068388,Bustio,856.0
43.044212,-3.866776,La Cruz,1025.0
43.131855,-4.0170097,Cueto de Pando,538.0
43.04992,-4.347239,Cuencagén,2053.0
43.03697,-4.402958,Tres Mares SE,2149.0
43.0392,-4.408877,Peña Reina,2101.0
43.020878,-4.387889,Monte de Hijar,2092.0
43.01029,-4.3783984,Cotomañinos,2144.0
42.972786,-4.3476877,Peña Sestil,2065.0
42.904297,-4.1717963,Ornedo,1181.0
43.300217,-4.0157313,Monte Dobra,606.0
42.829704,-4.4495916,El Cadéramo,1327.0
43.37092,-3.81535,Peñas Blancas,455.0
43.3708,-3.80381,Peña Mora,456.0
43.281788,-3.8887706,El Caballar,660.0
43.325138,-3.8997092,Peña del Horno,317.0
43.32489,-3.87219,Carcobillo,305.0
43.280525,-3.7682388,Peña El Acebo,821.0
43.32826,-3.945825,Carceña,344.0
43.349266,-3.8447247,Pico del Espino,229.0
43.367226,-3.8379843,Coto Mayor,311.0
43.46458,-3.5155928,Alto de Copillo,124.0
43.4561,-3.5063124,La Dehesa,119.0
43.455425,-3.5118725,El Cueto,133.0
43.44714,-3.543131,Baranda,203.3
43.437756,-3.5343897,Losorrio / La Pica,197.9
43.452522,-3.524658,Alto del Portillo,83.0
43.46394,-3.5713158,El Molino,214.5
43.474197,-3.541106,El Cueto,93.0
43.32936,-3.7185826,Peña Coba,463.0
42.57805,-3.8686147,Horquilla,1113.0
42.57604,-3.85076,El Perul,1158.0
42.618614,-3.8463874,Castillo de Úrbel,1012.0
42.633835,-3.8728044,La Peña,1012.0
42.67097,-3.9188552,La Horca,1057.0
42.689186,-4.0374475,La Rasa,1161.0
42.696075,-4.0579996,La Mesita,1117.0
42.70128,-4.058283,Cazón,1091.0
42.7055,-4.133424,Peña Lora,1198.0
42.690086,-4.1745195,Peña Mesa,1243.0
42.69255,-4.2172146,Cruz de Valdeverano,1182.0
42.64984,-4.240231,Redondilla,1154.0
42.666447,-4.206601,Albacastro,1340.0
42.6514,-4.167434,Castillo,1309.0
42.66655,-4.1673837,Peña Castro,1370.0
42.640938,-4.0594645,Castillo,1131.0
42.661293,-4.078726,Royo Cinto,1171.0
42.817078,-3.682839,Mesa,1114.0
42.829582,-3.6411474,Peña Alta de Dobro,1267.0
42.90618,-3.6652505,El Cueto,899.0
42.92194,-3.6365764,El Canto,1096.0
42.862843,-3.7077088,Peña Redonda,699.0
42.865936,-3.7158659,Peña Corderiza,936.0
42.914913,-3.8492427,Castro Barrio,1193.0
42.94107,-3.8413043,Los Covachos,1172.0
42.96464,-3.8860245,Pico Nava,1026.0
42.95488,-3.9238496,El Otero,1022.0
43.06166,-3.8158228,La Zarzosa,1205.0
43.071644,-3.7920036,Valverde,1294.0
43.083115,-3.8012302,El Cuito,1263.0
43.080803,-3.777208,Cantos Calientes,1429.0
43.126167,-3.6752026,La Maza,1338.0
43.126266,-3.6949968,Peña del Cuervo,1331.0
43.17336,-3.625488,Becerril,1454.0
43.171776,-3.618127,Bustarejo,1516.0
43.14967,-3.6035619,Imunía,1520.0
43.141304,-3.6117823,Mazagrande,1373.0
43.141956,-3.6194005,Peña Palombar,1254.0
43.409554,-3.9139953,Alto de la Gigüela,198.0
43.087418,-4.3668423,Helguera,1749.0
43.015022,-3.685539,Peñota Occidental,992.0
43.235027,-3.5047278,Pico de la Tobazona,1039.0
43.293472,-4.428747,Cuetu Hugón,643.0
43.2244,-4.34846,Barculín,887.0
42.796803,-3.736822,Pico Mazo,978.0
42.810368,-3.8900423,Muñata,1181.0
43.38039,-4.4941406,Pico Terreros,223.0
43.152275,-4.47565,El Cornón,2047.0
43.24311,-3.6495597,Alto Pipiones,1343.0
43.14876,-4.467168,Mesa la Juncá,1975.0
43.145935,-4.4619856,Mesa Bexejo,1941.0
42.864754,-3.5446384,Monte Pilas,1244.0
42.920216,-4.063138,Peña Alta,1252.0
42.927254,-3.8096845,Tureña,1177.0
42.93689,-3.8065505,Pico de Gandaría,1078.0
43.053867,-4.1982765,Peña Blanca,1358.0
43.057762,-4.130539,La Muela,1323.0
43.434612,-4.033161,Punta de Marzán,38.0
43.29042,-3.6196566,La Azuela,712.0
43.29643,-3.603098,El Somo,689.0
43.322437,-3.5693114,Colina,593.0
42.816746,-4.4089074,Monte de La Ruya,1214.0
42.991188,-3.80324,El Castillo,959.0
43.02724,-4.4552765,Peña de La Hoz,1537.0
43.007786,-4.477044,Peña Basa,1452.0
43.001816,-4.469917,Lampados,1508.0
42.885963,-4.297745,Peña Rud,1065.0
42.7133,-4.349555,Peña Pico,1181.0
43.082542,-4.119804,Pagüenzo,1126.0
42.90205,-3.8497612,Peña María,1081.0
42.905285,-3.8487024,El Castrillo,1088.0
43.039776,-4.4313064,Peña Orbó,1812.0
43.2413,-3.581252,Mortillano,1411.0
43.23799,-3.583191,Porra de la Rasa,1382.0
42.719357,-3.699869,Alto del Reloj,1043.0
42.69945,-3.6725276,Alto de la Loma,1033.0
43.23655,-3.5324874,Hornijo,1236.0
43.227386,-4.018742,Pico de la Garmia,761.0
43.254204,-4.1529512,Alto de Tranvoscuetos,867.0
43.19882,-4.4534116,Cuetu Cajigu,1023.0
43.234688,-3.6574645,Alto La Mina,1271.0
42.99568,-3.7696784,La Maza,1042.0
43.049236,-3.7211318,Asestiadero,1024.0
43.29357,-4.3964543,Castro Rubio,683.0
43.2777,-4.3911247,Gándara,927.0
43.215187,-4.4995337,La Zarzosa,1048.0
43.24723,-4.321231,El Culero,685.0
43.274807,-4.278496,Braña las Tiesas,706.0
43.27294,-4.325531,Cueto de Herranz García,853.0
43.036644,-3.6689794,Pico del Cuerno,838.0
43.48009,-3.6522138,Alto de Galizano,165.0
43.483444,-3.6437435,Alto de las Minas,163.0
43.470387,-3.6244879,El Cerco,223.0
43.470238,-3.6256907,Moros,219.0
43.021656,-4.1986275,Peña Campana,1024.0
43.02377,-4.1747975,Coto Linares,1141.0
43.0309,-4.1906447,Alto del Hornero,1172.0
43.02566,-4.1812463,Peñas del Abrejón,1131.0
43.02551,-4.196217,Castro Fontibre Argüeso,1059.0
43.009937,-4.1824064,Guariza,1045.0
42.666912,-3.5050733,El Peñon,922.0
42.78465,-4.389661,Peñorada,1129.0
42.75179,-4.3895345,Hornillos,1068.0
42.91694,-4.3424735,Peña Cilda,1618.0
42.951797,-4.383945,Peña Frecha,1803.0
42.943336,-4.3856044,Cuadro Caballero,1714.0
42.9877,-4.416333,Alto Milanillo,1528.0
43.034523,-4.4165382,Peña Mesada,1813.0
43.016495,-4.4397197,Cuello Robledillo,1502.0
43.03756,-4.424138,Peña Horadilla,1792.0
42.978256,-4.4331303,Peña Bermeja,1566.0
42.693363,-3.8100872,Cotorra de Agustín,993.0
42.767925,-3.6587982,Cerra,1066.0
42.771828,-3.6672318,las Majadillas,1069.0
42.682972,-3.5286493,Peña de San Andrés,1124.0
42.676132,-3.5334182,la Mojolla,1175.0
42.6633,-3.525632,Alto del Hundido,1153.0
42.814667,-3.5813375,San Jorge,1076.0
42.81909,-3.5613544,Pico de Laisa,796.0
42.821,-3.569201,Valdurón,793.0
43.09713,-3.6693795,Pico de la Churra,1496.0
42.92382,-4.072869,Somaloma,1284.0
43.222458,-4.3432326,Matamiguela,883.0
42.946926,-3.7389963,Navajo,975.0
42.799942,-4.4776835,Alto de las Hazas,1103.0
42.639385,-3.698102,La Viruela,1064.0
