latitude,longitude,name,elevation
13.366667,-81.36667,Peña Rajada,67.0
13.349887,-81.36816,Pan de Azúcar,343.1
13.33336,-81.38327,Alto Sur,52.3
13.353046,-81.38866,Nan Hill,202.0
13.34059,-81.392296,Loma Alta,104.6
13.324665,-81.38879,South Hill,140.0
13.328197,-81.3875,Lemman Hill,82.5
13.339511,-81.38117,Spanish Saddle,211.9
13.336635,-81.384094,Cashew Hill,116.8
13.357572,-81.37974,Burn Hill,129.2
13.3491125,-81.369286,Patience Hill,321.6
13.3429365,-81.361885,South East Hill,238.1
13.328197,-81.38352,Morris Hill,107.8
13.339891,-81.36871,Dianond Hill,156.1
13.335768,-81.37946,Macca Hill,175.0
13.333716,-81.38466,Dick's Hill,42.7
13.3576565,-81.361755,Taddy's Hill,49.0
13.363029,-81.38781,John Taylor's Hill,95.2
13.368759,-81.36474,Pen's Hill,143.5
13.366454,-81.36341,Mc Bean's Hill,114.3
13.361865,-81.38407,Buenavista Hill,201.7
13.378382,-81.36751,Marshall's Hill,93.1
13.373496,-81.36533,Split Hill,141.9
13.325126,-81.377045,Murray Hill,56.7
13.357021,-81.3539,Iron Wood Hill,78.4
