latitude,longitude,name,elevation
36.854637,119.41999,文山,35.0
36.748585,119.44915,青山,47.0
36.537148,119.18658,灵山,212.6
36.55023,119.19806,葫埠,126.0
36.68425,119.15302,九龙山,51.0
36.82708,118.663956,静山,49.5
