latitude,longitude,name,elevation
62.14562,-158.26878,Haystack Butte,347.0
62.048504,-157.8639,Twin Buttes,604.0
62.335068,-158.27608,Swinging Dome,690.0
61.955822,-158.37495,Juninggulra Mountain,558.0
61.53078,-158.25546,Aghaluk Mountain,889.0
61.76207,-158.09789,Canoe Mountain,620.0
62.124557,-157.99323,Lookout Mountain,656.0
61.536736,-157.7188,Henderson Mountain,692.0
62.085747,-158.46913,DeCourcy Mountain,534.0
62.38644,-157.9644,Chicken Mountain,726.0
