latitude,longitude,name,elevation
30.480608,33.665695,جبل أم متلا,450.0
30.459385,34.059296,جبل طلعة البدن,400.0
30.40661,33.678284,جبل كتيفا,450.0
30.086626,33.556328,جبل أبو كنادو,400.0
30.26639,33.97111,جبل خريم,670.0
30.350332,33.523506,رأس أبو قرون,1050.0
30.30239,33.699226,المنشرة,530.0
30.361801,33.50602,جبل يعلق,950.0
