latitude,longitude,name,elevation
47.572792,-104.94525,Clay Butte,947.0
48.0403,-104.949135,Haystack Butte,734.0
47.809185,-104.76858,Flag Butte,835.0
48.446968,-105.47805,Bears Nest,810.0
48.419743,-105.33554,Windy Butte,773.0
48.13641,-104.961914,Twomile Hill,616.0
47.732517,-104.55968,Three Buttes,830.0
