latitude,longitude,name,elevation
29.67665,-8.912384,Adrar Mqorn,2344.0
29.779245,-8.969731,Lion's Head ⴰⴳⴰⵢⵓ ⵏ ⵉⴼⵉⵙ رأس الأسد,1750.0
29.603485,-8.935945,Adrar Iguer,2030.0
29.79502,-9.034886,Jebel L'Kest,2359.0
29.602533,-9.006025,Tighawn,1600.0
29.68088,-8.814384,Twin Peaks,1850.0
29.886189,-8.669641,Château قلعة,1850.0
