latitude,longitude,name,elevation
46.781044,-90.91241,Mount Ashwabay,400.0
46.71605,-91.04963,Mount Valhalla,412.0
47.193188,-91.38382,Day Hill,258.0
47.376564,-91.18808,Marshall Mountain,428.0
47.374905,-91.193726,Mystical Mountain,470.0
