latitude,longitude,name,elevation
42.78199,25.97283,Чумерна,1536.0
42.630016,25.501886,Окуша,614.0
42.50288,25.72749,Рошава Могила,536.0
42.52889,25.72826,Черньовец,817.0
42.52889,25.70904,Тима,718.0
42.511497,25.62933,вр. Бетера,809.0
42.50979,25.76341,Катъртепе,515.0
42.55232,25.72779,Грашка Могила,773.0
42.55528,25.68827,Горяла Могила,657.0
42.52962,25.59334,Дренака,469.0
42.57232,25.67432,Фуранджик,369.0
42.52005,25.52759,Виден,603.0
42.50915,25.53506,Могилките,615.0
42.53504,25.620434,Куртка,463.0
42.52582,25.630932,Каминката,564.0
42.504215,25.587023,Аладжийски рид,530.0
42.51688,25.58024,Кабите,517.0
42.525352,25.677593,Малък Чукар,662.0
42.531155,25.658798,Черешата,578.0
42.747086,26.321661,Българка,1180.5
42.631195,25.63587,Черквата,735.0
42.64079,25.72298,Здравеца,834.0
42.639565,25.537352,Попък,1200.0
42.644882,25.603373,Малтела,1265.0
42.64434,25.582333,Стефанча,1297.0
42.626007,25.589233,Плочите,931.0
42.663254,25.525629,Сандъкмитепе,1261.0
42.800926,25.543577,Бъзовец,893.0
42.72717,25.726208,Делийски чукар,831.0
42.746056,25.556438,Топчината,1155.0
42.72948,25.699514,Тефеджия,750.0
42.830788,25.729868,Мандрата,830.0
42.751335,25.510529,Вранов връх,1312.0
42.74698,25.65161,Равна поляна,784.0
42.69176,25.510015,Малък купен,1314.0
42.689186,25.702068,Богданов гроб,908.0
42.676464,25.646292,Чукара,784.0
42.809193,25.715412,Еньов чукар,779.0
42.706627,25.58761,Царска могила,1001.0
42.740166,25.616215,Осенков връх,941.0
42.81855,25.633553,Могилите,701.0
42.821365,25.59141,Белковръх,854.0
42.68984,25.607616,Свирчовината,1022.0
42.735916,25.582123,Гръка,924.0
42.791515,25.520609,Стражарски чукар,844.0
42.725628,25.51941,Буруша,1172.0
42.713913,25.504417,Покриша,1160.0
42.804993,25.690577,Вита ела,871.6
42.703938,25.656092,Гурлата,1014.0
42.752697,25.717884,Стефанов чукар,719.0
42.770313,25.56994,Бабата,1006.0
42.7318,25.598026,Бели бук,997.0
42.681522,25.67882,Прогорня,810.0
42.813103,25.524899,Ковачка,810.0
42.82151,25.673561,Дренов връх,867.0
42.723602,25.563185,Могилата,981.0
42.78687,25.582123,Горялска чука,872.3
42.744354,25.502247,Гръбнака,1301.0
42.73972,25.52582,Каменец,1102.0
42.703636,25.509512,Гъбрака,997.0
42.74763,25.627005,Малкия чукар,951.0
42.74143,25.683744,Бабина чука,810.0
42.754345,25.696457,Дряна,762.0
42.77144,25.534267,Каменарната,1071.0
42.686314,25.641132,Еленски чукар,901.0
42.800014,25.718624,Божура,792.0
42.8201,25.70084,Богданов чукар,770.0
42.70543,25.55632,Калаяна,1237.0
42.79178,25.562464,Щръковото,880.0
42.75502,25.63893,Косев камък,708.0
42.74878,25.597658,Черешата,1069.0
42.830654,25.605825,Малък беловръх,737.0
42.70949,25.746273,Меродиц,714.0
42.736797,25.727104,Боев чукар,820.0
42.81069,25.601446,Пролука,791.0
42.68934,25.721668,Кацан,1020.0
42.782627,25.60204,Муржов лом,860.5
42.66704,25.567343,Остра могила,1151.0
42.792683,25.609728,Върбанов чукар,829.0
42.676212,25.515034,Дидикче,1297.0
42.70386,25.667873,Камъка,1024.0
42.757042,25.658098,Златюва чука,895.0
42.78977,25.635632,Клъшка чукара,946.0
42.715244,25.55141,Панагюра,1330.0
42.718197,25.544228,Малкия панагюр,1234.0
42.642864,25.755829,Костов чукар,631.0
42.585785,25.985737,Голямата могила,467.0
42.636154,25.83256,Ямурджа,432.0
42.55901,25.840332,Трите върха,736.0
42.57324,25.970657,Плоската могила,535.0
42.539715,25.837374,Калинева могила,544.0
42.560036,25.870596,Дебела глава,689.0
42.6651,25.941442,Керезтепе,311.0
42.548233,25.77707,Каменна могила,828.0
42.56563,25.760653,Братна могила,564.0
42.60131,25.911112,Гюзтепе,334.0
42.635468,25.924467,Мунито,491.0
42.634415,25.945417,Белия камък,443.0
42.517536,25.880257,Боюкбаир,378.0
42.641586,25.870451,Шумата,307.0
42.586586,25.852709,Сакарджа,352.0
42.56633,25.815931,Чипладник,504.0
42.57953,25.833298,Инжабаир,446.0
42.61443,25.952162,Султанконак,595.0
42.61499,25.897308,Пилчиците,525.0
42.588654,25.915825,Аркаръбаир,358.0
42.617157,25.980171,Табията,471.0
42.53478,25.876125,Пожара,417.0
42.66169,25.763288,Чуката,345.0
42.523094,25.76702,Гьолбаши,728.0
42.571056,25.781425,Лисичите дупки,478.0
42.621925,25.938673,Тилилееца,604.0
42.571552,25.949884,Голям боруклук,536.0
42.604496,25.833477,Мечов камък,336.0
42.61304,25.831339,Брушлука,358.0
42.53054,25.85189,Сакар,459.0
42.560738,25.926937,Куртка,541.0
42.512085,25.839302,Каваклъка,436.0
42.636734,25.81582,Глигарица,341.0
42.556335,25.957424,Табиите,344.0
42.635796,25.96074,Урушка могила,394.0
42.556293,25.818054,Голям гавраил,713.0
42.529663,25.794136,Дурбалъка,593.0
42.55543,25.788069,Клинака,706.0
42.600002,25.860434,Керезлика,385.0
42.617783,25.88623,Тастепе,448.0
42.639935,25.90334,Дзурлийското,387.0
42.52511,25.90393,Гебена,362.0
42.62199,25.963017,Минкова могила,501.0
42.605717,25.94028,Чукара,422.0
42.606377,25.890608,Божура,406.0
42.532627,25.818747,Бобата,606.0
42.66583,26.167067,Бектепе,592.0
42.66346,26.10858,Карталка,470.0
42.596085,26.151989,Куртулмуш,452.0
42.517956,26.243298,Идемир,234.0
42.656834,26.130415,Солука,529.0
42.506554,26.176538,Къшлата,262.0
42.663445,26.223993,Адабаир,506.0
42.6041,26.160416,Башбаир,569.0
42.613453,26.088173,Айгинлика,372.0
42.60239,26.035294,Момчила,343.0
42.561867,26.203491,Карабоба,298.0
42.580276,26.037075,Карабаир,528.0
42.62218,26.08852,Кирмица,277.0
42.581837,26.056862,Градище,555.0
42.609097,26.215765,Ераклии,234.0
42.592007,26.118963,Алабаир,532.0
42.665382,26.185802,Голям Козаревец,555.0
42.5487,26.122747,Бозтепе,233.0
42.55556,26.021643,Голяма могила,371.0
42.546528,26.245808,Тубумбаир,269.0
42.596085,26.022488,Казанлъка,410.0
42.582226,26.09422,Куштепе,483.0
42.58439,26.017818,Голям Ганчо,390.0
42.630882,26.102531,Хисаря,445.0
42.58031,26.0662,Динбаир,519.0
42.64627,26.037758,Тепето,371.0
42.511993,26.140741,Казанджибаир,198.0
42.608437,26.171045,Калето,319.0
42.590378,26.096338,Чаталджа,561.0
42.655,26.164633,Голямата Чука,438.0
42.59208,26.142601,Коджабаир,493.0
42.881573,26.368326,Малкия билерник,815.0
42.723507,26.350632,Голяма чаталка,1053.9
42.816406,26.085445,Саралан,1030.75
42.814404,26.026154,Сливката,1057.0
42.79029,25.91684,Хайдушки чукар,1249.8
42.78893,25.94841,Харамия,1369.8
42.81358,26.046677,Червената пръст,1115.0
42.821148,26.112097,Коджамара,1083.0
42.822315,26.124702,Сакалъка,1093.0
42.822968,26.151478,Сливата,1014.0
42.811398,26.119135,Соуджака,1213.6
42.822453,26.09704,Табите,963.6
42.816936,26.135368,Трите гроба,1105.8
42.850586,26.390114,Еньовска чука,853.5
42.845497,26.381742,Куилото,852.5
42.85135,26.37693,Малкото връхче,908.4
42.858215,26.372486,Осенишки връх,1024.1
42.85121,26.398897,Човешката глава,900.4
42.524918,25.685432,Голям Чукар,645.0
42.52108,25.71966,Голямото кале,639.0
42.52259,25.731236,Острата могила,663.0
42.50961,25.8333,Градището,443.0
42.507404,25.828812,Растова могила,443.0
42.69603,25.596632,Царска могила,1089.0
42.639088,25.652466,Чуката,726.0
42.659477,25.527899,Добрина Могила,1180.0
42.517612,25.676485,Богданова могила,641.0
42.552784,25.765808,Градището,706.0
42.533234,25.747463,Косев Камък,675.0
42.542152,25.75646,Морулей,896.0
42.505543,25.806574,Курново Градище,348.0
42.8568,26.478752,Вида,861.4
42.72553,26.330614,Куминя,716.0
42.732178,26.32434,Кутелка,1084.2
42.842594,26.4833,Романски баир,835.0
42.843414,26.476587,Средния баир,860.0
42.77794,25.780926,Граматиков рът,1137.9
42.773636,25.843124,Каменска могила,1231.4
42.858433,26.413778,Разбойна,1127.9
42.782158,25.766138,Ботурски чукар,1118.0
42.5394,25.757923,Морулей (кота),891.0
42.935898,25.88859,Голямата чука,375.0
43.123238,25.664883,Камъка,412.0
42.89208,26.255318,Калюва,829.0
42.670624,25.839947,Еньова могила,355.0
43.098938,25.648859,TT122,373.0
43.4368,26.478748,Големия Юк,393.4
43.444664,26.445248,Двете могили,372.5
43.445175,26.44468,Двете могили,373.58
43.0989,25.64897,Гарга баир,373.0
42.89486,25.52871,Елова могила,738.0
42.911957,25.617126,Побък,643.0
43.1062,25.644842,Липата,403.0
43.190506,26.488737,Хасърлъка,542.0
42.834045,25.573524,Могилата,568.0
43.12174,25.947475,Романа,426.6
43.136738,26.05055,Корукавак,499.0
43.17828,25.921886,Бяла крава,232.0
42.87254,25.574804,Чукара,655.0
43.14518,26.002193,Арпалъка,403.0
43.23916,25.952625,Чомаковец,256.0
43.13283,25.658808,Крайно бърдо,247.0
42.8199,26.036053,Бяла крава,1057.0
42.834923,26.012878,Кокоша глава,848.0
42.82994,26.03116,Букачев чукар,947.0
42.82891,26.016655,Стръмен дол,880.0
42.855633,25.512589,Грамадата,688.0
42.783474,25.534248,Кръстец,1007.0
42.890194,25.74706,Елова могила,740.0
42.881355,25.734701,Осеневи рът,671.0
42.907364,25.76397,Митириза,523.0
42.862385,25.739508,Главите,779.0
42.848137,25.737534,Чернокоса,910.0
42.861958,25.750322,Ръта,882.0
42.84033,25.738049,Папратски чукар,867.0
43.038094,25.912443,Кандиловец,438.9
43.042347,25.937315,Доурука,349.4
43.016087,25.870935,Могилата,427.1
43.21232,25.869068,Чаталбунар,354.1
43.207188,25.890827,Акер,307.7
43.20666,25.908812,Сааджик,288.0
42.973667,25.630564,Могилищник,309.0
42.94701,25.607908,Кръста,407.0
42.714657,26.363829,Тюлбето,1050.0
42.882496,25.892498,Острец,822.0
42.88127,25.77796,Чуката,827.0
42.935684,25.899668,Малката чука,322.0
42.882557,25.849972,Чукара,806.0
42.844364,25.971851,Чукара,678.0
42.879208,26.072874,Сивритепе,803.0
42.86187,26.0503,Острия камък,863.0
42.844364,25.763884,Сукманов чукар,831.0
42.85183,25.80268,Костадинчов чукар,765.0
42.86316,25.962324,Голямата турла,973.0
42.845905,25.900612,Елева поляна,646.0
42.88522,26.054163,Ятаклъка,602.0
42.844963,26.051159,Боялъка,922.0
42.86874,25.934858,Кукувичи връх,786.0
42.892597,26.011763,Бабичката,610.0
42.816467,26.011763,Тюфешки рът,977.0
42.870197,25.879498,Горунето,634.0
42.83621,25.915718,Грамадата,624.0
42.87406,26.067724,Елата,777.0
42.913715,25.866022,Тикьова могила,409.0
42.82977,25.82139,Христов чукар,702.0
42.874317,25.780191,Турлата,863.0
42.81896,25.882502,Свински гъзер,697.0
42.911224,26.032448,Тозлуджа,591.0
42.863674,25.896149,Рътта,622.0
42.839043,26.000862,Чуклена,693.0
42.915344,25.989618,Джуров връх,370.0
42.908306,25.9231,Чукара,440.0
42.93586,25.920181,Турлата,445.0
42.89406,26.034594,Бейкору,605.0
42.854404,26.006613,Черно бърдо,895.0
42.891914,25.764656,Кръста,543.0
42.902042,25.794868,Градището,395.0
42.823936,25.868168,Смесито,661.0
42.878265,26.08635,Кожух,631.0
42.85157,25.778217,Симов чукар,754.0
42.83123,25.887136,Чукара,785.0
42.889507,25.966873,Байнов чукар,458.0
42.854492,26.029444,Добро бърдо,777.0
42.86522,25.76294,Колунски чукар,910.0
42.847366,25.835209,Големия чукар,689.0
42.872944,25.88602,Нейов рът,647.0
42.928047,25.917349,Пеш чукар,320.0
42.909595,25.886106,Куродил,403.0
42.838097,25.951252,Голямата чука,745.0
42.854492,25.885162,Пролетината,638.0
42.89835,25.934515,Бера,476.0
42.866592,25.973825,Писана грамада,810.0
42.826424,26.086092,Локвата,751.0
42.875004,26.036911,Севриджа,766.0
42.847107,25.794096,Шоймана,805.0
42.861614,25.869198,Купнец,624.0
42.8417,26.077595,Чадърташ,892.0
42.84788,26.065578,Нишанлака,959.0
42.82282,25.80225,Илака,634.0
42.850197,25.83787,Рътта,688.0
42.868996,25.90293,Пешчовец,626.0
42.853374,25.996656,Калча,846.0
42.845222,25.751095,Главите,939.0
42.82994,25.757275,Денин чукар,736.0
42.852173,25.903101,Елов чукар,591.0
42.92281,25.97374,Калето,358.0
42.883587,25.800018,Лома,734.0
42.82711,25.85598,Копнец,852.0
42.8841,26.008673,Чукарките,516.0
42.857063,26.069527,Мандралъка,780.0
42.819126,25.953741,Боровец,948.0
42.83286,25.990562,Зъбера,791.0
42.87569,26.013222,Чуката,614.0
42.825737,26.057768,Осените,1040.0
42.88685,25.923615,Байкуша,468.0
42.86007,25.93769,Атларската турла,830.0
42.863674,26.087294,Чибоклука,672.0
42.840927,26.025066,Мирчов камък,889.0
42.86033,26.001034,Големия чукар,752.0
42.83552,25.981121,Камъка,834.0
42.895348,26.076393,Сърта,731.0
42.84239,26.004553,Газиря,681.0
42.66919,26.302547,Джанкуртуран,357.0
42.68298,26.289953,Урумтарла,538.0
42.69929,26.291761,Бармука,817.0
42.707066,26.308113,Мортун,653.0
42.68093,26.2668,Меча дупка,701.0
42.68022,26.242939,Дългия баир,747.0
42.694878,26.140392,Козуйна,1061.0
42.694435,26.1567,Ярана,997.0
42.760395,26.262253,Дюлките,998.0
42.742275,26.229445,Тарлабаир,640.0
42.734985,26.214735,Малкия Прекер,680.0
42.74031,26.20475,Големия Прекер,680.0
42.781876,26.203556,Малката кория,878.0
42.787262,26.235077,Елата,891.0
42.76895,26.19156,Качулка,1072.0
42.84939,25.55498,Чуката,601.0
42.928047,26.462631,Юрушка стена,820.0
42.639523,25.578674,Кръстилча,1260.0
42.65065,25.57534,Яйцето,1173.0
42.889683,26.480827,Коминчето,929.0
42.875435,26.49353,Раздела,829.0
42.899895,26.494818,Татка,806.0
42.9235,26.48117,Козак,823.0
42.924442,26.498766,Арпалъка,982.0
42.939205,26.46761,Чубрата,569.0
42.93174,26.482286,Арпалъка,682.0
42.92221,26.474648,Плоската могила,825.0
