latitude,longitude,name,elevation
36.48253,-101.046265,Horseshoe Hill,914.0
36.473083,-101.13127,Lightning Point,910.0
36.39503,-101.1346,Mount Helland,894.0
35.844208,-101.39405,Signal Hill,987.0
36.019207,-100.65653,Tandy Mesa,867.0
