latitude,longitude,name,elevation
55.191093,30.166752,Юрʼева Горка,175.0
54.720562,30.01918,Найвышэйшы пункт Аршанскага ўзвышша,263.0
54.56143,29.834259,Казігорка,252.0
54.691387,30.447584,Крутая,178.6
54.70078,30.442055,Гарадзец,184.0
54.845943,30.319305,Пышніца,172.2
54.98511,29.916973,Найвышэйшы пункт Бешанковіцкага раёна,199.3
