latitude,longitude,name,elevation
45.585888,-75.85096,Mont des Cascades,290.0
46.272648,-75.52462,Mont Limoges,410.0
46.41252,-75.52809,Mont Daniel,320.0
46.128716,-75.72538,Montagne du Diable,490.0
46.22354,-76.09619,Mont Morisette,400.0
45.928925,-75.86859,Mont Sainte-Marie,500.0
45.936527,-75.85076,Mont Sainte-Marie,550.0
45.633953,-75.84607,Mont Edelweiss,350.0
45.566174,-76.037926,Blueberry Hill,350.0
45.556843,-75.96735,Mont du McKinstry,420.0
