latitude,longitude,name,elevation
68.88376,26.837925,Otsamo,419.1
68.852646,27.12277,Tuulispäät,360.0
68.72289,27.460533,Sovintovaara,312.0
68.67604,27.231924,Lapiopäät,433.0
68.59888,26.857626,Hammastunturi,532.0
68.796555,27.47776,Akku,323.0
68.50158,27.154585,Tolospää,431.0
68.81682,26.858215,Isovaara,310.0
68.802956,26.762018,Taimenvaara,315.0
68.82886,26.894882,Karipää,400.0
