latitude,longitude,name,elevation
54.721153,-163.16037,Ikatok Peak,599.0
54.931202,-163.31802,Traders Mountain,564.0
54.71183,-163.1935,Dora Peak,550.0
55.190887,-162.78766,Mount Baldy,282.0
54.946083,-163.03491,Kenmore Head,91.0
