latitude,longitude,name,elevation
-25.564232,31.55489,Ndolowane,809.0
-25.955,31.9142,Shoka,799.0
-25.9783,31.8642,Mananga,802.8
-25.515,31.7375,Wilson's Kop,503.8
-25.5292,31.5733,Mjiyanhlubi,824.8
-25.5767,31.6542,One Tree Hill,571.8
-25.5,31.6042,Thorn Hill,798.9
-25.540152,31.59306,KuMahedle,676.0
-25.579447,31.627518,Mhlumi,466.0
-25.62326,31.511723,KwaMakhonjwa,711.0
