latitude,longitude,name,elevation
31.406366,115.367065,棋盘石,1315.0
31.393572,115.38688,康王寨,1337.0
31.36374,115.37593,躲军寨,1039.0
31.350933,115.366135,羊角尖,1166.0
31.323292,115.4577,令牌石,721.0
31.346113,115.470276,黄龙尖,958.0
31.451014,115.38351,九峰尖,1352.0
31.431805,115.37832,大牛山,1176.0
31.404137,115.33136,东峰尖,1257.3
