latitude,longitude,name,elevation
36.77198,39.539333,Harapkarakol Tepesi,438.0
37.317596,40.368755,Mazı Dağı,1220.0
36.963825,39.725933,Pürahmet Tepesi,507.0
37.259197,39.544075,Sırakoç Tepesi,665.0
37.09731,40.085323,Tırtım Tepesi,472.0
36.880535,40.029488,Büyükkepez Tepesi,461.0
36.766094,39.752556,Tıraş Tepesi,442.0
37.45918,40.44603,Kele Dağı,1204.0
37.316193,40.26326,Girkemîn,774.0
37.23604,40.36553,Gredar Tepesi,626.0
37.384323,40.274147,Kral Kızının Tahtı,1174.0
