latitude,longitude,name,elevation
42.52938,74.4326,Электро,4079.0
42.5486,74.410255,Агитаторов,4244.0
42.508522,74.37194,Киргизкой революции,4095.0
42.521843,74.343956,Акпай,4284.0
42.531612,74.41408,Адыгине,4360.0
42.505726,74.388435,Олимпийский,4163.0
42.50258,74.41885,30 лет ВЛКСМ,4217.0
