latitude,longitude,name,elevation
54.898724,23.931503,Parodos kalnas,75.0
54.949055,23.989399,Smertės kalnas,78.0
54.89996,23.900127,Pelėdų kalnas,73.0
55.245033,23.630558,Blandžių Alkos kalnas,2.0
54.630497,24.462128,Gedanonių kalnas,257.4
54.609657,24.469582,Gelionių kalva,257.4
55.087055,24.156954,Kulvos ozas,117.0
54.92198,23.89395,Milikonių kalnas,70.0
54.602085,24.39511,Užukalnio kalnas,217.4
