latitude,longitude,name,elevation
62.92924,-156.0143,Takotna Mountain,976.0
62.860535,-156.23851,Mount Joaquim,611.0
63.01633,-155.50847,Appel Mountain,465.0
62.706436,-155.6974,Vinasale Mountain,513.0
63.189697,-156.07903,Cloudy Mountain,1271.0
63.365406,-155.59146,Page Mountain,1004.0
62.992245,-156.34807,French Joe Mountain,575.0
62.529823,-155.72073,Selatna Mountain,358.0
63.38655,-155.90323,Fossil Mountain,815.0
