latitude,longitude,name,elevation
62.75937,148.03966,Токай,1100.0
63.209293,148.41678,Шумилова,2120.0
62.731876,147.93317,Центральный,1002.0
63.08446,147.52036,Беличан,1531.0
63.278572,148.35963,Салгыр-Хая,2200.0
63.292137,148.29324,пик Черге,2217.0
63.31287,148.41835,Спорная,2144.0
63.394287,148.28656,Седая,2227.0
62.80211,148.12622,Три Богатыря,960.0
63.44566,148.1881,Дмитрия Казанли,2274.0
