latitude,longitude,name,elevation
-16.90794,125.72869,Divide Hill,491.0
-17.0761,126.18088,Fork Hill,306.0
-16.74656,125.93926,Mount Barnett,540.0
-17.46394,126.1451,Mount Brennan,529.0
-17.00078,125.99153,Mount Caroline,371.0
-17.30148,125.87532,Mount Clifton,542.0
-17.36843,125.6108,Mount Gladys,861.0
-17.10293,125.74135,Mount House,547.0
-17.32121,125.55913,Mount Ord,947.0
-17.47879,126.35694,Pinnamutta-Murrawong Hill,544.0
