latitude,longitude,name,elevation
36.256607,103.83385,高岭子,1977.0
36.145996,103.74434,张家沟圪垯,1923.0
36.137363,103.93719,杨洼掌圪垯,1958.0
35.71235,104.017876,马衔山,3670.0
36.021282,103.83611,皋兰山,2129.0
35.76767,104.062996,兴隆山,2400.0
36.456585,104.09973,八扎圪垯,1785.0
