latitude,longitude,name,elevation
52.195515,27.035578,Відушава гара,165.0
52.03589,26.598642,Сігнальная,143.0
52.20749,26.93581,Шадрац,133.4
52.20467,26.983261,Лысая,133.3
52.218815,26.881876,Казёл,135.8
51.559673,26.551638,Відішова,176.0
