latitude,longitude,name,elevation
65.24223,17.74484,Sandberget,551.0
65.47169,18.4368,Storholmsberget,566.0
64.56117,18.253113,Storberget,467.0
64.50339,18.277338,Vägseleberget,465.0
64.53399,18.211428,Baksjöliden,479.0
64.536354,18.17514,Gäddträskliden,510.0
64.666084,17.596783,Alsberget,717.0
64.7495,17.69275,Högberget,620.0
64.73336,17.68401,Råskogberget,567.0
64.50117,18.045622,Granliden,622.0
64.64484,17.807913,Granberget,609.0
64.57493,17.918354,Bjurträskliden,555.0
64.6296,17.822632,Vinlidbrännan,583.0
64.60291,17.793272,Hemberget,590.0
64.57264,17.68103,Lövträskberget,680.0
64.511765,17.6754,Svartliden,684.0
64.54295,17.688663,Norra Spettliden,700.0
64.51506,17.695118,Södra Spettliden,677.0
64.680214,17.63209,Alpliden,545.0
64.59823,18.212606,Kroksjöberget,417.0
64.607994,18.133371,Tallträskliden,494.0
64.61438,18.2428,Näverliden,433.0
64.61331,18.26984,Bottenberget,433.0
64.58167,18.252687,Handskberget,467.0
64.59736,18.432308,Mörtberget,357.0
64.549805,18.215427,Mårdberget,481.0
64.58305,18.417482,Höghobben,476.0
64.50022,17.595207,Käringträskberget,630.0
64.537,18.349848,Abborrtjärnliden,418.0
64.549576,18.33733,Björnberget,404.0
64.58624,18.440111,Tuvträskhobben,432.0
64.59498,17.945576,Svartliden,568.0
64.50233,17.934914,Hälliden,562.0
64.58981,17.83642,Kittelnäset,561.0
64.61885,18.006117,Åliden,489.0
64.55202,17.714746,Kvarnberget,618.0
64.56293,17.756882,Fäbodbrännan,600.0
64.57757,17.740509,Ormberget,607.0
64.58317,17.723503,Ormbergsbrännan,572.0
64.594475,17.717365,Lillberget,554.0
64.63198,17.600628,Haraliden,627.0
64.53941,17.711794,Råberget,653.0
64.59153,17.650862,Rönnliden,659.0
64.61684,17.639921,Stormyrliden,608.0
64.62727,17.57879,Norrviksberget,676.0
64.65903,17.558062,Kullen,616.0
64.509544,17.79249,Tegelnäset,526.0
64.524475,17.838812,Hötjärnliden,560.0
64.59074,17.54683,Oxberget,676.0
64.57104,17.579271,Stenberget,609.0
64.60266,17.56026,Arasjöliden,608.0
64.50963,17.5139,Sylberget,610.0
64.506325,17.541573,Risberget,578.0
64.51819,17.570116,Brännan,542.0
64.55842,17.638792,Lövträskmyrbrännan,551.0
64.51351,18.405563,Gammelhemsliden,353.0
64.51187,18.418715,Lammorklinten,353.0
64.57613,18.487226,Säveberget,351.0
64.55618,18.4736,Hasaliden,331.0
64.56718,18.440792,Hasaliden,390.0
64.55956,18.437746,Vitstarrberget,358.0
64.59195,18.48649,Huldasbacken,296.0
64.58853,18.493866,Göjvliden,309.0
64.592064,18.44491,Oxmyrbrånan,349.0
64.54934,18.350285,Granliden,394.0
64.55463,18.361378,Hästliden,421.0
64.572014,18.352604,Östertjärnliden,420.0
64.57665,18.384512,Kullerrocklet,364.0
64.578804,18.396957,Koxarhobben,422.0
64.57436,18.40599,Granmyrhobben,424.0
64.578415,18.414944,Hästhobben,447.0
64.57442,18.470205,Ättaberget,393.0
64.52415,18.361074,Berguvliden,355.0
64.520935,18.371721,Hömyrliden,329.0
64.504326,18.330776,Noforsberget,357.0
64.582664,18.220387,Vårträskliden,407.0
64.57471,18.289227,Godmyrhobben,364.0
64.581276,18.268398,Björnberget,427.0
64.58457,18.242962,Mossavattenberget,423.0
64.54198,18.25961,Vällingmyrberget,401.0
64.54549,18.255966,Kvarnberget,399.0
64.5618,18.271568,Gorrtallberget,407.0
64.68211,18.478935,Granseleavaberget,319.0
64.670685,18.490381,Bålforsberget,347.0
64.6858,18.368683,Tvåtjärnliden,388.0
64.708145,18.425667,Trollberget,351.0
64.69438,18.352427,Svartliden,373.0
64.68594,18.392149,Tvåtjärnberget,326.0
64.68348,18.340603,Storliden,414.0
64.66831,18.400133,Djuptjärnberget,407.0
64.66113,18.398937,Hästliden,436.0
64.66638,18.434456,Brännselberget,343.0
64.65777,18.422106,Sörbacken,377.0
64.65594,18.35946,Rörmyrberget,480.0
64.6538,18.379137,Mattismyrberget,470.0
64.62434,18.485214,Skovelberget,377.0
64.62656,18.496288,Nymyrliden,332.0
64.65314,18.349922,Östergrenshobben,418.0
64.64629,18.368225,Skavliden,454.0
64.64467,18.409132,Krokmyrliden,424.0
64.63356,18.48598,Högbrännan,320.0
64.63456,18.451792,Skovelliden,409.0
64.666435,18.306217,Fäbodhobben,361.0
64.62065,18.389856,Jakobsbrånan,386.0
64.61462,18.42254,Aspåsliden,382.0
64.60252,18.373741,Gammelbrånan,377.0
64.60771,18.475769,Brånan,321.0
64.60345,18.46015,Obrunnebacken,341.0
64.6253,18.339767,Goliden,390.0
64.59522,18.350306,Granberget,392.0
64.59596,18.334408,Malberget,396.0
64.64391,18.349613,Svartliden,421.0
64.63644,18.253529,Stavträskberget,390.0
64.62889,18.252424,Köjkarhobben,387.0
64.595055,18.258991,Tvåsjöberget,384.0
64.58887,18.26694,Lillsjöberget,417.0
64.605896,18.282848,Kvarnberget,403.0
64.60367,18.259943,Tvåsjöhobben,388.0
64.77034,18.49126,Inre Storberget,373.0
64.720764,18.49597,Vackerliden,403.0
64.7389,18.385847,Skavberget,403.0
64.750206,18.481695,Nyängesbäckberget,331.0
64.73832,18.471731,Ytter-Myrberget,373.0
64.74665,18.41532,Tallberget,402.0
64.73126,18.420988,Högberget,446.0
64.73406,18.407911,Österbergliden,439.0
64.719055,18.464,Lill-Goliden,374.0
64.84803,18.46303,Falåberget,354.0
64.89353,18.400856,Trätarberget,338.0
64.81986,18.428665,Rörmyrberget,315.0
64.885216,18.343315,Sidbergsheden,363.0
64.85408,18.376984,Tväråberget,377.0
64.86779,18.38231,Granliden,399.0
64.54644,18.156456,Svanamyrliden,474.0
64.55618,18.16611,Norrbrännan,475.0
64.527565,18.068434,Rönnliden,518.0
64.57864,18.12491,Risberget,422.0
64.60974,18.15899,Lilliden,412.0
64.64525,18.098364,Brånaliden,473.0
64.6381,18.049004,Torberget,381.0
64.63801,18.034369,Ledstjärnberget,452.0
64.92704,18.319006,Skorvlobben,361.0
64.92997,18.368279,Gurkaberget,357.0
64.79405,18.448954,Östra Mörttjärnberget,336.0
64.803986,18.433516,Granberget,313.0
64.79444,18.424452,Västra Mörttjärnberget,384.0
64.898186,18.244308,Jåkarbrånan,327.0
64.897804,18.276897,Bubacken,336.0
64.87628,18.2731,Västra Tallberget,381.0
64.87604,18.294258,Östra Tallberget,379.0
64.848885,18.30624,Rörmyrberget,346.0
64.84431,18.35383,Lilla Lomtjärnberget,378.0
64.77977,18.392872,Lycksabäcksberget,360.0
64.824585,18.375727,Norra Lomtjärnberget,361.0
64.814384,18.37067,Södra Lomtjärnberget,339.0
64.81025,18.39044,Risberget,328.0
64.74495,18.341513,Älgträskberget,399.0
64.72398,18.371965,Närmstberget,405.0
64.715416,18.367706,Sakrisberget,293.0
64.76987,18.35194,Storträskberget,374.0
64.76105,18.336605,Tjesen,328.0
64.84719,18.147474,Långtjärnberget,395.0
64.84774,18.21954,Kalvberget,369.0
64.826096,18.16766,Stortjärnbacken,351.0
64.84849,18.115326,Ruseleberget,402.0
64.84084,18.132992,Föjsbacken,388.0
64.8371,18.157356,Lilltjärnbacken,391.0
64.82457,18.14599,Vinknösen,354.0
64.85599,18.453014,Stenberget,321.0
64.866974,18.456768,Rentjärnberget,319.0
64.888885,18.45669,Mösupberget,399.0
64.882454,18.48254,Brattmyrberget,360.0
64.91303,18.426065,Naumanberget,399.0
64.91712,18.47279,Bjurforsberget,383.0
64.90383,18.462593,Björkliden,375.0
64.947716,18.4057,Välvkullen,328.0
64.94323,18.358074,Höglandshobben,369.0
64.73977,18.30674,Granträskberget,392.0
64.95205,18.43827,Berguvknabben,340.0
64.95871,18.468075,Stor-Sörmyrliden,424.0
64.96171,18.476946,Kattuggelbacken,393.0
64.97199,18.497768,Middagsberget,397.0
64.73002,18.260227,Lövliden,397.0
64.74003,18.246063,Rusforsmyrberget,371.0
64.73039,18.282543,Styggtjärnberget,401.0
64.803696,18.349504,Västra Flarkberget,345.0
64.79797,18.37137,Östra Flarkberget,323.0
64.78549,18.262432,Bastutjärnliden,388.0
64.75897,18.231962,Täppliden,322.0
64.756516,18.191324,Snottermyrberget,302.0
64.79967,18.175184,Knösen,328.0
64.66193,18.281,Hemberget,368.0
64.66572,18.237396,Lill-Tallberget,395.0
64.70281,18.205824,Aloberget,350.0
64.65887,18.25746,Grundträskberget,382.0
64.69519,18.228426,Samelshobben,413.0
64.68125,18.294931,Skobandshobben,359.0
64.697044,18.25165,Stor-Skorvliden,482.0
64.70378,18.29855,Lill-Skorvliden,412.0
64.69119,18.177515,Kroktjärnheden,339.0
64.65122,18.166975,Trollhobben,360.0
64.67617,18.138544,Rämjaurliden,486.0
64.690285,18.15269,Lillberget,332.0
64.66442,18.12784,Björklundshobben,410.0
64.666466,18.110456,Tallberg,436.0
64.64444,18.121033,Näverliden,431.0
64.71932,18.073553,Tvärträskliden,361.0
64.73083,18.126347,Bergnäset,323.0
64.710724,18.110031,Tallberget,354.0
64.70002,18.075241,Lilltjärnliden,403.0
64.74538,18.1533,Långmyrberget,328.0
64.76073,18.131456,Vinberget,347.0
64.67509,18.056112,Sjutjärnåsen,353.0
64.732475,18.059448,Buviksberget,338.0
64.68302,18.01946,Kvarnberget,393.0
64.68618,18.051544,Stenseleåsen,358.0
64.70392,17.944208,Granliden,446.0
64.720505,17.948755,Granträskliden,458.0
64.720726,17.961264,Örnträskliden,422.0
64.80753,18.04759,Klodden,351.0
64.75521,17.970745,Toskberget,423.0
64.78195,18.029106,Mörtliden,397.0
64.65621,17.814617,Björkliden,558.0
64.62445,17.821644,Hemberget,573.0
64.68843,17.825045,Björkberget,491.0
64.72059,17.865192,Kvarnberget,477.0
64.731384,17.885288,Anders-Olovsliden,476.0
64.74416,17.896156,Svartliden,505.0
64.71273,17.775812,Brånahobben,483.0
64.87335,17.839964,Lisasberget,363.0
64.79136,17.877853,Hemberget,399.0
64.79291,17.92046,Toskberget,382.0
64.76198,17.87292,Lillkullen,488.0
64.76844,17.884687,Rusberget,489.0
64.83049,17.756802,Mejvankilen,483.0
64.73312,17.763092,Björnberget,558.0
64.766556,17.689142,Svartliden,603.0
64.74121,17.704998,Ladumyrberget,586.0
64.73343,17.712484,Granhobben,587.0
64.73019,17.71537,Lövhobben,597.0
64.77587,17.740656,Stenbacken,563.0
64.772865,17.756754,Kroklidkammen,561.0
64.86658,17.826784,Hundsjöberget,423.0
64.86653,17.898489,Pauliden,469.0
64.8482,17.940702,Grötberget,359.0
64.78538,17.757246,Fäbodkullen,537.0
64.87055,17.9817,Mankberget,443.0
64.86221,18.020693,Skåraberget,362.0
64.89565,18.02173,Spänningträskliden,403.0
64.90806,17.940073,Mörtsjöberget,338.0
64.92785,17.911516,Namnlösberget,356.0
64.931885,17.948265,Brånaberget,371.0
64.93728,17.964472,Blåvikshobben,371.0
64.976494,17.916986,Vackerberget,403.0
64.97047,17.944424,Stenberget,362.0
64.97509,17.989092,Granåsen,388.0
64.9863,17.956295,Gardejaurliden,451.0
64.90639,18.035898,Lerbäckberget,373.0
64.91997,18.087004,Storberget,358.0
64.87959,18.098864,Lillberget,319.0
64.88604,18.112482,Barmon,371.0
64.93736,18.10327,Gurtiberget,353.0
64.931,18.11474,Tretjärnmyrberget,356.0
64.92859,18.106445,Spänningsberget,356.0
64.91963,18.175192,Sisnarbrännan,326.0
64.93755,18.138302,Sör-Sikträskberget,375.0
65.00035,17.967466,Svanatjärnliden,479.0
64.9621,18.082605,Kroktjärnberget,347.0
64.95629,18.136992,Sikträskberget,375.0
65.023186,18.039078,Lycksaberget,489.0
64.972,18.114166,Toskberget,422.0
64.6856,17.52509,Västra Sjökullen,609.0
64.68034,17.54431,Östra Sjökullen,628.0
64.684814,17.601418,Bäckmyrkullen,589.0
64.801025,17.86742,Fäladsberget,446.0
64.9719,18.215872,Holmträskberget,390.0
65.02273,18.136225,Vestmansbrånet,407.0
65.006294,18.139915,Lill-Vackerberget,404.0
64.99578,18.146215,Vinberget,395.0
64.98782,18.137041,Besvärlighetsberget,378.0
64.94678,18.23952,Granliden,382.0
64.93171,18.224558,Björkliden,389.0
64.986725,18.241655,Holmberget,374.0
64.99313,18.175013,Trollryggen,371.0
64.99907,18.222492,Björkliden,399.0
65.08103,18.149822,Bjurbäcksliden,468.0
65.01985,18.181883,Nybräntet,413.0
65.03715,18.177618,Getarliden,408.0
65.05246,18.138807,Stora Orrliden,474.0
65.04879,18.11295,Lilla Orrliden,439.0
65.06585,18.018381,Östra Gubbliden,393.0
65.07193,17.997337,Västra Gubbliden,399.0
65.109985,18.0329,Mutterliden,431.0
65.10489,18.033566,Granberget,401.0
65.03299,18.214685,Dammtjärnbrånan,379.0
65.00111,18.25487,Gärdmyrberget,376.0
64.99813,18.277086,Villtjärnbrännan,349.0
65.18023,18.144726,Stor-Rågoberget,449.0
65.22615,18.218225,Ståselliden,390.0
65.20295,18.133215,Bränthöjden,406.0
65.20774,18.242884,Djupselberget,371.0
65.15471,18.28622,Brännliden,416.0
65.147995,18.28886,Näverliden,435.0
65.14815,18.316992,Ekorrberget,411.0
65.110504,18.35604,Granselliden,519.0
65.127815,18.426937,Långträskåsen,396.0
65.19406,18.271132,Vattenledningsliden,367.0
65.17889,18.272346,Mattjokberget,362.0
65.04717,18.4678,Mörkliden,460.0
65.113655,18.484442,Hornträskåsen,413.0
65.03648,18.444284,Nyliden,448.0
65.04295,18.217974,Stenberget,350.0
64.990974,18.363756,Fräkenholmberget,328.0
64.96936,18.438251,Sörträskberget,359.0
64.97769,18.450174,Sörtjärnberget,388.0
64.98281,18.460089,Brattmyrberget,356.0
65.00066,18.438702,Skrabbmyrberget,322.0
65.038826,18.339222,Stormyrliden,410.0
65.08747,18.283386,Middagsberget,433.0
65.08814,18.30671,Lillholmberget,311.0
65.13324,18.134565,Lill-Ottjärnberget,420.0
65.13956,18.11011,Storlandet,418.0
65.11356,18.218403,Fäbodliden,520.0
65.105286,18.206953,Backberget,416.0
65.11824,18.248426,Onyttigavaberget,359.0
65.16067,18.091637,Lill-Rågoberget,427.0
65.01481,18.400167,Björnstenberget,322.0
65.02707,18.367037,Risberget,375.0
65.15559,18.150013,Lillberget,393.0
65.04163,18.402447,Lillberget,276.0
65.07631,18.264582,Jägarliden,432.0
65.07737,18.28735,Klodden,419.0
65.12621,18.209833,Tallberget,421.0
65.137566,18.23015,Tjäderberget,302.0
65.12415,18.192272,Märrabrännberget,431.0
65.03386,18.490192,Trehörningsliden,377.0
65.01069,18.494638,Rörmyrberget,333.0
65.02227,18.456463,Forsmyrberget,352.0
65.04008,18.421183,Björknäsberget,335.0
65.222275,18.144629,Fröjnäsberget,359.0
65.1117,18.142975,Päronberget,390.0
64.53674,17.911514,Fäbodbrånan,465.0
