latitude,longitude,name,elevation
68.96136,87.99563,Моронго,648.0
68.88817,88.46176,Апсекан,696.0
69.20821,88.22686,Ергалах,648.0
69.24672,87.93778,Южный мыс,531.0
69.316536,88.14498,Шмидтиха,514.0
69.27278,88.239815,Гудчиха,683.4
69.297745,88.25272,Большая Барьерная,584.0
69.25514,88.27346,Ольга,218.3
