latitude,longitude,name,elevation
-22.760302,18.675272,Schwarzeck,1459.0
-22.80123,18.642862,Nolteberg,1445.0
-22.539663,18.852905,Langer Forst,1542.0
-22.920212,18.550533,Buschmannskuppe,1378.0
-22.922865,18.730196,Schwarzer Nossob,1369.0
