latitude,longitude,name,elevation
59.55642,147.90718,Медуза,833.0
59.59617,148.12029,Верхняя Мотыклейка,822.0
60.100327,148.11784,Малый Горгычан,602.0
60.021564,148.45883,Большой Горгычан,1044.0
60.069168,148.37163,Хан,1011.0
60.08092,148.4184,Киевский,1134.0
