latitude,longitude,name,elevation
-34.42237,-68.354385,Meseta El Piquillín,769.0
-34.42667,-68.24934,Meseta Los Carboneros,693.0
-34.439655,-68.10656,Meseta de Los Chañares,618.0
-33.71546,-68.39282,Cerro Pencal,938.0
-33.772545,-68.49292,Cerro Overo Negro,1090.0
-33.934746,-68.43259,Loma Ultima Aguada,946.0
