latitude,longitude,name,elevation
12.00045,-86.18243,Cerro Montoso,420.0
12.1275015,-86.32669,Cerro Motastepe,352.0
12.129497,-86.30825,Cerro Tabuya,217.0
12.152698,-86.31757,Cerro Santa Isabel,120.0
12.162769,-86.33307,Cerro San Carlos,206.0
12.174365,-86.33967,Cerro San Carlos,206.0
11.9959,-86.0985,El Coyotepe,350.0
11.990771,-86.10909,La Barranca,290.0
11.922205,-86.07252,Apoyo,620.0
11.694622,-85.87059,Cerro El Menco,147.0
12.241956,-86.31588,Cerro Cuapes,494.0
12.257038,-86.33788,Los Cerros Cuapes,433.0
11.950333,-86.22389,Loma Negra,123.0
12.30254,-85.724495,Cerro de Monte,455.0
12.292563,-85.69148,Loma El Javio,640.0
12.281548,-85.698395,Loma El Tigre,519.0
12.328064,-85.70662,Cerro Monte Fresco,918.0
12.187527,-85.59025,Cerro Agüehüito,291.0
12.198188,-85.58072,Cerro Las Mesetas,426.0
12.168779,-85.64028,Cerro Nambaras,429.0
12.228477,-85.583694,Cerros Espinas Blancas,635.0
12.077116,-85.55553,Cerro El Anisal,264.0
12.078795,-85.62965,Cerro El Mango,327.0
12.1011915,-85.64863,Cerro El Orégano,280.0
12.048647,-85.65488,Cerro Grande,185.0
12.157508,-85.53097,Cerro Grande,260.0
12.163121,-85.609055,Cerro La Eremita,550.0
12.048882,-85.66265,Cerro La Pelona,121.0
12.114123,-85.52259,Cerro La Piedra,623.0
12.070945,-85.60673,Cerro La Uva,209.0
12.099735,-85.61859,Cerro Las Mesas,342.0
12.059721,-85.63679,Cerro Chilimoyal,418.0
12.091642,-85.63442,Cerro San Cristóbal,460.0
12.08105,-85.61841,Cerro El Jícaro,266.0
12.148019,-85.605896,Cerro Jicotepe,638.0
12.027772,-85.5039,Loma La Coyotera,258.0
12.122671,-85.55755,Cerro Cacaguaca,535.0
12.295908,-85.87922,Cerro Barrabás,314.0
12.354428,-85.68352,Cerro Buena Vista,607.0
12.459381,-85.71109,Cerro Colorado,425.0
12.3766985,-85.81371,Cerro Comun,621.0
12.371817,-85.86177,Cerro Coyanchigua,430.0
12.386246,-85.89985,Cerro El Pilón,425.0
12.389645,-85.82424,Cerro La Avellana,530.0
12.326226,-85.746765,Cerro La Flor,677.0
12.35832,-85.70106,Cerro Las Sierras,677.0
12.31572,-85.83562,Cerro Rincón Largo,210.0
12.381389,-85.832245,Cerro San Bartolo,550.0
12.258368,-85.651276,Cerro Teoyaca,335.0
12.304635,-85.85769,Cerros Colama,290.0
12.4189005,-85.68089,Filo El Ventarron,610.0
12.418551,-85.70542,Filo de Cerro Grande,510.0
11.905196,-85.94935,Loma Posintepe,144.0
11.710356,-85.865036,Loma Atraversada,165.0
11.731697,-85.83008,Sierra Santa Julia,477.0
11.741772,-85.87147,Cerro El Pilón,345.0
11.750946,-85.84179,Cerro El Llano,305.0
11.759334,-85.80166,Cerro Las Banderas,285.0
11.770417,-85.80741,Loma La Tigra,124.0
11.984503,-85.50193,Cerro Las Queseras,217.0
12.031464,-85.51847,Loma El Pedernal,108.0
12.070014,-85.62762,Cerro El Mango,333.0
12.091623,-85.59895,Cerro Cacaguapa,194.0
12.280536,-85.63309,Loma La Culebra,323.0
12.1828375,-85.50061,Loma Mina de Piedra,262.0
12.191685,-85.56523,Cerro Sacapiluya,277.0
12.193749,-85.52969,Cerro Moralito,228.0
12.246688,-85.64009,Loma San Antonio o Las Cruces,308.0
11.542774,-86.138,Cerro Los Limones,183.0
11.654789,-86.01867,Lomas Palo Bonito,201.0
11.613904,-86.07898,Lomas El Descanso,203.0
11.618994,-86.04981,Loma Llano Las Jabalinas,206.0
11.6786995,-86.08768,Loma La Camaroncita,313.0
11.6178465,-86.07123,Cerro La Penca,183.0
11.629401,-86.03309,Cerro Las Pilas,270.0
11.505567,-86.02795,Lomas Las Anchuras,333.0
11.504036,-86.01371,Cerros Escoba Cuenca,334.0
11.511533,-86.108574,Lomas Zapote Mico,130.0
11.594886,-86.13641,Cerro Los Sombreros,193.0
11.521559,-86.15263,Lomas El Filete Grande,169.0
11.521997,-86.09873,Lomas San Ignacio,177.0
11.522605,-86.03304,Lomas Grandes,218.0
11.6062,-86.2002,Cerro El Tune,368.0
11.532106,-86.11758,Lomas Las Cañas,210.0
11.604095,-86.20767,Cerro El Gallo,203.0
11.647324,-86.135445,Cerro El Quebrachal,397.0
11.536672,-86.01127,Cerros Plan Bonito,308.0
11.586467,-86.22237,Cerro Tendedero,198.0
11.66247,-86.19124,Cerro El Tabmor,422.0
11.5907,-86.01868,Lomas Pelonas,131.0
11.614652,-86.219734,Cerro El Jarro,421.0
11.554728,-86.01439,Cerros El Chasmol,296.0
11.555333,-86.052895,Lomas El Horno,274.0
11.6546,-86.158745,Cerro La Pitilla,614.0
11.568217,-86.13725,Lomas La Guasimada,150.0
11.564557,-86.013695,Lomas San Luis,236.0
11.595505,-86.05774,Cerro La Mula,256.0
11.618448,-86.17615,Cerro Loma de Viento,484.0
11.582601,-86.15238,Lomas El Abejonal,114.0
11.572383,-86.112885,Lomas Ñurinda,261.0
11.5736,-86.01112,Lomas Los Ángeles,193.0
11.604872,-86.013016,Cerro El Gallo,114.0
11.658574,-86.13246,Cerro El Cargadero,436.0
11.579239,-86.07609,Lomas El Jícaro,219.0
11.580142,-86.1243,Cerro La Danta,207.0
11.665422,-86.121315,Cerro Ojo de Agua,427.0
11.624513,-86.13006,Cerro Monte Oscuro,232.0
11.6334305,-86.211136,Cerro Huiste,414.0
12.486545,-86.12429,Lomas Portillo de Ojoche,349.0
12.27616,-85.832016,Lomas de Cerro Pelón,355.0
12.325057,-85.88874,Cerro Polo,426.0
11.629451,-86.17384,Cerro La Pitilla,416.0
11.564647,-86.07118,Lomas Las Cañas,266.0
11.580304,-86.03976,Lomas San Adolfo,268.0
11.660203,-85.8911,Loma Las Mesas,137.0
12.341646,-85.61731,Cerro Cuisaltepe,757.0
12.378713,-85.72911,Lomas El Ojoche,403.0
12.407765,-85.7069,Filo El Ventarron,496.0
12.488436,-85.694016,Cerro El Pochote,708.0
12.36986,-85.59609,Cerro El Corral,888.0
12.384354,-85.616745,Cerro El Pedregal,717.0
12.40878,-85.65029,Cerro El Brujo,646.0
12.42927,-85.549446,Cerro La Pelona,794.0
12.442541,-85.54665,Cerro El Corozo,977.0
11.51824,-85.59468,Cerro El Mongote de Las Pilas,277.0
12.4496,-86.097015,Cerro El Tempisque,198.0
12.467641,-86.11414,Lomas Portillo de Ojoche,404.0
12.451053,-86.11911,Cerro Tapa de Dulce,233.0
12.355444,-85.9984,Cerro La Zopilota,415.0
12.359349,-86.00799,Cerro La Zopilota,357.0
12.336373,-86.0158,Cerro San Jacinto,228.0
12.360412,-86.01729,Cerro El Escobillo,308.0
12.38073,-86.006966,Loma El Garobo,181.0
12.386083,-86.012596,Loma Guanacaste Blanco,236.0
12.251754,-85.75511,Cerro San Lucas,305.0
12.317569,-85.939415,Montaña Grande,164.0
12.348627,-85.91112,Cerro Canogeño,294.0
12.34363,-85.92839,Cerro El Pilón,216.0
12.3351965,-85.99463,Cerro La Luz,433.0
12.346579,-85.99437,Montaña de la Felipa,425.0
12.450685,-86.048744,Cerro El Mango,288.0
12.467198,-86.05624,Cerro El Quebrantero,415.0
12.496105,-86.10759,Cerro Las Mesas,310.0
12.485502,-86.08493,Cerro Socotepe,317.0
12.462283,-86.06208,Loma El Quemado,366.0
12.472011,-86.08795,Loma de Asese,223.0
12.484086,-86.19709,Cerro El Obraje,177.0
12.472291,-86.204666,Cerro Las Pilas,203.0
12.472815,-86.195496,Loma El Comal,180.0
11.645734,-86.101364,Montaña Ojo de Agua,313.0
11.997427,-86.1499,El Comalito,375.0
12.139923,-86.274185,Loma de Tiscapa,147.0
11.689284,-85.91185,Lomas del Brujo,98.0
11.677538,-85.90562,Loma San Ramón,141.0
11.637595,-86.25612,Cerro El Jícaro,135.0
11.711424,-86.201584,Cerro El Pedernal,235.0
11.68977,-86.329765,Cerro San Antonio,107.0
12.480912,-85.59172,Cerro Santa Blanca,605.0
12.131946,-85.57539,Cerro Cacaguaca,518.0
12.257516,-85.690216,Lomas de Mapacha,359.0
12.406927,-85.55048,Cerro Mombachito,1008.0
11.732308,-86.34846,Monte Carmelo,77.0
11.739969,-86.4228,Loma Los Robalos,98.0
11.725434,-86.31297,Loma El Cerro,128.0
11.649188,-86.3408,Loma La Vigía,76.0
11.648097,-86.308235,Lomas El Ave Maria,84.0
11.677675,-86.276085,Lomas El Ojoche,227.0
11.768342,-86.41664,Lomas de Tejas,118.0
11.607806,-86.256294,Cerro El Jarro,106.0
11.718561,-86.22812,Cerro Los Malejones,177.0
11.702546,-86.2553,Lomas El Horizonte,124.0
12.285257,-85.60231,Loma Santa Teresa,208.0
11.623318,-86.2478,Cerro Tres Piedras,277.0
11.658079,-86.281685,Lomas El Naranjo,82.0
11.670987,-86.35574,Loma La Vigía,84.0
11.721859,-86.1532,Cerro El Perdenal,356.0
11.6679735,-86.152985,Cerro El Cerro,509.0
11.698379,-86.229065,Lomas El Naranjo,208.0
11.733108,-86.17364,Cerro La Palmerita,267.0
11.589512,-86.231155,Montañas Matapalos,199.0
11.70483,-86.164734,Cerro Ojo de Agua,427.0
11.697983,-86.17588,Cerro El Cargadero,436.0
11.70483,-86.164734,Cerro Ojo de Agua,427.0
11.697983,-86.17588,Cerro El Cargadero,436.0
11.692414,-86.28546,Cerro Gallo,257.0
11.681251,-86.261604,Lomas Filos de Buena Vista,198.0
11.743313,-86.263245,Loma Alta,225.0
11.7487755,-86.29256,Loma El Taquezal,202.0
11.757609,-86.412865,Loma El Plumajo,127.0
11.7739315,-86.44622,Cerro San Isidro,124.0
11.808989,-86.36941,Loma Pénjamo,197.0
11.820666,-86.48437,Loma Los Peroles,112.0
11.592115,-86.06417,Lomas Berlín,224.0
11.590939,-85.978424,Montaña San Cristóbal,322.0
11.509721,-85.899345,Lomas El Siete,192.0
11.573115,-85.920265,Cerro Picoalto,222.0
11.5840435,-85.93002,Cerro La Vainilla,183.0
11.527292,-85.94401,Cerro La Virgen,304.0
11.696708,-86.03028,Cerro Tierra Blanca,164.0
11.651359,-86.162506,Cerro Abejonal,590.0
11.673288,-86.09556,Cerro Santa Rita,322.0
11.998154,-85.50154,Cerro El Orégano,123.0
12.41465,-86.49655,Loma Matadora,207.0
12.492385,-86.12939,Cerro Cuape,303.0
12.494608,-86.1484,Cerro La Coyotera,198.0
12.459609,-86.190765,Loma Dolores,107.0
12.488925,-86.2178,Lomas La Palma,183.0
12.470898,-86.16892,Cerro El Cuicuilo,182.0
12.426718,-86.11001,Cerro La Mesa del Tule,172.0
12.395325,-86.002495,Cerro Las Tunitas,456.0
12.400546,-86.00364,Cerro Las Pavas,473.0
12.414624,-86.01148,Cerro El Peñón de San Francisco,524.0
12.434628,-86.014946,Cerro Motropo,498.0
12.484563,-86.00661,Cerro Pochotal,517.0
12.46932,-86.00755,Cerro Las Mesas de Acicaya,546.0
12.276568,-85.51158,Cerro Las Cruces,408.0
12.273397,-85.51203,Cerro El Chambón,432.0
12.214055,-85.524475,Cerro Llano Grande,317.0
12.222783,-85.51579,Cerro El Pilón,347.0
12.227074,-85.545876,Cerros Tamaltepe,452.0
12.284258,-85.532326,Cerro San Francisco,547.0
12.313285,-85.55371,Cerro El Cimmarrón,445.0
12.2392025,-85.593445,Loma Los Cerritos,567.0
12.257667,-85.61538,Cerro El Acetuno,276.0
12.255841,-85.62347,Loma Los Charcos,308.0
12.234699,-85.63146,Cerro El Cien,348.0
12.17887,-85.75196,Loma Masapía,128.0
12.212355,-85.74158,Cerro El Chilamatillo,158.0
12.21788,-85.71539,Cerro Las Tetitas,264.0
12.23061,-85.67448,Cerro Ochenta Pesos,313.0
12.219401,-85.60206,Lomas El Socorro y San Pedro,466.0
12.275085,-85.61399,Loma Santa Susana,218.0
12.268533,-85.671616,Loma Los Leones,442.0
12.252,-85.721,Cerro San Ildefonso,409.0
12.244411,-85.737114,Loma El Castillo,564.0
12.279205,-85.73215,Cerro Grande,663.0
12.285358,-85.714714,Cerro Las Tinajitas,534.0
12.497395,-85.50632,Lomas de Cafén,780.0
12.475522,-85.52827,Cerro El Gato o La Cruz,818.0
12.475161,-85.50846,Cerro de Buenavista,858.0
12.467697,-85.51988,Cerro Piedra de Café,657.0
12.455912,-85.51136,Cerro Grande,692.0
12.345902,-85.51905,Loma de San Gregorio,605.0
12.37105,-85.572205,Cerro El Orégano,547.0
12.3949795,-85.58662,Cerro La Vaca,774.0
12.411294,-85.50968,Lomas La Coyotera,603.0
12.405039,-85.53337,Cerro El Pilón,806.0
12.462349,-85.61313,Cerro Las Lagunas,567.0
12.448541,-85.579506,Loma El Chale,735.0
12.443665,-85.559204,Cerro La Vieja,990.0
12.423281,-85.629555,Cerro San Fernando,689.0
12.437077,-85.60066,Cerro Las Mesas,496.0
12.442245,-85.61943,Cerro San Juan,652.0
12.452218,-85.629456,Cerro Largo,673.0
12.388656,-85.69041,Lomas El Cascabel,614.0
12.307508,-85.6315,Cerro La Calera,315.0
12.281848,-85.75513,Cerro Caciano,629.0
12.459457,-85.97858,Cerro Carrera Buena,494.0
12.467073,-85.99065,Cerro Las Mesas de Acicaya,583.0
12.490171,-85.99574,Cerro El Capulín,568.0
12.465974,-85.93873,Cerros San Joaquin,654.0
12.483258,-85.96158,Cerro El Mojón,544.0
11.837588,-86.48316,Loma El Portillo,112.0
11.848672,-86.4777,Lomas San José,134.0
11.892895,-85.98769,Cerro El Pidón,262.0
12.158445,-86.31709,Cerro Los Martínez,119.0
11.907729,-85.99012,Cerro El Chanal,196.0
11.652867,-86.17474,Cerro Los Placeres,428.0
11.532812,-85.58271,Loma de Sintiope,208.0
12.262683,-85.51451,Cerro El Espino,498.0
11.702627,-86.29922,Loma La Polvosa,190.0
12.490824,-86.135086,Cerro El Matadero,264.0
11.729517,-86.1465,Cerro Palmera,293.0
11.966186,-86.237816,Cerro Los Cajones,712.0
