latitude,longitude,name,elevation
46.38417,9.174714,Cima di Gagela,2805.0
45.9534,9.387675,Grigna Settentrionale,2410.0
46.366722,8.83129,Madone Grosso,2746.0
46.050762,9.357044,Monte Croce di Muggio,1799.0
46.123383,8.648076,Monte Limidario,2189.0
45.922504,8.689439,Monte Nudo,1235.0
45.913765,8.94989,Monte San Giorgio,1097.0
45.915436,9.209842,Monte San Primo,1682.0
45.97711,8.947302,Monte San Salvatore,912.0
46.103893,8.866032,Monte Tamaro,1961.0
46.354168,8.714167,Monte Zucchero,2736.0
46.38148,9.421445,Pizzo Stella,3163.0
45.858414,9.4688635,Monte Resegone,1875.0
46.49365,9.040188,Adula - Rheinwaldhorn,3402.0
46.25935,8.526173,Rosso di Ribia,2541.0
46.34361,9.071118,Torent Alto,2948.0
46.112164,8.830641,Monte Gambarogno,1734.0
46.09903,8.657033,Monte Faierone,1715.0
46.10111,8.620535,Monte Zuccaro,1683.0
46.082085,8.583464,Monte Riga,1290.0
46.04244,8.680461,Monte Carza,1116.0
45.78624,8.573026,San Quirico,400.0
46.040516,8.832842,Monte Lema,1619.0
46.009083,8.98741,Monte Bre,925.0
46.03267,8.531918,Pizzo Marona,2051.0
45.873363,8.814288,Monte Chiusarella,915.0
45.83715,9.179377,Monte Bolettone,1318.0
46.191624,8.783002,Cardada,1340.0
46.0227,8.820783,Motto Croce,1184.0
46.37637,9.461076,Cima da Lägh,3082.0
46.045372,8.648386,Monte Pian Bello,1325.0
46.054188,9.028578,Sasso Palazzo,1445.0
46.06638,8.99786,Monte Roveraccio,904.0
46.029778,9.007556,Monte Boglia,1516.0
46.107754,9.011811,Monte Bar,1816.0
46.117977,9.072383,Monte Gazzirola,2116.0
46.10202,8.9933,Caval Drossa,1632.0
46.0503,9.032793,Cima Cavrighe,1244.0
45.939873,8.912458,Monte Arbostora,822.0
45.945744,8.923739,Cima Pescia,835.0
46.03158,9.0271635,Zocca della Nave,1135.0
46.041706,9.086188,Monte Bronzone,1434.0
46.042206,9.078893,Pizzo Ravò,1281.0
46.0523,9.070106,Monte Pradè,1607.0
46.13491,9.064188,Camoghè,2228.0
46.499664,9.199378,Piz Uccello,2724.0
46.056778,8.941691,San Giorgio,465.0
46.045456,8.962137,San Bernardo,707.0
46.049446,8.962373,Matro Rotondo,679.0
46.056385,8.965377,Sasso Scuro,634.0
46.117985,8.999694,Cima di Screvia,1493.0
45.86118,9.332456,Corno Orientale,1239.0
46.49768,9.304503,Il Balzo,2751.0
46.497974,9.339736,Pizzo della Casa,2523.0
46.48771,9.3751,Pizzo Spadolazzo NW,2720.0
46.48953,9.2794075,Pizzo Zoccone,3091.0
46.47477,9.276183,Cima di Val Loga Centrale,3004.0
46.46109,9.334236,Monte del Cardinello,1856.0
46.49791,9.434184,Piz Miez,2834.0
46.491993,9.42869,Pizzo del Crot,2846.0
46.474792,9.422332,Pizzo della Palù,3179.0
46.473587,9.464595,Bullone del Piuro,2381.0
46.46951,9.465557,Cima di Colle Sengio,2420.0
46.4597,9.459202,Schiahorn,2637.0
46.455093,9.272214,Pizzi dei Piani,3157.0
46.44731,9.240795,Pizzo Curciusa,2961.0
46.420517,9.263711,Cima de Barna,2857.0
46.422855,9.262432,La Colma,2855.0
46.387753,9.298078,Motto Alto,2720.0
46.39475,9.276059,Dosso Mottascio,2872.0
46.44896,9.2845545,Pizzo Latta,2598.0
46.449867,9.294428,Moncucco,2391.0
46.449886,9.257887,Pizzo Bianco,3037.0
46.3779,9.310465,Pizzo Truzzo,2723.0
46.426594,9.257843,Monte Balniscio / Pizzo dei Rossi,2846.0
46.43421,9.272105,Mot del Lago Grande,2359.0
46.373566,9.296466,Motto dell` Asino,2350.0
46.416374,9.308665,Monte Tignoso,2375.0
46.401577,9.282053,Pizzo della Sancia,2718.0
46.41096,9.280737,Piz Dale`,2600.0
46.297222,9.3001995,Cima d'Ala,2151.0
46.31461,9.285359,Pizzo di Padion,2633.0
46.316532,9.293823,Pizzo della Forcola,2671.0
46.297028,9.284857,Pizzo Piodella,2456.0
46.338387,9.293291,Punta Marina,2653.0
46.275753,9.259499,Cantone di Strem,2556.0
46.269394,9.257038,Pizzo Gallusen,2473.0
46.232784,9.262527,Pizzo San Pio,2301.0
46.32716,9.299304,Il Pizzaccio,2589.0
46.346283,9.29892,Piz Papalin,2715.0
46.35569,9.296195,Pizzo del Torto,2723.0
46.258297,9.292034,Corn dal Noovar,1981.0
46.255875,9.248859,Piz de Sambrog,2312.0
46.251904,9.25141,Pizzo Camparasca,2315.0
46.28,9.283227,Pizzo della Piazza,2239.0
46.295406,9.28085,Pizzo Setaggio,2476.0
46.289223,9.271819,Pizzo Setaggiolo di Fuori,2389.0
46.2819,9.307284,Il Mottone,2053.0
46.283817,9.269201,Pizzo Gandaiole,2396.0
46.266537,9.250504,Pizzo Roggione,2575.0
46.26866,9.2542305,Pizzo d'Arsa,2490.0
46.25407,9.286889,Mut Pelee,2120.0
46.349243,9.295987,Cima de Lughezzasca,2715.0
46.35837,9.282345,Fil dei Fredolan,2710.0
46.414066,9.399825,Pizzo Groppera,2948.0
46.454872,9.40125,Pizzo di Sterla,2946.0
46.447266,9.399225,Monte Mater,3022.0
46.43617,9.40338,Monte Caurga,2865.0
46.43641,9.405179,Cresta di Crap Negher,2847.0
46.420147,9.381797,La Colmenetta,2345.0
46.37204,9.3752,Motto di Bondeno,1786.0
46.35628,9.412647,Pizzo Alto,2482.0
46.32497,9.321728,Monte Mater,2415.0
46.357315,9.340245,Pizzo Camoscera,2050.0
46.362297,9.378975,Motta Secca,1670.0
46.364162,9.326533,Pizzo Camoscie,2467.0
46.347836,9.394452,Pizzo Guardiello,2091.0
46.356335,9.395745,Motto del Piano,2313.0
46.335964,9.396683,Dosso della Marcia,1372.0
46.25067,9.312216,Monte Cucco,2024.0
46.259136,9.345619,Monte Borlasca,1778.0
46.295692,9.323424,Dosso Mottone,1904.0
46.23497,9.333479,Pizzo Anna Maria,2361.0
46.445156,9.459837,Cima dei Rossi Nuovi,2709.0
46.395092,9.466557,Pizzo d'Inferno,3034.0
46.396973,9.420924,Pizzo Peloso,2780.0
46.44115,9.418254,Montesel dell'Alpesella,2519.0
46.380226,9.463198,Pizzo Rosso,3050.0
46.38487,9.4661455,Punta del Poli,2962.0
46.38873,9.468897,Cima da la Sovräna,3014.0
46.426872,9.455839,Cima di Pian Secco,2765.0
46.38856,9.423519,Lo Stellino,2896.0
46.4205,9.454402,Cima di Pian della Vacca,2859.0
46.39816,9.466827,Cima della Blese,3044.0
46.392025,9.421318,Il Dente,2805.0
46.299313,9.4993515,Corna di Droso,2410.0
46.307037,9.497497,Monte Congen,2143.0
46.3541,9.473604,Pizzo dello Scudo (Piz Scut),2538.0
46.263626,9.462383,Cima Lavina,2181.0
46.2681,9.487566,Motta di Piaz,1845.0
46.282806,9.487854,Sass Becchè,2726.0
46.244457,9.495609,Mot Luvre`,2047.0
46.246155,9.464914,Motta Alta,1683.0
46.284866,9.470629,Monte Beleniga - cima W,2609.0
46.30106,9.443245,Il Mottaccio,1925.0
46.234238,9.454986,Motta d'Avedee,1448.0
46.34779,9.469183,Monte Saragiolo,2304.0
46.302082,9.463227,Pizzo Grillo,2169.0
46.29317,9.46154,Corna di Garzonè,2455.0
46.26773,9.442835,Corno di Piodalancia,1870.0
46.279243,9.461251,Punta Buzzetti,2505.0
46.2807,9.441316,Monte Matra,2205.0
46.278877,9.448467,Monte Sparavera,2501.0
46.366837,9.487737,Monte Galleggione,3106.0
46.285343,9.421577,Monte Alto,1324.0
45.936077,9.055866,Pizzo della Croce,1491.0
45.972687,9.095256,Monte Luria,1286.0
45.79819,9.072187,Monte Caprino,453.0
45.9111,9.089269,Monte Fontanella,1223.0
45.962795,9.055555,Monte Prada,1090.0
45.95013,9.039036,Monte d'Orimento,1383.0
45.96119,9.040241,Monte Alpe Nuovo,1192.0
45.878883,9.0932455,Poncione della Costa,1251.0
45.854343,9.052037,Pizzo Meda,890.0
45.87369,9.066659,Monte Bisbino,1325.0
45.911964,9.081,Sasso Gordona,1410.0
45.960606,9.0141945,Sasso Bovè,1015.0
45.993515,9.035776,Monte Caslè,1030.0
45.80675,9.013495,Monte Cucco,473.0
45.816216,9.009827,Poggio Bruciato,542.0
46.00159,9.052134,Monte Pinzernone,1176.0
45.789345,9.10106,Monte Goj,477.0
45.967793,9.027971,Il Monticello,987.0
45.967567,9.004149,Monte Creggio,1184.0
45.896347,9.106981,Monte San Bernardo settentrionale,1351.0
45.836452,9.132811,Monte Astele,1183.0
45.833702,9.142369,Monte Boletto,1238.0
45.853992,9.122315,Ceppo di Ghidella,535.0
45.918938,9.115996,Monte Comana,1210.0
45.8434,9.120038,Croce d'Ardona,1002.0
45.836475,9.1250105,Pizzo Tre Termini,1144.0
46.006096,9.195937,Monte Crocione,1641.0
46.001923,9.1852865,Monte di Tremezzo,1699.0
45.926838,9.175005,Monte Colmenacco,1281.0
45.89246,9.118281,Monte Colmegnone,1378.0
45.928505,9.118019,Monte Gringo,1079.0
45.824684,9.166227,Dosso della Merma,944.0
45.862095,9.20166,Palanzone,1436.0
45.879715,9.183964,Monte Preaola,1413.0
45.8402,9.205026,Monte Puscio,1141.0
45.86933,9.194293,Monte di Faello,1335.0
45.886654,9.174094,Monte di Careno,1226.0
45.9051,9.105313,Monte di Binate,1271.0
46.00707,9.136558,Monte del Rocco,1303.0
45.996616,9.110777,Dosso di Prai,1164.0
45.853416,9.191495,Pizzo dell'Asino,1272.0
45.889446,9.172035,Monte Pol,1145.0
45.953197,9.104893,Monte Gireglio,974.0
46.00037,9.147319,Monte di Lenno,1588.0
45.9006,9.163241,Monte Cappon,704.0
45.9845,9.146707,Cima della Duaria,1446.0
45.826954,9.115025,Monte Uccellera,1026.0
45.962738,9.114629,Monte Pasquella,1331.0
45.9705,9.113627,Monte Sertore,1393.0
45.967037,9.199587,Dosso di Lavedo,329.0
45.87626,9.180177,Monte di Palanzo,1391.0
45.815792,9.1616955,Dosso Fagorato,855.0
45.836884,9.302172,Monte Cornizzolo,1240.0
45.880962,9.304717,Ceppo della Forca,596.0
45.905952,9.22237,Monte Doardo,1402.0
45.882355,9.209757,I Lardei,1335.0
45.85744,9.294483,Sguancia,941.0
45.89863,9.240003,Monte Roncaglia,1297.0
45.858093,9.216437,Colma Piana,1182.0
45.889862,9.232676,Monte Cippei,1230.0
45.931927,9.219958,Monte Fopa,1116.0
45.829643,9.208068,Monte Panigas,901.0
45.83506,9.265781,Monte Scioscia,667.0
45.827248,9.256917,Monte Alto,560.0
45.850815,9.236081,Dosso Mattone,1050.0
45.85504,9.216726,Monte Orsera,1101.0
45.949966,9.232176,Monte Nuvolone,1092.0
45.835007,9.294538,Monte Pesora,1195.0
45.879223,9.27952,Monte Megna,1049.0
45.960926,9.256725,Monte Garnasca,694.0
45.874268,9.208899,Monte Croce,1352.0
45.847168,9.298899,Ceppo dell'Angua,876.0
45.876064,9.217994,Monte Pianchetta,1242.0
45.85991,9.228068,Dosso della Fornace,996.0
45.881283,9.225918,Monte Falò,1179.0
45.868916,9.273565,Dosso Deo,723.0
45.911644,9.281188,Monte Castel di Leves,966.0
45.912365,9.221001,Cima del Costone,1611.0
45.935402,9.241849,Monte Grionsc,925.0
45.923317,9.237792,Monte Forcella,1322.0
45.92514,9.257862,Monte Corbera / Monte Dalco,997.0
45.93984,9.224082,Ceppo del Mucchio,1081.0
45.948887,9.253224,Dosso Maggiore,725.0
45.895813,9.208939,Il Dosso,1004.0
45.83072,9.249326,Monte Spinei,588.0
45.90586,9.212062,Monte Lot,1290.0
45.85452,9.249705,Croce di Pizzallo,974.0
45.89502,9.274338,Monte Oriolo,1108.0
45.88754,9.249004,Monte Torretta,1105.0
45.991993,9.363369,Pizzo del Cich,1454.0
45.99379,9.383916,Zucco della Colla,645.0
45.998283,9.354557,Pizzo di Zirlaca,1408.0
45.976475,9.378277,Pizzo Valansasca,1513.0
45.98622,9.359421,Dosso della Chierica,1253.0
45.988506,9.310871,Monte Fopp,1090.0
45.97228,9.371945,Sass dell'Ave Maria,1507.0
45.972336,9.355941,Monte Pilastro,1827.0
45.973972,9.3522835,Monte Croce,1780.0
45.976322,9.347043,Monte Saetta,1627.0
45.97804,9.3221655,Monte Parolo,1203.0
45.98009,9.340428,Sasso di Petua,1404.0
45.999706,9.325856,Sasso del Buco,934.0
45.98194,9.366599,Sasso dei Dardi,1339.0
45.982044,9.364698,Cimone,1496.0
45.967037,9.3180275,Zucco della Pecora,735.0
45.9632,9.329736,Monte Cucco,1432.0
45.969536,9.328703,Sasso del Monte Cucco,1347.0
45.967873,9.343846,La Conca,1468.0
45.97528,9.384078,Il Pizzo,1829.0
45.972847,9.403484,Zucco di Meriggio,1206.0
45.961872,9.39894,Pizzo della Pieve,2257.0
45.967236,9.391,Cima del Palone,2089.0
45.977867,9.387918,Pizzo di Strecc,1500.0
45.979954,9.386405,Zucco degli Eghen,1384.0
46.002533,9.352842,Monte La Porta,1344.0
45.93821,9.331467,Zuc di Pez,883.0
45.93866,9.340001,Zucco di Tura,1046.0
45.951065,9.338901,Cima dei Pianchini,1397.0
45.958454,9.337324,Monte Palagia,1549.0
45.962086,9.344958,Cima di Eghen,1557.0
45.951595,9.350634,Zucco di Savia,1073.0
45.952133,9.339524,Monte della Tagliata,1397.0
45.940586,9.340164,Zucco di Belloeuria,1153.0
45.941677,9.339405,Zucco Morterolo,1169.0
45.94551,9.33787,Zucco Sileggio,1373.0
45.961784,9.348185,Porta di Canal Grande,1536.0
45.952637,9.358907,Zuccello di Costa Fontana,1376.0
45.95621,9.356044,Zuc del Cornel,1170.0
45.95914,9.364378,Le Colonne,1465.0
45.956223,9.366474,Zucchello dei Grottoni,1583.0
45.943127,9.366973,Zuc di Sella,1448.0
45.95957,9.370014,Zucco dei Lares,1781.0
45.946278,9.370653,Sasso Cavallo,1923.0
45.94579,9.382145,Sasso dei Carbonari,2157.0
45.94737,9.3717985,Il Zuccone,1884.0
45.942898,9.390035,Zucco dei Chignoli,2163.0
45.96146,9.375942,Cima di Piancaformia,2106.0
45.933212,9.374508,Torrioni di Parascioeul Alti,1321.0
45.930786,9.367055,Il Zuccone,1110.0
45.939445,9.3603945,Zucco Pissavacca,1241.0
45.919636,9.378083,Torrione Costanza,1723.0
45.934956,9.372633,Torrioni di Parascioeul Bassi,1286.0
45.938484,9.375112,L'Aser,1349.0
45.920956,9.363733,Zucco Pertusio,1671.0
45.921837,9.382038,Piramide Casati,1940.0
45.91892,9.358459,Zucco di Portorella,1531.0
45.921684,9.383034,Torrione Palma,1927.0
45.920574,9.385027,Guglia Angelina,2046.0
45.934242,9.384744,Zucco di Larenson,1796.0
45.925278,9.388624,Zucco di Campione,2045.0
45.93015,9.38411,Parascioeulin,1608.0
45.921898,9.390717,Grigna Meridionale,2177.0
45.91782,9.403214,Torrione Fiorelli,1667.0
45.921032,9.395206,Torrione Magnaghi Centrale,2045.0
45.910717,9.351609,Zucco della Rocca,855.0
45.898277,9.344059,Monte di Borbino,463.0
45.880535,9.376153,I Tecett,600.0
45.88408,9.372545,Peltrera,640.0
45.903305,9.403146,Corno del Nibbio Meridionale,1372.0
45.882404,9.388158,Vetta San Vittore,1288.0
45.880913,9.397722,Dente del Coltignone,955.0
45.883717,9.38903,Il Coltignoncino,1399.0
45.884365,9.389275,Torrione Diaz,1419.0
45.885654,9.388937,Monte Coltignone,1471.2
45.88922,9.388656,Cima di Calolden,1455.0
45.847794,9.317921,Monte Prasanto,1245.0
45.855408,9.338045,Corno Rat,924.0
45.860474,9.350902,La Forcellina,717.0
45.84258,9.329168,Corno Birone,1116.0
45.883587,9.315206,Sasso della Cassina,647.0
45.830788,9.380214,Monte Barro,922.0
45.786137,9.387328,Monte Regina,820.0
45.826107,9.384418,Monte San Michele,771.0
45.874565,9.387298,Monte San Martino,1090.0
45.866558,9.33979,Monte Moregallo,1276.0
45.91771,9.384581,Il Fungo,1719.0
45.862198,9.3280735,Corno di Canzo Centrale,1368.0
45.78873,9.332292,Poggio Stolegarda,300.0
45.908985,9.422576,Il Dito,1105.0
45.90902,9.4211445,Zucco di Teral,1178.0
45.90929,9.425399,Costa di Preson,1009.0
45.917854,9.419776,Zucco di Campei,1381.0
45.902725,9.448364,Zucco di Desio,1655.0
45.97133,9.49778,Monte Chiavello,1787.0
45.880432,9.422819,Monte Melma,914.0
45.86726,9.461665,Pizzo Morterone,1757.0
45.99095,9.4562645,La Forcella,1362.0
46.002316,9.44982,Cima d'Agrella,1801.0
45.80973,9.487865,Monte Picchetto,1310.0
45.954582,9.491765,Zucco Orscellera,1858.0
45.960175,9.476451,Corna di Bobbio,1441.0
45.96027,9.460186,Zucco Angelone,1167.0
45.7832,9.468119,Corna Martinella,754.0
45.964336,9.491854,Cima Zurbo,1735.0
45.78832,9.474908,Monte Brughetto,975.0
45.909668,9.4791565,Cima di Ferrera,1387.0
45.798447,9.4941,Monte Tesoro,1431.0
45.812298,9.461249,Monte Spedone,1110.0
45.831013,9.447253,Monte Forcellino,1003.0
45.824577,9.447693,Monte Pizzetto,869.0
45.830883,9.47263,Corna Camozzera,1452.0
45.98783,9.471722,Zucco di Cornisella,1480.0
45.822998,9.434881,Monte Gavazzo,916.0
45.994526,9.494404,Monte Foppabona,2084.0
45.99193,9.496531,Cima del Corvo,2062.0
45.8293,9.436641,Corno di Grao,1041.0
46.00159,9.485287,Zucco di Cam,2193.0
45.818237,9.436657,Monte Mudarga,912.0
45.86016,9.466877,Punta Stoppani,1849.0
45.85397,9.456529,La Cornesella,1204.0
45.839607,9.440765,Monte Magnodeno,1241.0
45.87373,9.468339,Zuc Pelà,1523.0
45.88014,9.479573,Il Pizzo,1285.0
45.919273,9.494368,Zucco della Croce,1188.0
45.930714,9.437012,Costa Riale,1078.0
45.92715,9.422802,Costa dei Butteri,1116.0
46.05765,9.073515,Il Torrione,1806.0
46.05284,9.022958,Sasso Grande,1490.0
46.061455,9.062871,Cima Mosè,1729.0
46.0535,9.030025,Monte Ogè,1478.0
46.05915,9.03976,Sassi Palazzi,1471.0
46.03416,9.08404,Monte dei Pizzoni,1288.0
46.049477,9.026387,Monte Spelucco,1383.0
46.045002,9.057504,Sass di Mont,1262.0
46.109776,9.077961,Sasso Basciotta,2073.0
46.064236,9.08835,Monte Regagno,1627.0
46.041092,9.023643,Monte Saletta,1193.0
46.12657,9.099922,Monte Stabiello,2115.0
46.126144,9.095164,Cima della Segonaia,2068.0
46.122833,9.085334,Cima del Vallone,2135.0
46.074474,9.121683,Monte Piazzola,1360.0
46.01199,9.16109,Monte Galbiga,1691.0
46.063488,9.16505,Monte Pidaggia,1528.0
46.010506,9.129612,Sasso Bianco,1259.0
46.060127,9.105185,Monte del Mugetto,1355.0
46.170734,9.161215,Cima di Cugn,2237.0
46.17849,9.194171,Monte Torresella,2246.0
46.068745,9.163274,Sasso di Cusino,1325.0
46.045822,9.192749,Cime di Brugnone,859.0
46.134724,9.121111,Cima Verta,2078.0
46.106815,9.197684,Motto d'Ailgua,2063.0
46.056526,9.124994,Monte Colmen dei Carac,1094.0
46.186966,9.198039,Monte Ganda Rossa,2213.0
46.14141,9.125339,Cima Pomodoro,1978.0
46.118187,9.157785,Cima Pianchette,2167.0
46.153526,9.135419,Monte Albano,2027.0
46.123615,9.144656,Pizzo di Gino,2245.0
46.100716,9.171314,Pizzo di Sebol,1703.0
46.08799,9.188882,Il Pizzone,1740.0
46.079784,9.181176,Forcolette dell'Allegria,1565.0
46.131973,9.105316,Mottone della Tappa,2130.0
46.112255,9.184951,Monte Tabor,2080.0
46.09573,9.10548,Sasso Mezzano,1381.0
46.064064,9.129516,Sassi della Porta,1311.0
46.049706,9.240275,Il Motto,865.0
46.187878,9.252867,Cimetta dell'Acqua,1689.0
46.042305,9.217686,Ciapp del castell,835.0
46.185104,9.281436,Monte la Motta,1516.0
46.061882,9.211217,Monte Grona,1736.0
46.160202,9.303025,Sasso Pelo,910.0
46.20302,9.259211,Monte Duria,2264.0
46.20248,9.253604,Cima degli Orsi / Motto Confinale,2245.0
46.23217,9.2459,Pizzo Campanile,2459.0
46.20981,9.279185,Monte Nava,1956.0
46.21079,9.214282,Monte Cardinello,2520.0
46.2219,9.24944,Pizzo della Gratella,2230.0
46.206944,9.274565,Monte l'Usciolo,2147.0
46.204483,9.267492,Sasso Camoscé,2207.0
46.22397,9.222892,Mater de Paia,2482.0
46.025883,9.308178,Monte Albiga,917.0
46.23219,9.321769,Pizzo Ledù,2505.0
46.217567,9.352077,La Corvegia,2282.0
46.21049,9.389509,Monte Berlinghera,1930.0
46.213463,9.405319,Balzùn,1417.0
46.23152,9.350392,Sasso Campedello,2309.0
46.21397,9.340063,La Beta,2019.0
46.224693,9.3512745,Sasso Canale,2411.0
46.023903,9.413081,Cimone di Margno,1805.0
46.142975,9.381446,Montecchio Nord,280.0
46.131165,9.348601,Montecchio Sud,331.0
46.030567,9.411685,Cima del Laghetto,1733.0
46.076443,9.405556,Sasso del Rigo,1853.0
46.045116,9.343506,Il Matoch,1380.0
46.06403,9.368003,Il Foppone,1373.0
46.10946,9.492101,Monte Pecoraro,1751.0
46.078163,9.498437,Monte Stavello di Pedesina,2417.0
46.195377,9.418374,Motto dei Dossi,427.0
46.082073,9.46805,Monte Pim Pum,2349.0
46.105118,9.422356,Monte Colombano,2008.0
46.211407,9.489289,Cima di Provinaccio,1741.0
46.070496,9.492537,Monte Rotondo,2496.0
46.212906,9.4267,Monte Peschiera,698.0
46.07753,9.456863,Pizzo Alto,2512.0
46.11344,9.445672,Motto dei Larici,1397.0
46.086327,9.469392,Pizzo Stavello di Luserna,2258.0
46.085674,9.434191,Cima di Moncale,2305.0
46.17908,9.47661,Monte Bassetta,1746.0
46.182724,9.496114,Monte Brusada,2143.0
46.00778,9.487343,Zuc di Valbona,2132.0
46.037907,9.44709,Pizz d'Alben,1865.0
46.17194,9.457852,Monte Foffricio,1258.0
46.012142,9.427007,Cima d'Olino,1781.0
46.02108,9.457833,Pizzo Cornagera,2049.0
46.01788,9.420599,Cantone Grande,1739.0
46.06577,9.428426,Sasso Alto,1900.0
46.067947,9.432587,Cime di Sasso Alto,1953.0
46.046837,9.480793,Pizzo Cavallo,2026.0
46.04585,9.488909,Pizzo Laréc,2152.0
46.07372,9.437148,Cima di Cornice,2159.0
46.032223,9.492522,Pizzo del Dente,1889.0
46.079094,9.45228,Cima Cortese,2473.0
46.076977,9.4400015,Cima Garzoni,2264.0
45.78017,9.11726,Monte Croce,520.0
45.701927,9.467803,ex Monte Giglio,360.0
45.725185,9.468177,Monte dei Frati,580.0
45.76967,9.467551,Monte Santa Margherita,629.0
45.691868,9.447894,Monte Robbio,370.0
45.77192,9.378752,Monte Crocione,878.0
45.750214,9.408253,Monte Crosaccia,730.0
45.772617,9.499824,Pizzo Pec,1005.0
46.07813,8.784669,Monte Sirti,1343.0
46.07153,8.768966,Monte Cadrigna,1303.0
46.010647,8.776845,Monte Bedea,665.0
46.013515,8.794823,Monte Clivio,739.0
46.046513,8.79523,Monte Gradisea,1050.0
46.034256,8.798169,Monte Colmegnino,1019.0
46.077866,8.747045,Monte Borgna,1163.0
45.873104,8.737166,Punta di Orino,1139.0
45.907642,8.783458,Sasso Meree,479.0
45.7882,8.995984,La Pioggera,447.0
45.97383,8.998758,Cima Val Rovina,1220.0
45.908203,8.8180275,Monte Mondonico,801.0
45.892185,8.924138,Monte Pravello,1015.0
45.948444,8.720266,Monte Pian Nave,1060.0
45.906727,8.838627,Monte Val de' Corni,990.0
45.867916,8.898337,Monte Scere,510.0
45.878998,8.897647,Monte Sant'Elia,674.0
45.848175,8.730274,La Motta d'Oro,520.0
45.968258,8.993487,Monte Sighignola,1303.0
45.94882,8.797379,Monti di Castelvecchio,622.0
45.905167,8.9202,Monte Casolo,625.0
45.87591,8.854768,Monte Rho d'Arcisate,934.0
45.971176,8.823001,Monte Mezzano,925.0
45.8906,8.674787,Monte Scirlago,321.0
45.87542,8.795674,Monte Legnone,868.0
45.88797,8.914908,Monte Orsa,998.0
45.887444,8.816249,Monte Martica,1026.0
45.87923,8.848116,Sasso del Corno,984.0
45.922123,8.852221,Monte Piambello,1120.0
45.86285,8.840724,Monte Monarco,854.0
45.90449,8.6119995,Monte Brianza,316.0
45.804348,8.899062,Monte Morone,497.0
45.929184,8.722284,Monte della Colonna,1199.0
45.92264,8.721399,Monte Rossel,978.0
45.917706,8.805898,Monte Scerrè,799.0
45.86462,8.720516,Monte Morto,721.0
45.93397,8.877469,Monte Derta,785.0
45.866795,8.698433,Monte della Rocca,470.0
45.928444,8.669413,Monte La Teggia,1103.0
45.911602,8.643286,Sasso del Ferro,1062.0
45.927673,8.660994,Pizzoni di Laveno,1035.0
45.89864,8.912959,Monte Grumello,684.0
45.931667,8.672608,Pizzo di Cuvignone,1017.0
45.93079,8.715359,Monte Ganna,1096.0
45.893944,8.752217,Monte Martinello,619.0
45.869247,8.749927,Punta Merigetto,1164.0
45.861732,8.792494,Sacro Monte di Varese,880.0
45.97231,8.799308,Monte Sette Termini,976.0
45.962337,8.813316,Monte La Nave,989.0
45.86604,8.780498,Monte Tre Croci,1111.0
45.86904,8.787377,Monte Pizzelle,940.0
45.868458,8.770413,Punta Paradiso,1226.0
45.870625,8.717363,Prà Camarée,774.0
45.701275,8.726081,Monte della Guardia,328.0
45.714233,8.765825,Monte Martino,339.0
45.77705,8.745488,Monte Rogorella,402.0
45.706932,8.721732,Monte Brano,321.0
45.709385,8.714353,Monte Cucco,296.0
45.75337,8.7210455,Monte Carbonaro,351.0
45.748417,8.802765,Monte Roncaccio,362.0
45.775867,8.669066,Monte Pelada,472.0
45.67698,8.768383,Monte Marino,294.0
45.68793,8.785767,Monte Diviso,307.0
45.681816,8.77408,Monte Capro,308.0
45.682014,8.767273,Monte Cuore,294.0
45.686363,8.78049,Monte Pino,305.0
45.70744,8.665751,Monte Gagliasco,300.0
45.693985,8.656036,Monte Tabor,310.0
45.75125,8.660554,Monte del Porto,418.0
45.70219,8.664078,Monte Motta,305.0
45.753452,8.760765,Monte di Tordimonte,347.0
45.74413,8.755837,Monte La Torre,328.0
45.769432,8.794415,Monte Perada,421.0
45.744453,8.653026,Poggio d'Oriano,327.0
45.75527,8.654279,Monte della Croce,448.0
45.695396,8.709798,Monte Ameno,314.0
45.674316,8.685691,Monte Belvedere,258.0
45.743896,8.794327,Il Monte,410.0
45.731236,8.766677,Monte Asei,327.0
45.762722,8.785401,Monte Marello,390.0
45.76852,8.622602,Monte della Croce,360.0
45.762608,8.637809,Monte Le Casacce,333.0
45.747215,8.701471,Monte San Giacomo,427.0
45.74608,8.711398,Monte Vermatte,373.0
45.713573,8.674222,Monte Bertone,335.0
45.715267,8.67792,Monte Valli Rosse,341.0
45.73074,8.682255,Monte Gennaio,292.0
45.712536,8.677195,Monte della Rovina,332.0
45.742355,8.698856,Monte Vigano,411.0
46.01467,9.003841,Materone,931.0
45.89936,9.449677,Monte Due Mani,1666.0
45.92183,9.34761,Zucco di Manavello,1120.0
46.140865,8.677098,Pizzo Leone,1659.0
46.11189,8.578331,Monte Torriggia,1703.0
45.843372,9.321132,Monte Rai,1260.0
46.200813,8.791047,Cimetta,1671.0
46.02153,8.645578,Cima di Morissolo,1311.0
46.01604,8.540326,i Balmit,1667.0
46.154896,8.716645,Corona dei Pinci,1294.0
46.253815,8.924307,Poncione di Piota,2439.0
46.32035,8.871704,Cima di Rierna,2461.0
46.378475,8.829401,Pizzo di Mezzodì,2708.0
46.363224,8.843203,Pizzo Cramosino,2718.0
46.00535,9.217596,Il Dossone,903.0
45.904152,9.249009,Monte Cornet / Gerbal,1316.0
46.11712,9.168681,Mot Rasia,2123.0
46.099834,9.203945,Sasso del Cavallo,2062.0
46.235893,9.270854,Punta Motta,2297.0
46.234848,9.316215,Motto di Campo,2372.0
46.2337,9.2485895,Sasso Bodengo,2407.0
46.23692,9.309669,Pizzo Rabbi,2452.0
46.386234,9.284347,Pizzo Quadro,3014.0
46.277927,9.457434,Pizzo di Prata,2727.0
46.296043,9.055623,Pizzo di Claro / Visagno,2727.0
46.323772,8.666149,Sasso Bello,2290.0
46.379314,8.617476,Pizzo di Brünesc,2429.0
46.38621,8.607122,Pizzo Rosso,2498.0
46.38238,8.590779,Pizzo Malora,2640.0
46.390713,8.574287,Pizzo d'Ogliè,2605.0
46.064213,8.860645,Monte Magno,1636.0
46.07533,8.855883,Monte Pola,1742.0
46.084213,8.865839,Monte Gradiccioli,1936.0
46.065243,8.89209,Monte Ferraro,1494.0
46.25528,8.623912,Pizzo Cramalina,2322.0
46.17737,8.592753,Pizzo Ruscada,2014.0
45.92649,8.650338,Pizzoni di Laveno,1018.0
46.19312,9.052424,Motto della Croce,1254.0
46.00976,9.3197,Monte San Defendente,1326.0
45.912666,9.068392,Poncione di Cabbio,1263.0
46.187855,9.072412,Motto d'Arbino,1695.0
46.103687,9.2019825,Monte Marnotto,2088.0
46.096657,9.139252,Il Sasso,1454.0
46.097458,9.221232,Monte Bregagno,2107.0
46.3075,8.899025,Cima Lunga,2488.0
46.330017,8.837369,Scaiee,2441.0
46.326843,8.846992,Cima die Gagnone,2518.0
45.722412,9.487138,Monte Canto,710.0
45.75938,9.393156,Monte di San Genesio,846.0
46.197598,8.7986355,Lo Stallone,1496.0
45.870686,8.881435,Monte Useria,555.0
46.466557,8.509239,Cima di Lago,2833.0
46.464733,8.536798,Pizzo Cristallina,2911.0
46.00681,9.223606,Sasso San Martino,862.0
46.091217,9.355441,Monte Legnoncino,1711.0
45.866837,9.20439,Monte Bul,1406.0
45.88368,8.81252,Punta Rossotti,1021.0
45.86059,9.465457,Punta Manzoni,1801.0
46.178658,9.139346,Cima delle Cicogne,2201.0
46.185463,9.131389,Corno di Gesero,2227.0
46.19559,9.122848,Cadolcia,1939.0
46.208412,9.20229,Cima dello Stagn,2382.0
46.214367,9.2187395,Cima Dermone,2424.0
46.229233,9.221047,Anticima SSE Pizzo Paglia,2550.0
46.268906,9.070614,Piz de Molinera,2288.0
46.276737,9.232763,Sass Castel cima SE,2524.0
46.278683,9.213501,Piz Croch,2377.0
46.28083,9.222958,Sass Castel cima W,2516.0
46.29094,9.144185,Piz di Rüss - Cima Croce,2126.0
46.29354,9.075488,Mot Ciarin,2280.0
46.300823,9.06291,Torrone Rosso,2670.0
46.311073,9.148748,Piz della Molera,2603.0
46.31831,9.159102,Piz de Groven,2694.0
46.331867,9.261917,Pizzo di Campel,2376.0
46.337566,9.162191,Cima d'Aion,2534.0
46.3402,9.15766,Cima de Nomnom,2633.0
46.350803,9.160447,I Corn de Golin,2350.0
46.359768,9.170982,Piz de l'Ardion,2507.0
46.364388,9.169832,Piz de Calvaresc,2537.0
46.367775,9.276062,Piz Pombi,2967.0
46.3709,9.167425,Fil de Dragiva,2729.0
46.373714,9.275066,Piz Nebion,2850.0
46.37972,9.280374,Piz Corbet,3024.0
46.407482,9.158506,Piz de Corneira,2465.0
46.41866,9.148993,Piz Deserto,2505.0
46.45009,9.262398,Piz di Ross,3017.0
46.472324,9.27631,Cima di Val Loga Meridionale,3003.0
46.480106,9.276505,Cima di Val Loga Settentrionale,2967.0
46.494804,9.368728,Punta Levis,2693.0
46.49702,9.2833805,Pizzo Tambo,3278.0
45.92511,9.013243,Motto di Cima,1581.0
45.927097,9.014787,Cima di Sassalto,1614.0
45.93128,9.019945,Monte Generoso,1701.0
45.93354,9.020606,Monte Baraghetto,1694.0
45.936302,9.022314,Sasso Bianco,1644.0
45.94402,9.011383,Cima Crocetta,1391.0
45.980503,8.995339,Termine Quadro,1134.0
46.075756,8.847505,Sasso della Gallina,1629.0
46.11604,8.656327,Cruit,2085.0
46.21836,8.532547,Cima Pian del Bozzo,2192.0
46.222015,8.54286,Motto dei Ciapitt,2152.0
46.22713,8.9426,Cima d'Erbea Occidentale,2338.0
46.23367,8.658737,Monte Madone,2018.0
46.245586,8.79032,Pizzo d’Orgnana,2210.0
46.25858,8.518336,Cima di Cregnell,2528.0
46.268223,8.555408,Cima di Catögn,2397.0
46.27428,8.907145,Poncione del Vènn,2477.0
46.29154,8.565556,Pizzo Sascòla,2057.0
46.305035,8.884241,Cima di Bri,2520.0
46.3196,8.765929,Poncione della Marcia,2454.0
46.32065,8.663589,Punta di Spluga,2251.0
46.324917,8.681478,Pizzo delle Pecore,2381.0
46.329674,8.91976,Pizzo Ricuca,2282.0
46.33037,8.683551,Cima di Broglio,2385.0
46.37545,8.73208,Corona di Redòrta,2804.0
46.387825,8.81243,Cima Bianca,2612.0
46.398335,8.760708,Pizzo di Piancoi,2769.0
46.400345,9.028069,Cima di Biasagn,2417.0
46.40133,8.739037,Pizzo di Scinghign,2801.0
46.41583,8.565235,Pizzo Castello,2808.0
46.418144,8.73996,Pizzo di Soveltra,2856.0
46.423893,8.5473585,Pulpito,2616.0
46.42731,8.738162,Pizzo Penca,3038.0
46.440018,8.71253,Tre Corni,2954.0
46.442146,8.546585,Mottone,2812.0
46.449837,8.707463,Pizzi di Morghirolo,2625.0
46.454384,8.537409,Cima delle Donne,2723.0
46.46071,8.531509,Cresta del Coro,2814.0
46.465126,8.866926,Motto Crostel,2300.0
46.467636,8.866146,Mottarone,2287.0
46.47018,8.53342,Poncione della Forca di Cristallina,2792.0
46.477,8.553652,Pizzo del Narèt,2588.0
46.49115,8.633465,Pizzo Sassello,2479.0
46.491974,8.558909,Il Madone,2756.0
46.06037,8.53038,La Piota,1927.0
46.03205,8.6183,Monte Spalavera,1534.0
46.41957,9.275374,Monte Bardan,2812.0
46.01204,9.491839,Cima delle Miniere,2082.0
46.23297,8.938203,Cima dell'Uomo,2389.0
46.23864,8.91701,Madone,2395.0
46.2317,8.9641,Gaggio,2267.0
46.148262,9.219541,Monte Cortafon,1688.0
46.151463,9.18663,Motto di Paraone,1809.0
46.349407,8.861836,Basal,2588.0
46.278316,8.765628,Cima del Masnee,2203.0
46.464916,8.756831,Cima della Costa,1931.0
46.40573,8.742109,Pizzo Barone,2864.0
46.459488,8.719405,Pizzo Campolungo,2714.0
46.44057,8.709676,Pizzo Canà,2947.0
46.29263,8.740273,Pizzo Dromegio,2232.0
46.433067,8.777037,Pizzo Forno,2907.0
46.46152,8.75464,Pizzo del Lambro,2129.0
46.463863,8.708242,Pizzo del Prévat,2557.0
46.371567,9.152985,Piz de Ganan,2414.0
46.485344,9.127551,Breitstock,3030.0
46.410297,9.159419,Cima de la Bedoleta,2626.0
46.47243,9.152736,Cima del Vigon,2559.0
46.471294,8.99206,Cima di Gana Bianca,2842.0
46.44628,9.17014,Cima di Passit,2247.0
46.44744,9.136126,I Rodond,2830.0
46.495045,9.142965,Marscholhorn / Piz Moésola NE,2904.0
46.267418,8.569351,Pizzo Molinera,2298.0
46.41751,9.155679,Piz Pian Grand,2689.0
46.42774,9.164785,Piz d'Arbeola,2599.0
46.4655,9.139298,Piz de Mucia,2967.0
46.47665,9.090001,Piz de Stabi,3136.0
46.29597,9.146056,Piz di Rüss,2247.0
46.488514,8.864883,Pizzo Molare,2585.0
46.47797,8.870255,Pizzo di Nara,2231.0
46.4966,8.865114,Punta di Stou,2567.0
46.451996,9.019672,Sasso di Luzzone,2366.0
46.47961,9.113198,Zapporthorn,3152.0
46.219707,8.578069,Pizzo Zucchero,1899.0
46.000656,8.519277,Pizzo Pernice,1506.0
45.84898,9.457105,Cima del Fo,1348.0
46.02635,8.532519,Cima Cugnacorta,1894.0
45.735504,8.704468,Monte Ferrera,381.0
45.69455,8.707602,Monte Ameno,315.0
45.739067,9.335816,Poggio di Travecchia,522.0
46.000896,8.622722,Cresta della Ceresa,1227.0
45.88514,9.121008,Punta Forcoletta,1228.0
45.837204,9.169881,Dosmat,1282.0
45.829617,9.187479,Monte Broncino,1080.0
46.064198,8.519311,Cima Crocette,1896.0
46.07387,8.515573,Cima Lidesh,1830.0
46.092056,8.527524,Il Motto,1508.0
46.07593,8.555717,Monte Mater,1431.0
46.0686,8.511672,Monte Torrione,1984.0
45.95115,8.722628,Monte Pian Nave Nord,1037.0
46.461617,9.280025,Pizzo Ferrè,3103.0
45.82051,8.503578,Il Toriggia,912.0
45.827686,8.506758,Monte Cornaggia,921.0
45.861507,8.503125,Motton Sciarrè,843.0
45.812763,8.512954,Monte della Croce,763.0
46.09602,8.798594,Monte Covreto,1594.0
45.918648,9.370645,Torrione del Pertusio,1557.0
45.901505,9.449457,Zucco dei Tre Signori,1637.0
46.424355,8.693238,L'Uomo,2484.0
46.41147,8.682082,P. Rüscada,2558.0
46.092896,8.801558,Monte Corbaro,1545.0
46.204018,8.89597,Sassariente,1768.0
46.485508,8.535078,Pizzo Folcra,2662.0
46.479214,8.526703,Pizzo Gararesc,2729.0
46.49675,8.555743,Pizzo Sella,2517.0
46.49965,8.581161,Poncione di Vespero,2717.4
45.88663,8.644481,Monte San Clemente,521.0
46.44844,8.549043,Pizzo del Ghiacciaio di Sasso Nero,2842.0
46.470028,8.575598,Pizzo del Lago Scuro,2648.0
46.452087,8.61348,Pizzo di Röd,2699.0
46.46673,8.5945,Poncione dei Laghetti,2616.0
46.465977,8.596839,Poncione della Bolla,2584.5
46.434395,8.54295,Poncione di Braga,2864.0
45.95209,8.663733,Rocca di Caldè,373.0
46.20048,9.253118,Motto Rotondo,2208.0
46.196777,9.251711,Dosso Bello,1979.0
46.208523,9.266989,Sasso Acuto,2002.0
46.23957,9.275836,Pizzo Cavregasco,2535.0
45.81904,9.04234,Sasso di Cavallasca,614.0
45.89056,9.296359,Alpe di Monte,733.0
46.180653,8.651069,Aula,1416.0
46.23107,8.649632,Pizzo Peloso,2064.0
46.209507,8.707155,Salmone,1560.0
46.035057,9.086435,"Monte dei Pizzoni, cima Est",1282.0
46.12275,8.660358,Monte Fumadiga,2010.0
45.863594,9.464129,Cima Pozzi,1810.0
45.865273,9.462102,Pan di Zucchero,1760.0
45.866337,9.461785,Pizzo dei Galli,1754.0
45.861557,9.464012,Dente,1810.0
46.22313,9.352999,Sasso Bianco,2397.0
46.23227,9.240968,Pizzo Caurga,2421.0
46.233074,9.238119,Pizzo Martello,2450.0
46.473984,8.703103,Pizzo Meda,2614.0
45.853474,8.502486,Monte Scincina,837.0
46.20799,8.90628,Cima di Sassello,1899.0
46.05749,9.215779,Pizzo Coppa,1420.0
46.08184,9.224946,Bregagnino,1905.0
45.890785,8.840776,Poncione di Ganna,993.0
45.844685,9.477697,Cima Quarenghi,1637.0
45.84896,9.47776,I Solitari,1667.0
45.85498,9.473428,Pizzo Brumano,1851.0
45.845863,9.478098,Cima Piazzo,1640.0
45.8563,9.472315,Pizzo Daina,1864.0
45.85745,9.47179,Torre di Valnegra,1852.0
46.486732,9.059659,Gemskanzel,2963.0
46.48131,9.0453,Lògia,3080.0
46.4885,9.077624,Paradieshörnli,2964.0
46.477013,9.053573,Pizzo Baratin,3037.0
46.47637,9.060586,Pizzo Cramorino,3134.0
46.480236,9.073531,Rheinquellhorn,3200.0
46.478287,9.065202,Vogelberg,3218.0
46.10485,9.218562,Croce del Sasso,1812.0
46.147404,8.566107,Il Monte di Dissimo,1162.0
46.3676,9.424248,Pizzo Sommavalle,2813.0
46.37233,9.427074,Spalla,2959.0
46.466938,9.409485,Pizzo di Emet,3211.0
46.337578,9.249981,Piz Stabiuch,2177.0
46.3221,9.330811,Cima Fariolo,2180.0
45.932377,9.087806,Monte San Zeno,1025.0
45.989635,8.502374,Monte Todum,1280.0
46.19362,9.194876,Punta di Valstorna,2154.0
45.938072,9.022064,Cima della Piancaccia,1611.0
45.970165,8.574179,Monte Cimolo,959.0
46.171535,8.523376,Pizzo Formalone,2063.0
46.175255,8.517613,Cima del Sassone,2085.0
46.0087,9.344205,Cima di Cavedo,1504.0
46.009182,9.340611,Sasso Mattolino,1508.0
46.17035,8.539673,Cima di Caneto,1913.0
46.062637,9.072853,Cima di Fiorina,1810.0
46.01068,9.448582,Pizzo di Goredo,1842.0
46.279617,9.325614,La Motta,1807.0
46.24794,9.334025,al Colman,1988.0
46.069355,9.0778475,Colmo di San Bernardo,1616.0
46.07597,9.079039,Monte Cucco meridionale,1624.0
46.121304,9.078715,Monte Segor,2097.0
45.788555,9.145335,Monte Orfano,554.0
46.25256,9.2101755,Il Pizzet,2218.0
46.243053,9.217813,Piz di Agnon,2208.0
46.231678,9.218968,Pizzo Paglia,2593.0
46.229507,9.224616,Punta Michele,2516.0
46.234074,9.208828,Sass Mogn,2440.0
46.241436,9.19754,Torrion,2030.0
46.348892,9.081987,Piz da Termin,2899.0
46.34919,9.088451,Motton,2739.0
46.367645,9.092901,Piz Giümela,2445.0
46.26803,8.776032,Madom da Sgióf,2265.0
46.38886,9.087234,Piz di Strega,2912.0
46.39994,9.095771,Pizzo del Ramulazz,2915.0
46.411736,9.102788,Pizzo Pianacio,2832.0
46.432156,9.089006,Cima dei Cogn,3063.0
46.4437,9.087006,Cima Rossa,3161.0
46.448864,9.09231,Piz Piotta,3121.0
46.460396,9.094919,Puntone della Parete,2984.0
46.47095,9.085108,Puntone dei Fracion,3202.0
46.336403,9.066456,Cima d'Oerz,2706.0
46.04773,9.089245,Cime di Bronzone,1396.0
46.222626,8.800293,Madone,2039.0
45.88669,9.377768,Forcellino,1280.0
45.838085,8.553483,Monte alle Croci,628.0
46.45568,8.998526,Cima di Gana Rossa,2786.0
46.448063,9.000496,Cima di Piancabella,2671.0
45.90506,9.402058,Corno del Nibbio Settentrionale,1368.0
46.01521,8.552371,Il Pizzo (Toden),1644.0
46.00933,8.535237,Pian Cavallone,1564.0
46.23508,9.330999,Pizzo d'Alterno,2397.0
46.246323,9.281759,Quota,2197.0
45.920856,9.377075,Torrione Cecilia,1803.0
45.861958,9.444712,Pizzo d'Erna,1366.0
46.10809,8.851263,Tamaretto,1604.0
46.26621,8.501084,Cima del Lago,2172.0
46.271423,8.5000515,Om Cupign,2219.0
45.915142,9.24054,Monte Ponciv,1452.0
46.221462,8.519429,Cima di Fracchia,2207.0
46.210247,8.79049,Cima della Trosa,1869.0
46.182117,8.624123,Pianascio,1643.0
46.18117,8.628755,Pizzin,1510.0
45.991253,8.855516,Monte Mondini,814.0
45.977432,8.858856,Monte Rocchetta,634.0
45.732414,8.696117,Torre Daverio,364.0
46.20632,9.34022,Motto della Croce,1887.0
46.185734,9.335143,La Motta,1283.0
46.09927,9.207911,Sasso di Bellarona,2087.0
46.113018,9.190962,Cima Simmetral,2018.0
46.120644,9.254802,Sasso di Musso,1140.0
46.18129,8.518565,Cresta di Moriming,1995.0
45.922703,9.392029,Cima di Campione,2149.0
46.11181,9.035934,Cima Moncucco,1725.0
46.11716,9.03587,Mataron del Matro,1551.0
46.13472,9.051279,Cima Calescio,2035.0
46.117496,9.025943,Mataron dei Cugnoli,1433.0
45.830414,9.003329,Collina del Penz,491.0
46.158295,8.76303,Monte Verità,403.0
45.97685,9.121078,Monte Costone,1441.0
46.27666,9.13001,Mottan,1798.0
46.286934,9.137039,Piz di Renten - Cima Nord,1973.0
46.28257,9.134604,Piz di Renten,2000.0
46.413887,9.460108,Schwarzseehorn,2862.0
46.435326,9.4977665,Chlin Horn,2869.0
46.44924,9.497783,Grosshorn,2781.0
46.127872,8.86969,Cimetto,1615.0
46.10559,8.876264,Motto Rotondo,1928.0
46.13365,8.87464,Poncino della Croce,1471.0
46.115463,8.866612,Poncione del Macello,1719.0
46.132187,8.87274,Uomo del Sasso,1522.0
46.043747,8.663798,Cima Ologno,1132.0
46.436348,9.169834,Cima de la Fopela,2377.0
46.39762,9.195715,Piz de Front,2234.0
46.40702,9.184827,Piz de Trescolmen,2582.0
46.411385,9.176537,Alta Burasca,2634.0
46.313503,9.074951,Mottone Rosso di Grav,2692.0
46.367504,9.070109,Pizzo Bidensc,2265.0
46.363266,9.07027,Pizzo Scarion,2335.0
46.239666,8.892946,Pizzo Vogorno,2442.0
45.891903,8.927147,Poncione d'Arzo,1015.0
46.45871,8.741053,Cima del Lambro,2273.0
46.476063,8.729452,Cima di Filo,2265.0
46.46205,8.729238,Pizzo Varozzeira,2496.0
46.460274,8.73148,Punta delle Loite,2418.0
46.085457,9.410869,Matòk dol Petóo,2305.0
46.08271,9.439404,Pizzo di Valtorta,2280.0
46.094887,9.41488,Monte Legnone,2609.0
45.88249,8.637369,Monte Sangiano,532.0
46.228226,9.264938,Mot da Sterlèra,2218.0
46.317387,9.085652,Forcel,2577.0
46.31872,9.090213,Mottone,2215.0
46.32406,9.065748,Piz di Campedell,2724.0
46.173992,8.567828,Punta della Forcoletta,1785.0
46.208656,9.247546,Bastione di Stavel,1942.0
46.18133,9.250444,Monte Piaghedo,1454.0
46.210667,9.253137,Pic de Stavel,2192.0
46.247345,9.248261,Pizzo d'Uria,2287.0
46.298683,8.733617,Poncione Piancascia,2360.0
45.960003,9.446909,Rocca di Baiedo,759.0
46.235626,9.267141,Punta Tarabini,2335.0
46.230934,9.349344,La Sentinella di Campedello,2249.0
46.147053,9.031672,Pizzo di Corgella,1703.0
45.87657,9.211532,Braga di Cavallo,1354.0
46.022385,9.010149,Sasso Rosso,1294.0
46.43853,8.57536,Taneda,2328.0
46.417343,8.572468,Pizzo della Rossa,2576.0
46.05663,8.876263,Sasso,1201.0
46.05973,8.855962,Monte Magino,1589.0
46.048454,8.847517,Poncione di Breno,1654.0
46.05445,8.855037,Zottone,1569.0
46.04741,8.84112,Piano del Poncione,1624.0
45.897804,9.275451,Monte Colla,1097.0
46.454372,9.1706705,Motton,2155.0
45.698753,8.575561,Motto Solivo,377.0
45.92194,9.377318,Campaniletto del Rifugio,1780.0
45.920692,9.376163,Torrione del Cinquantenario,1743.0
45.770615,9.383308,Monte di Brianza,889.0
46.40007,9.019105,Pizzo Muncrech,2251.0
46.346096,9.022597,Cima di Biasca,2574.0
46.344734,9.014358,Cima di Lago,2496.0
46.342827,9.035977,Cima di Muscioi,2503.0
46.34219,9.011332,Masnan,2505.0
46.343643,9.027323,Motta d'Osogna,2524.0
46.358894,9.014745,Mottone di Cava,2374.0
46.356586,9.022167,Mottone,2372.0
46.36136,9.008697,Pizzo Magn,2329.0
46.283726,8.715639,Pizzo Morisciöi,2065.0
46.285683,8.71836,Pizzo Croadino,2038.0
46.292374,8.723482,Pizzo Verde,1956.0
46.281826,8.753374,Pizzo Costisc,2244.0
46.259018,8.772613,Cima di Nimi,2191.0
46.307007,8.698656,Pizzo coca,2222.0
46.311108,8.70517,Pizzo Muretto,2257.0
46.316433,8.690396,Pizzo Albèr,2213.0
46.32027,8.690421,Sass d'Argent,2317.0
46.256386,8.633421,Güi,2187.0
46.261013,8.6431875,Madonnetto,1846.0
45.94579,8.796773,Monte Penegra,550.0
46.1828,9.084743,Sasso Guidà,1713.0
45.90515,9.063853,Dosso D'Arla,1170.0
46.38455,9.330567,Bel Motto,2156.0
46.05469,9.031495,I Vajolett,1461.0
46.03929,8.589898,Monte Bavarione,1505.0
46.429676,8.726084,Pizzo Campo Tencia,3071.0
45.96345,8.881159,Monte Caslano,525.0
45.921707,9.394827,Torrione Magnaghi Settentrionale,2078.0
45.92066,9.394984,Torrione Magnaghi Meridionale,2040.0
46.060547,8.822877,Col du Scimi,1217.0
45.90964,8.891968,Il Mottarello,471.0
46.19429,8.736548,La Colma,795.0
46.015923,8.545494,Monte Todano,1634.0
46.1634,8.534117,Monte Ziccher,1967.0
45.771736,9.491839,Col Fopa,770.0
46.188732,8.549282,Monte Corno,1508.0
45.937153,8.848545,Monte Marzio,878.0
46.15679,8.564615,Monte la Cavallina,1504.0
46.15976,8.518395,Il sassetto,1766.0
46.097424,8.544775,Monte Castello,897.0
46.11476,8.549672,Monte Netto,1317.0
46.083675,8.526039,Motto Cantè,1618.0
46.107845,8.527869,Testa Durone,1122.0
46.17182,9.170566,Monte Marmontana,2316.0
46.05208,9.060569,Cime di Noga,1511.0
46.483776,8.862413,Poncione di Nara,2433.0
46.48557,8.862291,Sasso Bianco,2416.0
46.174187,9.249193,Motto di Piaghedo,1360.0
46.13046,8.943986,Cima di Medeglia,1260.0
46.136185,8.978532,Matro,1201.0
45.725124,8.552999,Motto Caneva,308.0
46.248604,9.466974,Piz Tripartusa,1674.0
46.241104,9.462231,Sassel Bianch,1627.0
46.242706,9.460828,Motta de Marz,1645.0
46.261284,9.461024,Zuc dei Pradei,2107.0
46.090454,8.569994,Sasso Durone,799.0
46.257713,9.445138,Corno della Palada,1130.0
46.25153,9.444057,Motta Piana (Scima di Val Piscia),1158.0
46.257908,9.456675,Pizzo Torricchio,1752.0
46.257423,9.464574,La Paretaccia,2107.0
45.918213,9.28251,Dos del Grepignan,620.0
45.91053,9.291436,Sasso di Onno,450.0
46.275986,9.424907,Sasso Canin,1465.0
46.270515,9.421002,Sasso dell'Orla,988.0
46.263706,9.430527,Cima di Scarp,1366.0
46.46188,9.494518,Hougratli,2485.0
45.846855,8.7188,Groppolo,381.0
45.880043,9.388821,Corno Regismondo,1245.0
46.223347,8.550436,Creste,2060.0
46.218025,8.549939,Munzelum,2061.0
45.88231,8.848405,Monte Minisfreddo,1037.0
45.97766,8.502145,Motta d'Aurelio,934.0
46.051834,8.629659,Cima Tondone,1248.0
46.087906,8.557996,Monte Colmine,1212.0
46.04677,8.565968,Monte Vadà,1814.0
46.050064,8.597123,Cima Cerro,1334.0
46.059093,8.571289,Monte Barro,1281.0
46.037415,8.633022,Cima l'Alpe,1348.0
46.046642,8.640468,Cima Forcola,1303.0
46.103004,8.658174,Punta Fronzina,1699.0
46.116474,8.627443,Testa Fontai,1884.0
46.088108,8.621897,Sasso Drosa,1444.0
46.08358,8.6207695,La Colma,1424.0
46.22908,9.162984,Cima Grande,1579.0
46.215233,9.160573,Er di Caslet,896.0
46.277916,9.425213,Sas Canin,1571.5
46.488426,9.238898,Piz Vignun,2858.0
46.060997,9.058564,Cima dell'Oress,1705.0
45.778324,8.523451,Motto delle Rape,496.0
45.779903,8.519906,Motto del Lupo,515.0
45.779457,8.528712,Motto Mirabello,513.0
45.767544,8.534074,Motto Grande,434.0
45.76419,8.522385,Motto Lungo,404.0
45.724056,9.374094,Collina dei Cipressi,404.2
45.907818,9.254968,Doss del Fòò,1080.0
46.396164,8.770036,Pizzo della Bedéia,2666.0
46.37889,9.140145,Piz de Romonton,2214.0
46.38744,9.156245,Piz del Largè,2621.0
46.39015,9.143665,Mottan,2166.0
45.927563,9.181917,Piz del Luser,1405.0
45.962887,8.6051,Monte Cargiago,713.0
45.983498,8.61554,Pizzo d'Omo (l'Um),1067.0
45.95146,9.394931,Sasso di Grigna,1967.0
46.02157,9.294959,Sasso Sant'Ambrogio,669.0
46.46659,9.22541,Piz Motton,2854.0
45.742855,8.541519,Motto Carré,311.0
46.493454,9.304111,Motto Del Belvedere,2686.0
46.475163,9.329865,Monte Carden,2468.0
45.960278,9.417504,Zucco del Falò,1592.0
45.867046,8.855331,Monte Crocino,690.0
45.940647,9.014701,Cima dei Torrioni,1488.0
46.065636,9.04127,Mataron,1410.0
46.06395,9.053437,Catelina,1601.0
46.06641,9.066491,Cima alla Pianca,1599.0
46.48284,8.66721,Poncione Sambuco,2581.0
46.29925,8.9116,Poncione Rosso,2505.0
45.848038,8.9215975,Monte Astorio,474.0
45.988235,8.890025,Monte San Giorgio,398.0
46.2358,8.775333,Pizzit,1694.0
46.22564,8.782336,Chiegg,1453.0
45.77313,8.505273,Motto Pruschio,511.0
45.767162,8.502761,Motto Gaggioli,472.0
45.875237,8.816313,Munt dul Bagiò,891.0
45.88439,8.813567,Monte Vasera,1023.0
45.820568,9.475033,Monte Ocone,1351.0
46.20699,8.935975,Cimetta d'Orino,1820.0
46.216633,9.396304,La Scesa,1630.0
46.35512,9.407578,Pizzo Perandone,2455.0
45.7991,8.50303,Motta dell'Arbüjera,677.0
46.182228,9.158735,El Guardion,1962.0
46.195873,9.158843,Piott Ross,1703.0
46.174534,9.387653,Poggio di San Michele,317.0
46.17487,9.380897,Motto di San Giorgio,315.4
46.282814,9.429835,Chìent della Matra,1809.0
46.46251,8.971861,Cima Del Simano,2579.0
45.93687,8.997229,Monte S. Agata,939.0
46.346085,9.473974,Parossa,2128.0
45.922497,8.640125,Sasso Barbè,920.0
45.819637,9.107725,Poggio Mirigètt,861.0
45.952396,8.882972,Monte Castelletto,493.0
46.214188,9.344896,Sas Piz,2141.0
46.309734,9.015354,Cima Cioltro,1847.0
46.05475,9.0862875,Torrione di Val Fiorina,1384.0
45.878304,8.814819,Cima Gallina,903.0
45.86957,8.828969,Monticello di Pugazzano,644.0
46.47299,8.500836,Poncione di Val Piana,2660.0
46.49361,9.139418,Piz Moesola,2962.0
45.920902,8.860221,Sass Marsc,1001.0
45.82273,8.808117,Colle Campigli,453.0
46.058628,8.893277,Sotto Bar,1357.0
45.897446,8.75787,Monte Biota,617.0
46.006435,8.864784,Sciaroni,746.0
46.007538,8.871791,Ur Mött da Leléta,457.0
46.004242,8.841947,Monte Bedeia,702.0
46.015392,8.860973,Monte Pellegrino,602.0
46.016033,8.847601,Monte Perosa,872.0
45.890186,8.888026,Colle San Martino,393.0
45.88443,8.920197,Monte Croce,829.0
46.05886,8.751604,La Montagnola,931.0
45.855377,8.922465,Monte Albanascio,462.0
46.1016,8.806115,Monte Paglione,1554.0
46.094852,8.791714,Sasso Torricello,1423.0
45.83222,8.922343,Colle di San Maffeo,515.0
46.099342,8.893271,Camusio,1650.0
46.101402,8.885209,Cima Torrione,1783.0
46.016773,8.822353,Motto di Galbirona,909.0
46.03419,8.829054,Moncucco,1518.0
45.920033,8.697316,Monte Borghè,1002.0
46.220818,8.939725,Cima di Morisciolo,2202.0
46.227604,8.946223,Cima d'Erbea Orientale,2323.0
45.885113,8.959914,Sermonte,650.0
46.274555,8.960512,Cima di Visghéd,1924.0
46.266457,8.866838,Pizzo d'Eus,1730.0
46.10872,9.413067,Cima Scoggione,1703.0
45.83791,9.330461,Ceppo di Forcola,800.0
46.10911,8.886017,La Manèra,1858.0
46.09897,8.882809,Sasso Torrione,1547.0
46.07285,8.917686,Monte Barro,650.0
45.9177,9.401516,Torrione della Grotta,1714.0
45.92191,9.387646,Pilone Centrale,2079.0
45.921886,9.388681,Bastionata,2126.0
46.125748,8.659524,Mottone,1966.0
46.13377,8.666248,Pizzo Ometto,1846.0
46.12862,8.662207,Pizzo Fedora,1907.0
46.13076,8.610452,Testa di Misello,1596.0
45.719757,8.509772,Poggio Bazzona,402.0
46.472546,9.2361555,Piz de Val Rossa,2871.0
46.456066,9.204258,Motta d'Anzala,1802.0
46.46219,9.216634,Motton,2260.0
45.73353,8.544993,Motto Lagone,327.0
45.72731,8.562081,Motto Caneva,328.0
45.72271,8.5684395,Costa dal Pinin,327.0
46.246323,9.286339,La Tur,2010.0
45.847023,9.235904,Monte Barzaghino,1063.0
46.238815,8.797482,Pizzo di Corbella,2066.0
46.061256,9.122526,I Carac,1105.0
46.221985,9.317578,Testa d'Asino (Cò l'Asen),2202.0
46.216717,9.31583,Scima du Zoch,2102.0
45.921806,8.622754,Monte Cristo,385.0
46.036003,8.8511505,Cima Colletta,1151.0
45.813934,8.82575,Monte Albano,401.0
45.80151,8.859456,Colle Bustecche,418.0
45.83273,8.811751,Colle Miogni,492.0
46.031017,8.844104,Monte Rovrè,1104.0
46.204426,9.278977,Pizùn,1955.0
46.090557,9.090172,Monte Cucco settentrionale,1610.0
46.085815,8.931466,Motto Ferrino,919.0
46.0908,8.94999,Monte Bigorio,1188.0
45.92693,8.744663,Monte San Martino,1087.0
45.922127,8.674049,Monte la Crocetta,1117.0
45.98962,8.518016,Testa del Cremisello,1276.0
46.02625,9.454059,Forscelìin,2011.0
45.92934,9.161453,Sasso Calvarone,920.0
46.078346,8.666287,Monte Giove,1298.0
46.052505,8.530224,Monte Isoscele,1900.0
46.410255,8.924552,Matro,2172.0
45.992916,8.550446,Monte Turrioni,1108.0
46.034164,9.452654,Cameròlt,1947.0
45.82914,9.058587,Cardina,450.0
45.89396,8.855257,Monte Mater,780.0
46.085133,8.951505,Moschera,1167.0
45.88592,8.895918,Crocetta,530.0
45.89678,8.862157,Mater centrale,690.0
45.897236,8.867138,Mater orientale,651.0
45.944817,8.537852,Monte Rosso,693.0
46.266293,9.441044,Cima Lavina (Monte del Briz),1809.0
45.923878,8.870426,Monte Stivione,944.0
46.04498,8.5357275,Monte Zeda,2156.0
46.045006,8.562746,Cima quota,1836.0
46.04045,8.769779,Monte Bedorè,740.0
46.03942,8.764618,Monte Formica,711.0
46.03841,8.756413,Motti dei Ronchetti,702.0
45.951073,9.029538,Cima Boll,1390.0
46.48464,9.376383,Pizzo Spadolazzo,2722.0
46.261017,8.529586,Rosso di Ribia Cima E,2541.0
45.85607,8.784826,Monte San Francesco,794.0
45.900078,9.469392,Cima di Mus'ciada,1459.0
45.983112,8.594329,Sasso Corbe,1066.0
45.82236,9.029149,Dosso Pallanza,562.0
46.03124,8.893461,Cervello,974.0
45.826244,9.029877,Maiocca,440.0
45.855812,8.929218,Montalbano,439.0
46.22549,9.300415,Croce di Ledù,2047.0
46.492558,8.626971,Pizzo del Corno,2500.0
46.485645,8.643923,Piattelli del Piatto,2455.0
46.48119,8.654083,Pizzo Scheggia,2559.0
46.25234,8.565999,Colmetta,2082.0
46.25436,8.55431,Salariel,2316.0
45.806175,9.064689,Monte Croce,550.0
46.130787,8.952323,Motto della Costa,1164.0
46.126038,8.950118,Motto Rotondo,1203.0
46.206356,8.887543,Forcarella,1642.0
46.196213,8.875328,Mattarone,1185.0
46.155712,9.080088,Motta Grande,1564.0
46.19488,9.136004,Corno di Cadin,1835.0
46.19145,9.134969,Mot della Cros,1936.0
45.89721,8.794186,Monte Sere,668.0
45.881012,8.851682,Monte San Bernardo,1020.0
45.800827,8.6846,Monte di Travedona,355.0
45.79203,8.688862,Monte Ternate,381.0
45.819298,8.611373,Monte del Prete,299.0
45.824306,8.613373,Monte dei Nassi,268.0
46.208958,9.119457,Motta de Rodas,1519.0
46.210503,9.156053,La Rodonda,961.0
45.805847,8.829282,Monte Bernasco,400.0
45.821724,8.856546,Belmonte,421.0
45.801453,8.831485,Colle di Sant'Albino,406.0
45.8268,8.830519,Colle di Biumo,439.0
45.810493,8.832325,Colle di San Pedrino,402.0
45.810246,8.847083,Colle di Giubiano,413.0
45.87035,8.818851,Sgarbaz,780.0
45.854126,8.808146,Mutarel dul Pisin,571.0
45.90704,8.878765,Dosso di Cavagnano,599.0
46.019104,8.879976,Montaccio,930.0
46.006287,8.885265,Monte Calangelo,810.0
46.043335,8.901934,Monte Induno,897.0
45.998573,8.881281,Monte Santa Maria,777.0
46.012333,8.886007,Monte San Bernardo,898.0
45.894543,8.627404,Monte Gaggio,369.0
45.90068,8.605602,Le Motte,323.0
45.87412,8.602214,Motta Cipollina,330.0
45.864674,8.607042,Sasso d'Arolo,275.0
45.86712,8.614325,Monte di Ballarate,299.0
45.831116,8.635153,Motta Pivione,256.0
45.869335,8.761351,Punta di Mezzo,1227.0
45.849888,8.547701,Motta Rossa,690.0
45.83769,9.182884,Doss da la Mùla,1304.0
46.467342,9.413431,La Forbice,3170.0
46.454346,9.270827,Pizzi dei Piani SW,3149.0
46.46803,9.414187,Guglia Centrale,3160.0
46.493404,9.280503,Il Dente,3151.0
46.25601,8.935463,Filo delle Lettere,2115.0
46.304806,8.828591,Pizzi del Rabbioso,2267.0
46.312626,8.837041,Pizzo del Motto,2373.0
46.292744,8.866474,Matarello,2173.0
46.286415,8.860441,Tòr,1920.0
45.86941,9.382955,Pizzetti,541.0
45.92092,9.385098,Ago Teresita,1860.0
45.92093,9.384697,Torrione Clerici,1930.0
46.277435,8.576018,Pizzo Alzasca,2261.0
45.88603,8.820562,Monte Muraccio,945.0
45.739532,9.498614,Col Scarlasc,587.0
45.96787,9.400058,Il Dente,1704.0
45.968822,9.430977,Costa Panic,1069.0
46.10365,8.919699,Monte Cisterna,821.0
46.28519,9.4720955,Monte Beleniga - cima E,2639.0
46.299553,9.047174,Torrone Rosso,2429.0
46.261208,9.076828,Piz de Martum,2039.0
46.27851,9.073652,Motta de Carnac,2024.0
45.88471,9.401268,Pizzo Boga,890.0
45.977184,9.466652,Zucco dell'Orso,1139.0
46.1914,9.211921,Sasso di Camedo,1702.0
46.20713,9.220362,Sas Camuscè,2233.0
46.206306,9.224063,Mot da Gherina,2065.0
46.495888,9.19807,Pizzo Uccello,2718.0
46.237274,8.666462,Puncio,1854.0
46.21359,8.699952,Pizen,1537.0
46.29207,8.823694,Poncione d'Alnasca,2300.0
46.192963,8.957164,Mött,1307.0
46.096546,8.953466,Matro di Stinchè,1152.0
46.101086,8.954003,Cima di Lago,1147.0
46.425068,8.50772,Pizzo Pecora,2316.0
46.093227,9.464904,Dosso Lungo,1906.0
46.435623,8.721135,Pizzo Crozlina,3010.0
46.43024,8.759578,Poncione del Laghetto,2769.0
46.379986,9.232627,Ruina Castello,752.0
45.91369,8.648488,Pizzo di Costaccia,968.0
45.893784,9.111027,Monte San Bernardo meridionale,1348.0
45.90281,9.014269,Dosso delle Mede,1157.0
45.8765,9.394477,Corno Medale,1029.0
46.05911,9.045009,Cima Palazzi,1478.0
46.058067,9.038312,Sass dal Gatt,1462.0
46.05395,9.029455,Paretina dei Chiodi,1483.0
46.0507,9.018526,Cima di Castello,1432.0
45.883774,8.843794,Cima Forata,925.0
45.880455,8.841044,Dente Colombo,710.0
46.496864,9.495452,Grimsla,2651.0
46.35156,8.885786,Pizzo Pian Forno,2302.0
46.345818,8.862382,Cima d'Efra,2577.0
45.86986,8.549462,Motta del Santo,520.0
45.868347,8.541153,Motta Vinea,567.0
45.968296,8.9099245,Monte Croce,655.0
45.96448,8.909165,Mattorino,585.0
45.967426,9.399177,Dentino,1673.0
46.089046,8.921708,Motto dei Fiori,437.0
46.451675,8.707135,Mognoi,2650.0
46.44763,8.691645,Cima di Sassalto,2428.0
45.928455,9.059308,Mater,1345.0
46.33658,8.550965,Pizzo della Rossa,2482.0
46.342976,8.570047,Madonino,2121.0
46.34374,8.536361,Pizzo d'Orsalietta,2475.0
46.340424,8.532869,Madone,2477.0
46.3361,8.522505,Camino,2489.0
46.339226,8.506645,Pizzo d'Orsalìa,2664.0
46.376812,8.500785,Pizzo Piènsgia,2569.0
46.203915,8.70641,Testin,1422.0
46.330666,8.563553,Madone di Camedo,2374.0
46.353188,8.545884,Pizzo della Cazzana,2348.0
46.37117,8.509349,Pizzi di Valeri,2447.0
46.409924,8.563389,Pizzo dei Foiòi,2409.0
46.43494,8.618542,Pizzo del Piatto di Röd,2616.0
46.426064,8.625515,Pizzo Mascarpino,2452.0
46.180813,8.575798,Pizzo di Mezzodi,1806.0
46.19213,8.617016,Mataruch,1152.0
46.20113,8.711716,Testa,1357.0
46.48925,8.675298,Pizetto,2277.0
46.492092,8.6760235,Pizzo Meda,2272.0
46.49688,8.6691,Motto della Croce,2052.0
46.484596,8.70216,Pizzo di Mezzodi,2640.0
46.490055,8.699144,Pizzo Piano d'Ört,2326.0
46.249283,9.281451,Piz de l'Avartel SO,2130.0
46.250454,9.282192,Piz de l'Avartel,2146.0
46.251648,9.283898,Piz de l'Avartel NE,2127.0
46.255157,9.288908,Mut Ròsa,2083.0
46.265247,8.55138,I Gemelli,2441.0
46.214504,8.644104,Pizzo della Croce,1825.0
46.211754,8.626828,Teste,1427.0
46.226677,8.648404,Pizzo del Gallo,1996.0
46.2433,8.626717,Al Pizz dala Bássa,2024.0
45.82944,8.969564,Monte Prato,535.0
46.485737,9.426268,Pizzo Crotto,2894.0
45.828197,9.382359,I Corno,815.0
45.827427,9.3832035,II Corno,803.0
46.121017,8.945097,Motto della Coda,1046.0
46.169907,8.523603,Granda Rossa,2043.0
46.457703,9.131292,La Guardia,2523.0
46.25509,9.198388,Piz d'Ugin,1984.0
46.08477,8.946868,Rotondo,1048.0
46.143475,9.023179,Cucchetto,1570.0
46.24442,8.785838,Mött di Pègor,2169.0
46.360497,9.188451,Piz del Palo,2200.0
46.30454,9.167066,Motta Genuc,1627.0
46.33572,9.180434,Pizzet,2177.0
46.339016,9.189915,Motta de Riveu,1927.0
46.481197,9.225431,Piz de la Lumbreida,2982.0
46.49357,9.219206,Motta del Caslasc,2301.0
46.471855,9.058741,Pizzo Nass,2994.0
46.48924,9.01964,Cima del Laghetto,2695.0
46.4862,9.018173,Uomo di Sasso,2675.0
46.48325,9.011416,Forca di Casséo,2654.0
46.4805,9.002602,Pizzo Forca,2585.0
46.47206,8.983793,Cima dei Toroi,2652.0
46.449024,8.880035,Pizzo Caslett,2293.0
46.445087,8.884636,Pizzo Alto,2356.0
46.43827,8.893189,Pizzo Erra,2416.0
46.431187,8.904201,Pizzo Pianché,2228.0
46.421547,8.911244,Pianca Bella,2164.0
46.416172,8.91747,Cogn,2166.0
46.3933,8.783093,Pizzo Campale,2481.0
46.393635,8.78762,Pizzo del Laghetto,2442.0
46.3936,8.814974,Poncione Croara,2574.0
46.396393,8.81796,Poncione la Fopa,2466.0
46.389717,8.731708,Pizzo Campala,2645.0
46.384922,8.732143,Madàs,2739.0
46.359306,8.711722,Triangolino,2591.0
46.346867,8.694036,Pizzo dei Chènt,2444.0
46.333817,8.690865,Pizzo del Cocco,2339.0
46.319984,8.645093,Pizzo Castello,2109.0
46.27049,8.950971,Scima da Sbordann,1875.0
46.335636,8.730406,Rasiva,2684.0
46.33533,8.741036,Sgemögna,2545.0
46.340847,8.751399,Cima di Cardèd,2228.0
46.114864,9.002594,Cima di Screvia Süd,1586.0
45.93796,8.993747,I Doss,779.0
46.465702,8.7360935,Scheggione,2117.0
46.122986,9.263932,Monte Crocetta,952.0
46.19856,9.058754,Motto della Conca,1304.0
46.164547,8.57733,Monte Rotondo,1031.0
46.12775,8.659114,Pizzo dei Laghetti,1879.0
46.259136,8.941205,Cimetta di Pianascio,1946.0
45.862568,9.32315,Corno di Canzo Occidentale,1373.0
46.071884,9.168963,Motter,1204.0
46.226963,8.838042,Motto del Laghetto,1157.0
46.24993,8.823123,Motom,1822.0
45.91065,9.050991,La Colman,1136.0
46.296932,9.251769,Scima di Laghit,2308.0
46.340393,9.251371,Piz de Cogol,2024.0
46.33461,9.262924,Corni di Poz,2208.0
45.851093,8.842249,Colle San Bernardino,440.0
46.348885,9.283665,Motasc,2548.0
46.07259,9.474291,Cima di Mezzana,2309.0
46.150043,9.203705,Piz dal Matter,1734.0
46.007305,8.624215,Monte Piancompra,1307.0
46.009174,8.638784,Colma della Nevia,1079.0
46.454018,8.632734,Pizzo del Piatto,2484.0
46.451385,8.630288,Pizzo dei Tirz,2536.0
46.469715,8.619684,Pizzo Sciresa,2327.0
46.270485,8.783084,Motarüch,2011.0
46.247223,8.778627,Cima,2099.0
46.419888,8.6784,Motto del Fornale di Rüscada,2090.0
46.415115,8.674858,Motto della Fame,2119.0
46.105484,9.03542,Torrettone,1553.0
46.21351,8.597071,Al Moton,1769.0
46.290855,8.549833,Montaccio,1613.0
46.008938,9.341273,Cima di Dasio,1510.0
46.322342,9.002388,Cima di Basso,1698.0
46.389435,8.855289,Filo d'Afata,1972.0
46.240616,8.969494,Cimetta,2031.0
46.245834,8.978601,Cima d'Aspra,1848.0
46.264877,8.944971,El Mött dal Tir,1814.0
46.30941,9.281569,Pizzo dello Strecciolino,2585.0
46.36243,8.682799,Larasedo,2043.0
46.490738,8.657621,Motto del Toro,2219.0
46.432243,9.076744,Cavallo Bianco,2815.0
46.136967,9.103557,Motto di Leveno,2022.0
46.301697,8.926298,La Scíma da Stüéll,2312.0
46.320103,9.031638,Mottale,2169.0
46.499943,8.601782,Pizzo di Mezzodì,2654.0
46.26729,8.6489315,Zucchero,1648.0
46.42439,8.7914505,Uomo di Moncucco,2305.0
46.255333,8.758986,Cròs Pizzitt,1952.0
46.28639,8.599096,Scima di Müzz,1859.0
46.149975,9.101274,Scrigno di Poltrinone,1957.0
46.308937,8.917655,Punta di Sgiuèll,2005.0
46.44835,9.459773,Russa,2726.0
46.28166,8.562366,Pizzo Mezzodì,2223.0
46.345604,9.017446,Cima di Lago,2544.0
46.352657,8.851811,Cima di Nèdro,2622.0
46.431488,8.813163,Motte Albei,1866.0
46.212795,9.193945,Piz del Papagal,2353.0
46.3245,8.876637,Sprügh Rosso,2205.0
46.412598,9.057054,Poncione di Piancalunga,2332.0
46.264687,8.528678,Rossa,2284.0
46.32093,8.853649,Cima del Rosso,2444.0
46.47595,8.683229,Pizzo Massari,2760.0
46.324753,8.663769,Sasso Bello,2295.0
46.35281,9.164776,I Corn de Golin,2376.0
46.299305,8.916081,La Scíma da Vacarísc,2424.0
46.269505,8.913287,La Scíma do Picóll,2439.0
46.27708,9.062365,Pizzo di Morinere,2254.0
46.468838,8.666908,Sasso del Calaséd,2263.0
46.49276,8.57082,Campanile,2740.0
46.275932,8.5280075,Cima dei Larici,1814.0
46.432457,8.803819,Motte Alte,2024.0
46.371002,8.868459,Fòpp,2254.0
46.38341,8.612844,Pizzo Fiorasca,2362.0
46.344906,9.073681,Torent Alto,2956.0
46.380863,9.141122,Piz del Romonton,2215.0
46.27262,8.911555,El Ponción di Leghítt,2445.0
46.399166,8.575526,Rosso,2604.0
46.418045,8.639858,Corona dei Sasselli,1772.0
46.31476,9.024587,Stegnone,2029.0
46.368546,8.608949,Pizzo Paràula,2282.0
46.309223,8.7137785,Cima di Cuaschia,2130.0
46.3251,9.292789,Mot de l'Asen,2222.0
46.229134,8.549018,Al Métt di Salèi,1729.0
46.458424,8.724122,Pizzo Lei di Cima,2680.0
46.307,8.939063,Cima delle Pecore,2060.0
46.292767,9.088819,Motton,1982.0
46.461906,8.780305,Sasso Cristallina,1744.0
46.42776,8.77181,Motta delle Fontane,2559.0
46.47453,8.689513,Pizzo della Sassada,2710.0
46.262638,8.911921,La Scíma di Péüri,2394.0
46.434196,8.79461,Pizzo dei Merli,2517.0
46.46422,9.154938,Pan de Zucher,2601.0
46.39354,8.611386,Pizzo della Vena Nuova,2245.0
46.33371,8.554558,Madonino,2483.0
46.383762,8.588074,Pizzo Malora,2640.0
46.364986,8.857305,Cima di Partüs,2460.0
46.41034,8.741387,Pizzo dei Piodisc,2849.0
46.348522,8.540338,Ciavena Alta,2394.0
46.47758,8.6545,Pizzo del Corte Vecchio,2412.0
46.24319,8.5978775,La Pianchína,2028.0
46.334766,9.006141,Cima di Stabbiello,1957.0
46.38431,8.847981,Om Piategn,2310.0
46.280975,9.264408,Piz Forcletta,2428.0
46.38194,9.262994,Piz Calchen,2299.0
46.45804,9.011359,Pizzo di Sceru,2627.0
46.354668,8.676995,Medee di Pietro,2089.0
46.28073,8.832606,Föpia,2128.0
46.324127,9.049237,Cima di Piancra Bella,2383.0
46.285618,9.097855,Zanella,1845.0
46.290825,8.814319,Agazzòi,1875.0
46.40689,9.083419,Pizzo Caldözz,2681.0
46.39009,8.844139,Sasso Marcio,2042.0
46.263138,8.54848,La Culmèta,2467.0
46.33236,8.897328,Motto dei Ciavéi,1656.0
46.4462,8.789834,La Motta,2234.0
46.367455,8.673309,Motto Rotondo,1611.0
46.446796,8.639948,Pizzo Piandugiöi,2265.0
45.865158,9.384223,Colle Santo Stefano,258.0
45.931423,8.771191,Colle di San Giuseppe,339.0
45.831165,8.529723,Monte San Salvatore,794.0
45.735554,9.344818,Lissolo,555.0
45.72013,9.336805,Crocione,504.0
45.97694,9.495841,Corneasso,1751.0
45.931335,9.321763,Zucco Vignosca,406.0
45.76696,8.9702635,Montcucch,409.0
