latitude,longitude,name,elevation
-18.815453,-70.29453,Cerro Lobos,805.0
-18.507147,-70.29967,Cerro Buitres,129.0
-18.631199,-70.326706,Cerro Camarcas,885.0
-18.50232,-70.30039,Cerro Ciudadela,112.0
-18.830265,-70.342705,Cerro Argolla,762.0
