latitude,longitude,name,elevation
-40.811134,-62.96924,Cerro de la Caballada,40.0
-40.742634,-63.123863,Cerro Churlaquín,44.0
-40.934547,-62.837902,Cerro Dirección,32.0
-41.14282,-63.11085,Cerro Alegría,54.0
-41.156242,-63.25542,Cerro Enmiria,54.0
