latitude,longitude,name,elevation
43.403435,12.0395155,Monte Favalto,1081.0
42.944447,12.118364,Montarale,854.0
42.66498,12.321484,Monte Melezzole,994.0
43.19746,12.35333,Monte Tezio,961.0
43.477234,11.651462,Poggio di Montozzi,407.0
42.64018,11.539307,Monte Cavallo,351.0
43.449993,11.954592,Poggio di Via Maggio,692.0
43.456062,11.956181,Poggio dei Vecchi,698.0
43.478535,11.990895,Poggio di Scanno,917.0
43.48893,11.991827,Monte Pian di Maggio,864.0
43.492935,11.990061,Capo Monte,857.0
43.217575,12.14416,Poggio Bandito,635.0
43.229153,12.134949,Poggio Castelluccio,744.0
43.2349,12.123906,Monte Castiglione,802.0
43.250835,12.100636,Poggio della Croce,779.0
43.260464,12.097538,Monte Maestrino,815.0
43.275738,12.086526,Monte Ginezzo,927.0
43.282604,12.076745,Poggio Le Rocche,921.0
43.29628,12.036234,Monte Melello,953.0
43.292747,12.026173,Monte Cuculo,923.0
43.30078,12.02034,Monte Spino,951.0
43.3121,12.002852,Alta di Sant'Egidio,1056.0
43.389965,11.913933,Monte Camurcina,846.0
43.38404,11.920061,Poggio Altoviti,844.0
43.37949,11.92629,Poggio Cavadenti,853.0
43.37501,11.9398575,Poggio Cerota,772.0
43.365295,11.939386,Monte Castiglionmaggio,756.0
43.379417,11.983557,Monte Corneta,740.0
43.359257,12.025124,Poggio Montanina,719.0
43.3474,12.015653,Poggio Tondo,671.0
43.34143,12.0047,Poggio della Fornace,608.0
43.33898,11.998135,Poggio Belvedere,608.0
43.405148,11.883007,Monte Lignano,835.0
43.393642,11.905679,Pianacci,808.0
43.40666,11.936863,Monte Gavino,701.0
43.07424,11.780147,Poggio di Totona,684.0
43.00851,11.812194,Poggio Pietraporciana,847.0
43.060574,11.794935,I Poggiardelli,710.0
43.14506,11.67522,Poggio Lecceto,594.0
42.940422,11.871273,Sopra il Varco,1017.0
42.710274,11.7369175,Poggio Orlando,600.0
42.719826,11.694715,Monte Elmo,829.0
43.265453,12.30677,Monte Acuto,926.0
42.82054,11.525936,Monte Labbro,1193.0
43.152275,12.380258,Monte Pacciano,637.0
42.818104,12.209587,Monte Peglia,837.0
42.978554,12.463367,Monte Le Cinque Querce,646.0
43.127026,12.307326,Monte Malbe,646.0
43.47097,11.977585,Alpe di Poti,972.0
42.76677,11.675524,Monte Nebbiaio,1078.0
43.20288,12.344568,Croce della Pieve,942.0
43.1792,12.379048,Monte Civitelle,632.0
42.791763,11.8912945,Monte Rufeno,720.0
42.999035,11.503291,Poggio d'Arna,523.0
42.91471,11.844936,Poggio Gello,761.0
43.432526,11.511659,Monte di Valdenano,693.0
43.28795,11.527986,Poggio Bussi,330.0
43.297417,11.522495,Poggio Montecercone,330.0
43.28044,11.512617,Poggio Premoli,302.0
43.294422,11.504401,Poggio Premolino,308.0
43.27497,11.578611,Monte Mori,310.0
43.430725,11.567195,Monte di Rota,650.0
43.398167,11.581367,Poggio Santa Lucia,355.0
43.266663,11.52568,Poggio di Calceno,306.0
43.26513,11.536229,Poggio di Crofeno,289.2
43.232853,11.569806,Poggio del Leccio,264.0
43.26278,11.544595,Poggiodarno,299.0
43.21864,11.549275,Poggio Santa Lucia,330.0
43.1402,11.573298,Il Poggione,355.0
43.203705,11.674447,Poggio Adorno,486.0
43.225193,11.658852,Poggio Cannelle,449.0
43.2211,11.670759,Poggio Colledino,442.0
43.164276,11.596109,Poggio Val di Rigo,350.0
43.125984,11.694145,Poggio al Fiele,435.0
43.196877,11.679669,Poggio del Castagnolo,473.0
43.211777,11.6675825,Poggio delle Lastraie,436.0
43.017952,11.508901,Poggio delle Macioche,554.0
43.146103,11.704143,Poggio i Lagacci,571.0
43.132244,11.710661,Poggio della Cava,502.0
42.982,11.644265,Il Poggio,424.0
42.95799,11.65386,Poggio Bicchieri,651.0
42.990097,11.701268,Poggio Colombaiolo,368.0
43.08618,11.5141325,Poggio Gambocci,330.0
42.965748,11.690393,Poggio Garofano,421.0
43.041748,11.72904,Poggio Meriggi,444.0
43.060738,11.740895,Poggio Oppio,613.0
42.968334,11.7231655,Poggio Perignano,545.0
42.980408,11.678634,Poggio Pian Carletti,401.0
43.057713,11.745938,Poggio Piano,635.0
42.960377,11.727885,Poggio Reggiano,617.0
43.138428,11.543925,Poggio Saltarello,317.0
43.10466,11.710742,Poggio San Pietro,525.0
42.9714,11.681184,Poggio del Banditone,448.0
43.083122,11.734091,Poggio Tullio,541.0
42.881634,11.621156,Corno di Bellaria,1616.0
42.87718,11.597987,La Montagnola,1571.0
42.969246,11.540679,Monte Cucco,322.0
42.867527,11.589053,Poggio Biello,1298.0
42.91216,11.513259,Poggio Cannella,419.0
42.866955,11.577328,Poggio Falco,1214.0
42.974274,11.54988,Poggio Fornello,284.0
42.871098,11.602801,Poggio Lombardo,1368.0
42.864613,11.56917,Poggio Pinzi,1154.0
42.89978,11.59926,Poggio Sasso dei Falchi,1187.0
42.920364,11.660933,Poggio Seragio,1117.0
42.836708,11.643052,Poggio Spino,952.0
42.923565,11.617078,Poggio al Sole,905.0
42.87143,11.589076,Poggio del Razzo,1311.0
42.83416,11.639043,Poggio del Riccio,985.0
42.918285,11.645864,Poggio dell'Ermicciolo,1100.0
42.952267,11.621192,Poggio della Castellaccia,618.0
42.86944,11.575183,Poggio della Pescina,1199.0
42.83015,11.622782,Poggio della Ruota,818.0
42.88318,11.616094,Poggio di Bellaria,1574.0
42.91079,11.60656,Poggio di Capo Vetra,1123.0
42.867077,11.564027,Sasso della Vettoria,1156.0
42.877384,11.523185,Poggio del Diavolo,718.0
43.161125,11.69383,Piazza di Siena,643.0
43.03118,11.937451,Monte Venere,408.0
43.0346,11.785656,Poggio Andreana,678.0
43.03474,11.812073,Poggio Bacherina,561.0
43.075195,11.815087,Poggio Fagianino,502.0
43.084473,11.816479,Poggio Il Faggeto,464.0
43.011795,11.915469,Poggio Montollo,376.0
43.03811,11.802185,Poggio Scopa,594.0
43.023373,11.921141,Poggio al Moro,306.0
43.029278,11.786796,Poggio del Costoni,618.0
42.92996,11.875807,Monte Cetona,1148.0
43.14053,11.507641,Poggio Munnese,236.0
43.13473,11.5166,Poggio dell'Amore,253.7
43.123093,11.651074,Poggio Castellaccio,471.0
42.836643,11.529753,Poggio Galizia,971.0
42.826336,11.517083,Poggio Pelato,1132.0
42.8337,11.522645,Poggio del Nobile,979.0
42.891605,11.508674,Poggio del Trivallo,741.0
42.828293,11.534653,Poggio dell'Allodola,977.0
42.877304,11.712522,Poggio Pago,650.0
42.91737,11.735342,Monte Nebbiali,649.0
42.906525,11.767986,Poggio Sassetta,810.0
43.135986,11.771534,I Poggi,418.0
43.12116,11.758741,Poggio al Gallo,441.0
43.418446,11.70592,Monte Acuto,536.0
43.30571,11.692207,Poggio Calcione Vecchio,473.0
43.436527,11.626588,Poggio Grande,360.0
43.430492,11.649958,Poggio Greta,379.0
43.43249,11.730145,Poggio Scopicci,530.0
43.383404,11.642467,Poggio Setona,462.0
43.403656,11.6349535,Poggio all'Olmo,533.0
43.433247,11.634931,Poggio del Cucino,388.0
43.440083,11.710953,Poggio di Casanovalta,625.0
43.44045,12.00888,Colle del Tono,724.0
43.432182,11.996054,Colle di San Donnino,671.0
43.416725,12.041103,Il Poggettino,879.0
43.405487,12.038066,Il Torriolino,1056.0
43.392097,11.973837,Monte Fonte Romana,731.0
43.39986,11.9757395,Poggio Ca' Dazzi,666.0
43.38971,11.97833,Poggio Castellare,745.0
43.41315,12.046885,Poggio Cerbone,943.0
43.388203,11.966704,Poggio Galloro,725.0
43.456905,12.026533,Poggio Palazzaccio,595.0
43.394497,11.964115,Poggio Palazzone,600.0
43.47201,12.082958,Poggio Peglia,515.0
43.411255,12.020963,Poggio Spino,937.0
43.420605,12.0115,Poggio dell'Aiola,890.0
43.41509,12.019778,Poggio della Caccia,912.0
43.43077,12.034058,Poggio delle Cerchiaie,864.0
43.420742,12.018993,Poggio dello Sbirro,935.0
43.456673,12.05997,Poggio di Felcino,667.0
43.428913,12.0020895,Poggio di Novole,752.0
43.434967,12.040603,Poggio di Bivignano,860.0
42.52245,11.5355015,Cerro dei Tre Confini,389.0
42.522713,11.52894,Fortelli,367.0
42.50961,11.567543,La Torretta,502.0
42.511086,11.573156,Monte Bellino,516.0
42.52713,11.500838,Piaggione,266.0
42.527603,11.55784,Poggi Alti,401.0
42.51978,11.55748,Poggi del Crine,424.0
42.510044,11.5559225,Poggio Castellaccio,428.0
42.50336,11.505612,Poggio Diaccialone,232.0
42.591408,11.556476,Poggio Filippone,407.0
42.518707,11.545234,Poggio Guardiola,437.0
42.51432,11.552116,Poggio Insoglione,435.0
42.553417,11.567781,Poggio La Vecchia,305.0
42.59129,11.5754175,Poggio Lungo,378.0
42.532604,11.512765,Poggio Petriccio,317.0
42.550358,11.56173,Poggio Sanopia,314.0
42.55847,11.57032,Poggio Sciavatte,281.0
42.556526,11.558041,Poggio Sorbo,328.0
42.56291,11.542892,Poggio Tortollo,303.0
42.579235,11.532355,Poggio dei Prati,399.0
42.52871,11.529567,Poggio del Corno,415.0
42.54702,11.531087,Poggio della Pila,256.0
42.504803,11.586726,Puntone dello Staro,510.0
42.514805,11.561708,Vetta del Castellaccio,490.0
42.79238,11.537264,I Poggi,773.0
42.821228,11.508175,Monte Farleto,1020.0
42.804478,11.504445,Monte Petricci,883.0
42.796528,11.542712,Poggio Buca della Rena,862.0
42.79644,11.526473,Poggio Cerrino,809.0
42.813183,11.502169,Poggio Cornetto,969.0
42.793247,11.516456,Poggio Crivello,812.0
42.82886,11.501997,Poggio Fabbrazzoni,1018.0
42.815483,11.5410595,Poggio La Banditella,1065.0
42.794125,11.535438,Poggio Meo,764.0
42.81344,11.528528,Poggio Petriccione,1041.0
42.791714,11.510225,Poggio Piantuma,787.0
42.801178,11.521135,Poggio Prato Manzi,893.0
42.811058,11.547034,Poggio Sassaiola,1020.0
42.790707,11.546803,Poggio del Ginestraio,781.0
42.593662,11.501254,Poggio Montecchio,391.0
42.7378,11.631349,Il Poggio,530.0
42.694435,11.648752,Poggio Capraio,371.0
42.74292,11.622108,Poggio Castelmaggi,490.0
42.736485,11.66752,Poggio Faggi Segnati,922.0
42.73314,11.673144,Poggio Fiorentino,900.0
42.72904,11.643758,Poggio Maggiolino,583.0
42.72866,11.669635,Poggio Monticello,844.0
42.742867,11.6585,Poggio Pelato,951.0
42.72351,11.685682,Poggio Pocorno,886.0
42.735332,11.674187,Poggio Poiacci,913.0
42.7277,11.679149,Poggio di Mezzo,795.0
42.771793,11.683662,Monte Civitella,1106.0
42.768463,11.669251,Monte Corno,1014.0
42.775677,11.674405,Monte Pulcino,885.0
42.786297,11.676312,Poggio Castellonchio,716.0
42.777016,11.684453,Poggio Ciabattino,979.0
42.792797,11.653304,Poggio Paiccione,854.0
42.738823,11.666976,Poggio Scaropaio,905.0
42.76846,11.678076,Poggio dell'Appaiaccia,1041.0
42.77419,11.667749,Poggio della Vecchia,1084.0
42.77484,11.654884,Ripa di Selvena,983.0
43.113953,11.555356,Poggio di Vergelle,342.0
43.108555,11.558365,Il Boschetto,343.0
43.30008,11.571475,Poggio Caldaria,280.0
43.000893,12.065327,Monte Pausillo,600.0
43.313625,11.6369,Poggio Capanna,629.0
43.282104,11.672531,Poggio l'Aiole,422.0
43.226673,11.605103,Poggio Rabatta,320.0
42.681698,11.705654,Poggio dell'Uovo,357.0
42.685955,11.718163,Castel Vecchio,487.0
42.686485,11.713806,Le Rocchette,385.0
42.997807,11.604056,Poggio alle Case,614.0
43.49932,12.361076,Monte Serriola,743.0
43.440144,12.363376,Monte Santo Stefano,667.0
43.448807,12.356209,Monte Casale,699.0
43.45362,12.488816,Passo del Cardinale,833.0
43.467804,12.479567,Cima dei Pietrilli,808.0
43.46119,12.385714,Monte Frontano,779.0
43.465305,12.379693,Col di Casenova,807.0
43.47304,12.354475,Monte Sodolungo,692.0
43.474255,12.386145,Il Montaccio,795.0
43.48987,12.399023,Monte Rosso,742.0
43.494053,12.42779,Monte Splendore,781.0
43.494488,12.438544,Il Montino,785.0
43.482475,12.457764,Monte Castellaccio,839.0
43.497326,12.484071,Monte Sorbo,753.0
43.47323,12.446992,Monte Macinare,799.0
43.4365,12.449804,Monte Martino,669.0
43.436848,12.463302,Castello,749.0
43.429462,12.4205475,Monte delle Croci,732.0
43.426308,12.382583,Monte Roncino,697.0
43.418594,12.386229,Col Celone,632.0
43.418396,12.475656,Monte Spesce,717.0
43.40773,12.4984865,Poggio San Biagio,739.0
43.40437,12.446216,Monte di Caipicchi,740.0
43.41035,12.442657,Cima di Sant'Anna,720.0
43.40436,12.412559,Monte di Castiglione,667.0
43.429867,12.307321,Monte delle Gorgacce,679.0
43.450058,12.205959,Monte Arnato,652.0
43.447803,12.193111,Monte Cedrone,762.0
43.435226,12.1967325,Poggio Rota,731.0
43.431297,12.199222,Poggio Cadinieri,707.0
43.410007,12.168563,Poggio Colcellone,638.0
43.497112,12.355626,Monte della Fossa,715.0
43.48575,12.336615,Macchia dei Monti,617.0
43.499508,12.319533,Monte Bironi,642.0
43.351616,12.402753,la Cima,707.0
43.360073,12.404211,Monte Ranchio,738.0
43.37084,12.430691,Montaccio,680.0
43.378044,12.423996,Monte Civitello,734.0
43.360104,12.389235,Monte di San Faustino,708.0
43.35087,12.371897,Poggio di Sant'Agata,620.0
42.894707,11.788675,Poggio Casano,706.0
42.915768,11.817449,Monte Calcinaio,732.0
42.99686,11.829059,Poggio Rotondo,828.0
43.01547,11.796486,Poggio Rullo,719.0
42.94129,11.665924,Poggio Campigliola,901.0
42.930668,11.674435,Poggio Zoccolino,1035.0
42.8557,11.605042,Poggio Trauzzolo,1200.0
43.48584,12.024876,Monte Veriano,770.0
43.481823,12.010327,Monte Bisciaio,777.0
43.477154,12.001015,Monte Primo,855.0
43.46912,12.005864,Monte Fontanella,721.0
43.40137,12.050882,Monte Girato,1026.0
43.4048,12.053543,Poggio del Locco,990.0
43.433716,12.081313,Monte Civitella,936.0
43.419044,12.068864,Monte Pagliaiolo,951.0
43.42331,12.090588,Poggio Sorbiglione,827.0
43.422344,12.111874,Poggio dei Contadini,749.0
43.424377,12.139288,Col di Fabbri,630.0
43.432503,12.125739,Poggio dei Cerri,651.0
43.436684,12.13316,la Rocchettina,613.0
43.440887,12.045484,Monte dei Sassi Bianchi,842.0
43.275707,12.292025,Monte Valcinella,692.0
43.280956,12.282068,Monte Saldo,620.0
43.260456,12.280867,Monte Filoncio,734.0
43.25223,12.245925,Monte Murlo,818.0
43.22919,12.24828,Colle Campana,798.0
43.21931,12.252058,Colle Galletto,749.0
43.208836,12.260696,la Montagnaccia,649.0
43.20812,12.244524,Colle Sassi Bianchi,707.0
43.230198,12.16213,Poggio Martino,660.0
43.2342,12.086342,Monte Castelluccio,747.0
43.23471,12.050315,Monte Castelnuovo,592.0
43.281826,12.116707,Monte della Croce,895.0
43.280315,12.13232,Monte Corvino,838.0
43.291386,12.122116,Poggio Caldesi,717.0
43.310318,12.088512,Monte Castellare,876.0
43.306877,12.051441,Monte Castel Giudeo,1037.0
43.325268,12.0440235,Monte Croce di Novoli,840.0
43.318214,12.052006,Poggio delle Doccia,967.0
43.33376,12.072605,Monte della Piana,919.0
43.34974,12.09093,Poggio della Piazza,805.0
43.357136,12.075652,Poggio di Bari,540.0
43.343468,12.010591,Poggio Alto,662.0
43.377632,12.020763,Poggio Fontanina,807.0
43.380844,12.02763,Monte Cerro Tondo,876.0
43.38668,12.027158,Monte Tamariglio,885.0
43.39519,12.023725,Monte Dogana,906.0
43.392666,12.074021,Monte Civitella,1005.0
43.393353,12.067455,i Monti,1008.0
43.396004,12.059859,Monte del Castello,971.0
43.391575,12.091745,Poggio Civitella,855.0
43.358505,12.115267,Poggio Fabbro,746.0
43.352264,12.119129,Colle Marchi,692.0
43.36375,12.144449,Monte Colcello d'Aldieri,638.0
43.319813,12.11201,Monte della Croce,763.0
43.327858,12.137669,Poggio le Liane,664.0
43.266804,12.470381,Monte delle Pòrtole,735.0
43.2543,12.489135,Monte Valmarcolone,658.0
43.395664,12.49965,Monte di Loreto,774.0
43.40818,11.571624,Monte dei Casucci,555.0
42.58706,11.606419,Poggio del Caggio,227.0
42.605576,11.682428,Poggio delle Conche,334.0
43.23795,11.507535,Poggio Santa Francesca,301.0
42.987602,11.562684,Poggio Casalone,262.0
42.957626,11.595555,Poggio Cuculo,683.0
42.9588,11.592257,Poggio Granai,671.0
42.9561,11.588597,Poggio alla Lite,651.0
43.445423,11.5066805,Monte Luco,817.3
43.253227,11.664316,Poggio Bianco,371.0
43.33296,11.648435,Poggio Castellare,512.0
43.339493,11.646388,Poggio Muricci,557.0
43.315666,11.671301,Poggio Querce Alte,478.0
43.49613,11.93691,Monte Castellaccio,663.0
43.446754,12.109372,Col di Olfo,614.0
43.304203,12.191056,Poggio degli Abeti,695.0
43.35223,11.601397,Monte Longo,515.0
43.3896,11.674119,Poggio Castagnole,521.0
43.365437,11.600919,Poggio Gogolo,433.0
43.40426,11.690419,Poggio Tondo,624.0
43.346977,11.60306,Poggio del Pozzo,425.0
43.39273,11.689383,Poggio di Muriccia,547.0
43.482468,11.538204,Poggio Casale,437.0
43.465893,11.534548,Poggio San Sinciano,652.0
42.961758,12.159132,Monte Città di Fallera,681.0
43.4318,12.288078,Passo del Lepre,597.0
43.436993,12.2833605,Monte delle Guardie,553.0
43.302914,12.060152,Monte Traforata,1029.8
43.423306,12.024861,P.gio di Frascale,933.0
43.44049,11.949342,Monte Talamone,726.0
43.30552,11.956671,Monte Le Cevitelle,574.6
43.237072,11.651062,Poggio Cucco di Tresini,386.0
43.478794,12.031696,Poggio Pian d'Arca,711.0
42.65941,12.323589,Monte Croce di Serra,997.0
42.63558,12.343109,Monte Pianicel Grande,898.0
42.59321,12.416003,Monte Piglio,637.0
42.643833,12.335809,Monte Rotondo,918.0
42.55487,12.479179,Monte Arnata,561.0
42.619205,12.345352,Monte Castellari,836.0
42.61307,12.378562,Monte Cimamonte,655.0
42.596775,12.335745,Monte Pian di Nappa,756.0
42.64075,12.348802,Monte Pianello,713.0
42.591064,12.343678,Monte Ventone,718.0
42.628765,12.354335,Monte l'Aiola,765.0
43.46881,11.979757,P.gio Pollaio,961.0
43.489796,12.0512,P.gio di Centena,491.0
43.344906,11.517065,Casa Vecchia,347.0
43.21726,11.641738,Piazza Lupi,453.0
43.195312,11.659845,Lecceto,498.0
43.118855,12.260893,M. Rentella,399.0
43.369225,11.938809,Poggio Fonte Partini,735.0
43.371544,11.961501,Poggio della Coppa,655.0
43.376266,11.972299,Poggio delle Marciole,681.0
43.402206,12.026528,Poggio Capannacce,988.0
43.426643,12.065701,Pian di Volano,821.0
43.462936,11.976394,P.gio di Rigo,814.0
43.380714,11.93666,Poggio Falzoli,811.0
42.68305,12.313253,Monte Alsicci,872.0
42.69088,12.325612,Monte Badia,789.0
42.699368,12.325395,Monte Bello,692.0
42.688152,12.312718,Monte Castellaro,861.0
42.700695,12.310495,Monte Cerrentino,757.0
42.676655,12.31242,Monte Citernella,880.0
42.69316,12.311983,Monte Pozzo Callarano,840.0
42.50133,12.2423725,Monte Casoli,169.0
43.11116,12.224187,Monte Penna,496.0
42.562897,11.821962,Monte Starnina,620.0
42.613075,11.80432,Poggio Montione,612.0
43.36468,12.039785,Poggio Ranchetto,729.0
43.370956,12.035087,Monte Largnano,800.0
43.3301,11.955716,Monte Castel d'Ernia,574.0
42.66019,12.018395,Monte Panaro,631.0
42.67317,11.997532,Poggio Pocatrabbio,682.0
42.678333,11.97952,Poggio del Torrone,690.0
42.61791,11.841188,La Montagna,638.0
42.6184,12.048714,Poggio Monterado,625.0
42.643032,11.804124,Poggio Evangelista,663.0
42.532513,11.8150215,Monte di Cellere,565.0
42.679443,11.932359,Monte Landro,585.0
42.799202,11.601767,Monte Calvo,931.0
43.46279,12.136739,Col de Mura,513.0
43.09861,12.2147045,Monte Castiglionaccio,523.0
43.194542,12.362101,Monte Tezino,925.0
43.169003,12.347062,Monte Canneto,500.0
43.42676,11.972639,Poggino,498.9
42.652367,12.316543,Monte Tegolaro,789.0
42.673805,12.306355,Monte Pufiano,761.0
42.671715,12.31076,Monte Boccialone,816.0
42.63341,12.330523,Monte San Salvatore,701.0
42.68077,12.33639,Monte Le Pure,723.0
42.633106,12.326728,Monte Corvo,718.0
42.639866,12.327445,Monte Allocco,786.0
42.655956,12.31145,Monte Civitelle,661.0
43.23697,12.055884,Poggio Capanne,597.0
43.229443,12.036453,Colle dei Termini,577.0
43.208157,12.029541,Monte Girella,462.0
43.20533,12.038216,Monte Gualandro,441.0
43.071205,12.168027,Monte Marzolana,586.0
43.185352,12.17938,Monte Ruffiano,428.0
43.194427,12.189344,Poggio Belveduto,566.0
43.243374,12.460374,Monte Acutello,588.0
42.91327,12.442038,Poggio San Giovanni,439.0
43.22827,12.331209,Monte Gudiolo,575.0
43.240414,12.34623,Monte Mussarello,650.0
43.22926,12.357602,Monte Santa Croce,590.0
43.225803,12.37141,Monte Elceto,616.0
43.21273,12.379585,Monte Elcetino,505.0
43.423088,12.318583,Monte Sgariglio,646.0
43.40735,12.348276,Colle dei Sorci,602.0
42.89422,12.429808,Monte Nero,454.0
43.386417,12.37634,Monte Vecchio,546.0
43.39123,12.386744,Monte Bruciato,571.0
43.19415,12.269519,Colle Montorio,535.0
43.010563,12.459153,Monte Rosciano,422.0
42.936413,12.185232,Poggio la Capra,601.0
42.976543,12.215413,Monte Eravone,520.0
42.96911,12.224113,Monte Cucco,610.0
42.964935,12.222977,Monte Vergnano,614.0
42.95208,12.210811,Poggio Bardella,586.0
42.96564,12.168356,Montalvino,666.0
42.887424,11.623274,Monte Amiata,1738.0
42.80358,11.659504,Poggio Pampagliano,957.0
42.80922,11.65084,Poggio La Roccaccia,943.3
43.185474,12.230275,Colle di Censo,477.0
43.264923,12.353057,Colle di Montecorona,710.0
42.585854,11.719174,Semonte,427.0
42.573223,11.874097,Monte Bisenzo,405.0
42.53115,11.606541,Poggio di Pianizza,186.0
42.5275,11.58092,Poggio Pinzo,392.0
42.523926,11.570642,Poggio Canaletti,429.0
42.506004,11.6198015,Monte Calvo,251.0
42.52405,11.627708,Poggio Salone,178.0
42.533825,12.165662,Poggio Anzano,258.0
42.54137,12.174188,Il Castellaccio,218.0
42.55154,12.181853,Monte Venere,164.0
42.52874,12.186094,Poggio Morello,224.0
43.353764,12.021187,Poggini,650.0
43.360783,11.968902,Poggio dell'Oppio,442.0
43.373444,12.007695,Poggio Pratello,676.0
43.375248,12.0044155,Poggio Tegolaia,649.0
42.506245,12.022133,Poggio della Lestra,457.0
42.62368,11.772472,Monte Calveglio,544.0
42.609745,11.856501,Poggio della Vallicella,522.0
42.603756,11.8428755,Poggio della Vaccareccia,537.0
42.572567,11.840901,Poggio Palombo,403.0
42.590088,11.855901,Poggio Falchetto,376.0
42.568226,11.743762,Poggio del Corgnolo,454.0
42.606476,11.743821,Monte Becco,556.0
42.60839,11.762593,Monte Rosso,566.0
42.553474,11.7642975,Poggio San Giovanni,474.0
42.57411,11.777634,Poggio del Mulino,408.0
42.589836,11.772881,Poggio Murcie,452.0
42.60361,11.774233,Poggio Pilato,554.0
42.60168,11.770692,Poggio Seccante,567.0
42.6071,11.787772,Monte Spinaio,558.0
42.607273,11.808865,Poggio Laterno,502.0
42.62787,11.814227,Monte Calveglio di Latera,580.0
42.562042,11.797214,Monte Saliette,510.0
42.55636,11.851534,Monte Cigliano,481.0
42.5512,11.865341,Monte Grosano,440.0
42.527435,11.859999,Poggio Trescia,405.0
42.5312,11.914179,Monte di Marta,430.0
42.50493,11.80453,Poggio Crispignano,416.0
42.533344,11.828091,Poggio Vitozzo,447.0
42.509438,11.876135,Monte della Lieve,389.0
42.536694,11.888814,Montecchio,396.0
42.515213,11.803844,Poggio Cornicchiolo,453.0
42.5401,11.79732,Monte Marano,536.0
42.54652,11.828521,Monte Martello,476.0
42.55444,11.818714,Monte Altieri,576.0
42.515457,11.852156,Poggio Marano,425.0
42.951008,11.840006,Poggio Lupone,682.0
42.946606,11.837229,Poggio Moiane,686.0
43.170494,12.301052,Monte Torrazzo,416.0
42.64017,11.651162,Poggio Casale,300.0
42.633152,11.644016,Poggio San Giuseppe,291.0
42.629303,11.640154,Monticchio,231.0
43.098404,12.335857,Monte Lacugnano,483.0
43.08886,12.378597,Collina di Prepo,380.0
43.05697,11.721425,Poggio Collosodo,560.8
42.592587,12.014537,Poggio Cerretella,480.0
42.588436,12.018217,Monte Gallo,480.0
42.587196,12.012219,Colle della Guardata,490.0
42.771786,11.786689,Monte Cornieto,457.0
42.665886,11.88873,Colle Virgutti,401.0
43.46238,11.926395,Poggio della Fonte,464.0
43.45801,11.934441,Poggio Mondo,531.0
43.457497,11.94559,Poggio Almignano,607.0
42.526447,12.006131,Monte d'Oro,537.0
42.52856,11.982222,Poggio Scotta,468.0
42.899914,12.114072,Poggio della Croce,617.0
42.9033,12.122544,Poggio Pian del Sette,643.0
42.58922,11.589932,Poggio Buco,251.0
43.372253,12.142595,Poggio Lopia,603.0
43.358303,12.173476,P.ggio Stroccalini,454.0
43.399086,11.500229,Poggio Macchioni,589.9
43.242958,12.499044,Monte Cavalletto,666.5
42.695988,11.742622,Il Puntone di Ritonda,457.0
42.696102,11.735783,Poggio Corto,452.0
42.694557,11.727026,Poggio Brucia,447.0
42.6692,11.724463,Monte Citerna,498.0
42.67122,11.714623,Poggio Pampino,388.0
42.67248,11.716738,Poggio Bindi,409.0
42.669037,11.740268,Monte Sorano,507.0
42.66604,11.739926,poggio del castagno,488.0
42.68018,11.750094,Poggio del Peri,478.0
42.684326,11.748465,Poggio di Vitozza,443.0
42.70075,11.728013,La Roccaccia,447.0
42.672955,11.72671,Monte Selvi,508.0
42.66427,11.7521925,Poggio ricco,501.0
42.665073,11.749601,Poggio Nocchiatello,492.0
42.667694,11.711723,Poggio Florindo,392.0
42.713936,11.700236,Poggio della Piana,653.0
42.716736,11.695419,Poggio Vergoio,792.0
42.713776,11.678471,Montagna Del Poderetto,671.0
42.720695,11.686667,La Montagnola dell'Elmo,852.0
42.662384,11.664975,Monte Grande,420.0
42.689262,11.75896,Poggio della Murcia,483.0
42.69458,11.78217,Poggio di Morano,483.0
42.653793,11.666272,Monticelli,394.0
42.65644,11.676529,Poggio Campagnolo,371.0
42.663372,11.6755495,Puntone,372.0
42.67628,11.694455,Montaroni,339.0
42.66914,11.670124,Poggio Bartolo,349.0
42.7072,11.751055,Poggio Saracio,470.0
42.717373,11.6754,Poggio Petricci,699.0
42.65301,11.704694,Poggio tre valli,386.0
42.69891,11.678651,Poggio Pinzo,431.0
42.70481,11.666025,Poggio Serafino,511.0
42.69547,11.643796,Il puntoncello,370.0
42.63608,11.687593,poggio Lepre,349.0
42.71323,11.717319,Poggio Valle Castagneta,561.0
42.726395,11.747253,Poggio delle Forche,486.0
42.7407,11.695488,Monte Chiuso,851.0
42.74037,11.728586,Poggio Cupo,568.0
42.7692,11.661444,Monte Penna,1040.0
42.7751,11.66785,La Penna,966.0
42.667316,11.695271,Puntone,314.0
42.660847,11.641431,Monte Rosello,280.0
43.067543,11.652699,Poggio Garofani,350.0
43.131573,12.330055,Toppo Tanella,606.0
43.12361,12.332568,Col Maiale,588.0
43.115055,12.340222,Colle Pulito,503.0
43.312267,12.422168,Monte Lovesco,671.0
42.615967,11.550528,Monte Nerino,316.0
43.04278,12.154451,M. Solare,596.0
42.60308,11.517001,Poggio San Giovanni,444.3
42.55977,11.672158,Monte Strompia,333.0
42.585743,11.794392,Poggio Catenaccio,429.0
42.652447,11.876199,Monte Tonico,434.0
42.645462,11.836487,Poggio Filippini,564.0
42.52542,11.982452,Poggio del Borgale,463.0
42.54149,12.040029,Poggio della Rer,552.0
42.552174,12.034571,Poggio del Crognolo,551.0
42.55546,12.042254,Poggio Pidocchio,526.0
42.56963,12.080557,Poggio delle Troie,486.0
42.536957,12.029053,Colle Falisco,633.0
42.672104,11.979432,Poggio Pianale,662.0
42.614902,12.06036,Poggio Morrone,593.0
42.591713,11.803093,Poggio S. Luce,434.0
42.936462,12.215177,Monte Piantarosa,508.0
42.943493,12.214512,Poggio Campogrande,548.0
42.933296,12.222768,Poggio della Croce,494.0
42.916206,12.182824,Poggio Cantagalline,413.0
42.852135,12.209179,M. Terracone,708.0
43.07504,12.234703,Monte Belledonne,417.0
43.435402,11.679144,Poggio di Migliari,520.0
43.45353,11.698218,Poggio di Montelucci,554.0
43.469746,11.728587,Poggio di Montarfoni,430.0
43.387463,11.629075,Poggio Golpaia,426.0
43.39998,11.678816,Poggio del Sarto,635.0
43.439716,11.683643,Poggio di Migliaraccio,497.0
43.23596,12.323366,M. Elceto,516.0
43.214664,12.296652,M. Maranaccio,554.0
43.23029,12.32975,M. Gudiolo,576.0
43.124588,12.317403,La Bruciata,615.0
43.0347,12.1406555,La Torraccia,496.0
42.548923,12.309665,Poggio Gramignano,299.0
42.98444,12.46628,M. Campo Rominto,608.0
43.07803,12.185635,M. Bellaveduta,494.0
42.987144,12.455315,M. Perugia Vecchia,571.0
42.993767,12.462788,M. Fargneto,562.0
43.01092,12.468941,M. Lino,393.0
42.79949,11.674068,Poggio La Ripaccia,832.5
42.8014,11.670868,Poggio Roccone,916.0
42.786316,11.629372,Poggio Fontenasssa,834.6
43.443424,11.582026,Poggio Marianna,531.0
43.4389,11.579046,Poggio Lucano,535.0
43.435917,11.555704,Poggio Ascensione,655.0
43.08696,12.197994,Monte Buono,366.0
42.9739,12.163013,Poggio della Croce,518.0
42.984844,12.111193,Poggio del Vento,362.0
43.434803,11.754591,Poggio di Vestro,458.0
43.444912,11.721954,Poggio dei Saregini,543.0
43.460068,11.731081,Poggio Ciullo,482.0
43.44092,11.719744,Poggio di Cacciano,574.0
43.44196,11.764373,Poggio Casale,409.0
43.439175,11.752843,Poggio Castellare,483.0
43.453438,11.750308,Poggio Castagnolo,452.0
43.435722,11.751427,Il Bosso,484.0
43.470932,11.561121,Poggio Rosina,404.0
43.443127,11.555425,Poggio della Civitella,644.0
43.473152,11.782168,Poggio Talzano,382.0
43.40996,11.613983,Poggio Castiglioni,429.0
43.475952,11.770679,Poggio alle Forche,414.0
43.490906,11.760357,Poggio Casina,371.0
43.4668,11.785183,Poggio Saturnino,397.0
43.49499,11.76544,Poggio del Trenta,346.0
43.493065,11.7688055,Poggio Nardaccio,387.0
43.477142,11.778961,La Selva,383.0
43.461872,11.755987,La Macchia Grossa,425.0
43.459812,11.77307,Le Caselle,432.0
43.413937,11.71663,Monte Mucci,583.0
43.46194,11.766962,Poggio Capriole,442.0
43.495327,11.783436,Poggio Castiglioni,290.0
43.45611,11.774976,Monte San Zio,481.0
43.377495,11.606887,Poggio Mignano,485.0
43.469597,11.70564,Poggio di Mongirato,374.0
43.454014,11.764524,Poggi Comuni,420.0
43.471264,11.529357,Poggio d'Arca,645.0
43.450108,11.768672,Poggio del Prete,402.0
43.493004,11.708958,Poggio dei Caselli,251.0
43.373646,11.638859,Poggio Rogheto,492.0
43.45639,11.7569,Poggio Tondo,416.0
43.45287,11.761184,Poggi Comuni,420.0
42.846256,11.7361145,Poggio Cencio,395.0
42.842865,11.740789,Poggio della Billa,390.0
42.860523,11.729694,Poggio Ginestra,520.0
