latitude,longitude,name,elevation
59.21177,-151.53793,Badger Hill,564.0
59.264057,-151.5313,Mount Mills,977.0
58.943058,-152.17163,Table Mountain,411.0
59.410686,-151.61586,Graduation Peak,1102.0
59.224613,-151.6229,Cone Mountain,635.0
59.305912,-151.9217,Mount Bede,978.0
59.214855,-151.6398,Rock Mountain,710.0
