latitude,longitude,name,elevation
45.53181,23.80596,Șteflești,2242.0
46.445686,23.504225,Piatra cu Urdă,1223.0
46.447296,23.52728,Ardașcheia,1249.0
46.40064,23.584959,Cetate,884.0
46.32561,23.52297,Pleșii,1250.0
46.271423,23.599098,Măgura,739.0
46.31436,23.611973,Măgura,673.0
46.374866,23.619646,Dealu Mare,706.0
46.41931,23.604591,Pleșa,837.0
46.376564,23.57113,Dealul Bogzii,832.0
46.378647,23.589125,Rachiș,779.0
46.383324,23.540562,Dâmbu Vălișoarei,845.0
45.5227,23.875517,Balindru Mare,2207.42
45.62024,23.778584,Foltea,1963.0
45.63856,23.761848,Strâmba Mare,1830.0
45.573753,24.485783,Ciortea Est,2419.0
45.572495,24.481522,Ciortea Vest,2427.0
45.58371,24.345362,Chica Pietrelor,1606.0
45.55306,23.50861,Aușel,2009.0
45.526676,23.97282,Buceciu,1747.0
45.578613,23.801865,Cindrel,2244.0
45.53575,23.923752,Clăbucet,2054.0
45.5356,23.856886,Conțu Mare,2080.1
45.526253,23.788694,Cristești,2202.0
45.50909,23.977804,Cuca Jidului,1633.0
45.502937,23.923338,Dobrunu,1979.0
45.58064,23.775854,Frumoasa,2152.0
45.6095,24.13781,Grecilor,1576.0
45.51626,24.11617,Gârcu,1991.0
45.52215,23.914919,Jidului,2091.0
45.52929,23.90136,Negovanu Mare,2135.0
45.560524,23.89704,Negovanu Mic,1902.49
45.50851,23.75928,Piatra Albă,2178.0
45.55766,24.175797,Pietrelor,1279.0
45.645,24.188435,Pleșei,1117.0
45.64559,24.171913,Pleșului,1148.0
45.607178,24.112469,Prejba,1744.0
45.512146,24.084606,Sfârcașul,2054.0
45.51802,24.061373,Sterpului,2142.0
45.51173,23.732563,Târna,1891.0
45.531948,24.011143,Voineșița,1848.11
45.522568,24.037151,Cocăcii,2008.0
45.523098,24.129028,Floarei,2064.0
45.522854,24.190046,Plăiețului,1135.0
46.10078,24.476374,Dodderbarch,547.0
46.096725,24.472155,Fänkebarch,561.0
46.10033,24.486107,Hannebarch,470.0
46.09,24.48088,Rätterbarch,528.0
46.10002,24.475874,Starn,547.0
46.10232,24.476944,Steicher,547.0
45.60544,24.193111,Hinsa,1262.0
45.615295,24.152004,Muma,1620.0
45.6128,24.169088,Pleșița,1514.0
45.61788,24.225378,Răvicuți,973.0
45.587746,24.438032,Suru,2281.0
46.496662,23.502607,Vârfuiata,966.0
45.582348,24.459257,Budislavu,2343.0
45.545155,24.429134,Olanu,1944.26
45.56926,24.490883,Boia,2342.0
45.691586,23.768229,Pogoana,1422.0
46.45313,23.505404,Ugerului,1244.0
45.54969,23.53671,Vârfu lui Pătru,2130.0
45.66352,24.10881,Măgura,1304.0
45.658993,24.081688,Drăguț,1103.0
45.65586,24.064949,Dealul Derjani,1211.0
45.649837,24.029665,Dosu Albului,1303.0
45.947937,23.752165,Gorganul Drașov,401.0
45.60865,24.357151,Muntele lui Schiau,1334.0
45.552296,23.601122,Diudiu,1402.0
45.58996,23.59276,Fetița,1695.0
46.446445,23.587713,Piatra Secuiului,1129.0
46.454525,23.586954,Colții Trascăului,1113.0
46.395977,23.583889,Data,884.0
46.40477,23.59299,Piatra Lungă,864.0
46.424232,23.515627,Gradina Cetății,1202.0
46.411095,23.512434,Vârful Cornului,1238.0
46.48856,23.589077,Buiag,733.0
46.495846,23.595882,Piatra Stoinii,651.0
46.465736,23.61219,Torsa,898.0
46.450886,23.592836,Grădina Romei,1090.0
46.48538,23.62235,Nadeș,813.0
46.467724,23.598066,Piatra Orani,758.0
46.426327,23.60477,Dealu Roșu,862.0
46.43852,23.636805,Gruiu Bradului,694.0
46.418324,23.632929,Hidiș,660.0
46.409237,23.634756,Braniște,682.0
46.399498,23.629244,Dealu Bili,631.0
46.392376,23.631,Cornu Dealului,562.0
46.392075,23.614288,Bedeleu,666.0
46.403305,23.602417,Pleșuv,832.0
46.401,23.716236,Coasta Mare,477.0
46.400826,23.736849,Dealu Gabrianului,514.0
46.40822,23.690924,Dealul Sitacelor,530.0
46.425983,23.765167,Meghieș,490.0
46.284775,23.502922,Prisecu,1157.0
46.28616,23.587744,Porumbu,702.0
46.29306,23.578022,Dumbrava,745.0
46.29797,23.570768,Remețului,763.0
46.310825,23.550928,Boca,854.0
46.31741,23.537964,Râmeț,913.0
46.32334,23.562548,Dealu Săltanului,913.0
46.33094,23.553871,Cotorăști,901.0
46.333412,23.54739,Dealu Brustureilor,942.0
46.34467,23.535267,Dealu Ursului,1023.0
46.341263,23.54673,Gruiu Lupului,957.0
46.39659,23.516262,Pleșii,1131.0
46.43933,23.501047,Jaru,1221.0
46.238068,23.560358,Dealu Galdei,742.0
46.24711,23.548126,Piatra Corbului,680.0
46.25024,23.540257,Cuciului,696.0
46.257465,23.538881,Cheucișoara,752.0
46.306034,23.607313,Deremeturu,643.0
46.331898,23.613827,Cucuvaie,531.0
46.36891,23.528866,Piatra Butanului,1052.0
46.307625,23.501347,Fruntea Uzei,826.0
45.58357,24.39514,Tătarul,1890.0
45.58201,24.373346,Chica Fedeleșului,1820.0
45.691242,24.290234,Chicera Veștem,613.0
45.619247,24.32303,Varetului,844.0
45.601135,24.334803,Chica lui Ionel,1235.0
45.581482,24.475296,Vârtopu Roșu,2233.0
45.576523,24.478168,Turnu Lacului,2247.0
45.578465,24.495605,Gârbova,2188.0
45.58337,24.359198,Chica Lacului,1648.0
45.581814,24.337326,Strâmbanu,1506.0
45.578125,24.32939,Păltioara,1293.0
45.57167,24.290947,Chica Drăghicioaia,1266.0
45.570915,24.315418,Muchia Repezoi,1240.0
45.566387,24.309093,Claia Bulzului,1384.0
45.55973,24.358727,Zănoaga Câinenilor,1711.77
45.557037,24.376019,Coților,1511.0
45.50524,24.463047,Leul,1734.0
45.526016,24.485569,Fața Sfântul Ilie,2006.0
45.5041,24.483715,Coarneșu,1816.0
45.570023,24.47233,Grohotișului,2366.39
45.558353,24.495169,Petriceaua,2311.64
45.523685,24.40854,Poiana Cerbului,1434.8
45.521496,24.35574,Măgura,1268.0
45.52005,24.314156,Pleașa,1200.84
45.55112,24.280811,Fața Calului,840.0
45.57622,24.323341,Paltinul,1270.0
45.513096,24.23703,Vârful lui Vlad,1284.59
45.503105,24.16914,Coasta Câineni,1839.6
45.506847,24.127563,Stânișoara,1998.0
45.50067,24.26821,Dealul Uria,940.0
45.53097,24.227936,Gâlfa,1104.0
45.538044,24.172924,Groapele,1532.0
45.529465,24.18713,Bradetul Groapelor,1505.0
45.53965,24.013103,Voineagul Cătănesei,1785.0
45.548847,24.015608,Muntele Duduragului,1784.0
45.52564,24.031193,Voineagul Cătănesii,1960.0
45.509243,24.006042,Prelunca Voinegel,1675.0
45.52678,24.001045,Voinegel,1738.0
45.50191,23.733479,Dealul Tabla,1904.0
45.51076,23.687874,Prundul,1593.0
45.500175,23.737715,Preaja,2005.0
45.530117,23.760786,Turișoara,1829.0
45.53279,23.840345,Balindru Mic,1984.0
45.530117,23.814932,Vârf secundar Șteflești,2212.0
45.547497,23.824772,Conțu Mic,1805.0
45.550213,23.854439,Stâna din Conțu,1903.0
45.57462,23.9121,Muchia Negovanului,1740.0
45.562145,24.407015,Stârpele,1540.0
45.671574,23.938715,Comanda Poplăcii,1384.0
46.48327,23.550385,Dealul Băieșilor,1028.5
46.488037,23.559452,Corbului,1011.0
46.47138,23.540161,Berț,1011.0
46.467297,23.541828,Chișberț,969.0
46.49411,23.618874,Dealu Mare,717.0
46.234844,23.501322,Piatra Bulzului,940.6
46.22751,23.516245,Lupoaia,886.2
46.131737,23.581867,Kerékdomb,425.0
46.114838,23.601938,Bilag,404.0
46.1286,24.330462,Tarnava Crest,410.0
46.129646,24.327652,Tarnava Mare,430.0
46.125587,24.35574,Amphitheater,460.0
46.129707,24.354254,Camp site,460.0
46.12544,24.34962,Ighis,425.0
45.74603,23.936247,Vârful Merezilor,966.0
45.74237,23.906116,Vârful Zăpozie,1069.0
46.246464,23.845833,Dl. Lazurilor,498.0
45.662674,23.832937,Chiciora,1430.0
45.69449,23.832615,Piscul Vulturului,1444.0
45.658375,23.801756,Strâmba,1430.0
46.08307,23.503544,Mamut,773.0
