latitude,longitude,name,elevation
52.00767,113.54464,Батарейная,896.0
52.105618,113.60497,Стрелка,1089.0
52.034866,113.57627,Чита,1038.4
52.064373,113.61094,Сенная,1037.7
51.938103,113.544525,Чертов Пик,1121.5
