latitude,longitude,name,elevation
59.831795,-147.88678,Stair Mountain,528.0
59.845047,-147.85114,Jeanie Peak,540.0
60.20913,-147.7363,Horn Mountain,696.0
60.318405,-148.24461,Jackpot Peak,762.0
60.249313,-148.20627,Dual Head,523.0
60.481434,-148.07835,Eshamy Peak,884.0
60.43277,-148.16931,Saddle Peak,913.0
60.207832,-148.23904,Claw Peak,790.0
