latitude,longitude,name,elevation
38.295315,141.5668,金華山,443.5
38.3939,141.5269,東森山,152.2
38.312695,141.52557,駒ヶ峰,321.7
38.288624,141.5179,御番所山,210.3
38.358257,141.50516,高山,342.1
38.340275,141.50664,光山,443.4
