latitude,longitude,name,elevation
59.80808,149.95276,Армань,1135.0
59.71316,150.37386,Комендант,935.0
60.454166,150.0587,Игандя,1817.0
60.07508,150.33836,Хасын,1190.0
59.66231,150.35754,Усталая,685.0
