latitude,longitude,name,elevation
16.721502,31.071333,Nusb Umm Rimt,652.0
17.396389,31.20636,Nuşub al Arda,460.0
16.79111,31.086273,Jebel Et Tarfawi,639.0
16.531128,31.13572,Jabal az Zaḩḩāfah,628.0
16.764812,31.215311,Jebel Tomat,509.0
16.544992,31.326982,Jabal aḑ Ḑab‘,499.0
17.026653,31.154951,Nisayb Uru,484.0
17.07153,31.05247,Jebel Anqor el Azraq,617.0
17.050013,31.27396,Qarn Abu Hegliq,506.0
16.777742,31.460688,Karabat Abu 'Ushar,530.0
