latitude,longitude,name,elevation
37.55569,-75.62048,Italian Hill,3.0
38.260677,-75.62326,Backbone Hill,12.0
38.430676,-75.9091,Delia Hill,3.0
38.26401,-75.77215,Dunker Hill,3.0
38.32373,-75.87938,Ryles Hill,4.0
38.46234,-75.994385,Sand Hill,4.0
38.130127,-76.37161,Blue Gull Hill,22.0
38.43568,-76.478004,Fort Hill,35.0
