latitude,longitude,name,elevation
49.91306,89.59271,Асгатын давааны хяр,3095.0
50.460007,89.50334,Боксэ,2388.0
49.863564,89.611465,Асхату-Даба,3464.8
50.405674,89.64123,Макату,2597.7
50.193577,89.504456,Борул-Тайга,3185.0
49.770844,89.53506,Богуты,3360.2
49.830067,89.540955,Кындыктыкуль,2998.6
49.73766,89.714134,Онгорхойн-Ула,3754.2
