latitude,longitude,name,elevation
50.5856,-114.48587,Channel Ridge,1714.0
50.56682,-114.43675,Jim Ridge,1540.0
50.595,-114.4319,Okotoks Mountain,1762.0
50.564484,-114.4498,Sam Ridge,1579.0
50.572334,-114.4175,Whisky Ridge,1519.0
50.62818,-114.49478,Sandy McNabb Hills,1494.0
51.158615,-114.2288,Top Hill,1298.0
51.107384,-114.381905,VOR,1206.0
50.596275,-114.4511,Okonnel Ridge,1648.0
