latitude,longitude,name,elevation
19.390507,42.0264,قمة جبل حرفة,2491.0
18.699532,42.22998,جبل الصهلاء,2837.0
18.977583,42.187298,منعاء,2782.0
19.004612,42.097275,جبل مومة,2636.0
19.35546,41.872955,جبل طنب,2300.0
