latitude,longitude,name,elevation
47.306545,0.2415943,Mont Forton,112.0
47.20177,0.2259851,Le Puy Besnard,86.0
47.23304,0.2403948,Mont Sigout,94.0
46.603165,-0.1466985,Terrier de Saint-Martin-du-Fouilloux,273.0
47.185127,0.1949845,Puy des Ajoncs,79.0
47.203957,0.2348058,La Collne,88.0
