latitude,longitude,name,elevation
29.820448,-7.46567,Magmoia Salhin,1392.0
29.979471,-7.2365565,Tizi Oula,1400.0
30.2627,-7.3380947,Jbel Timbouka,1821.0
30.367317,-7.340348,Jbel n'Tizoula,1540.0
30.02864,-7.1032863,Jbel el Gara,840.0
30.07706,-7.2073317,Mmizagane,870.0
30.071405,-7.2403336,Imarfd,890.0
30.05524,-7.246084,Ifrda,900.0
30.198135,-7.1458874,Izgui,1220.0
30.184206,-7.0989814,Agouti,1140.0
30.208576,-7.090613,Adrar n'Taourda,1290.0
