latitude,longitude,name,elevation
29.459763,79.73833,Gajar,2297.0
29.35519,79.57123,Karkot Dhar,1926.0
29.361498,79.68468,Deothal,2424.0
29.402557,79.75145,Sekapanda,2193.0
29.49717,79.53824,Dhari Patagoli,1957.0
29.25939,79.86311,Maindkot,1920.0
29.336304,79.79387,Debguru,2301.0
29.34915,79.98858,Narsingh Danda,2103.0
29.43086,80.08764,Thum,2121.0
