latitude,longitude,name,elevation
63.53995,154.95618,Волна,1310.0
63.612938,155.40405,Жемчужина,1522.0
63.656513,155.11162,Нягаин,1447.0
63.889633,155.12865,Надежда,1058.0
63.825554,154.58835,Домир,1053.0
