latitude,longitude,name,elevation
-1.602948,10.271317,Mont,500.0
-2.2337637,10.383641,Mont Pangou,667.0
-2.3102646,10.383813,Mont Mougoundja,516.0
-2.3504002,10.316522,Mont Mivinevi,153.0
-2.4337547,10.267255,Mont Mouyomfi,287.0
-2.4164326,10.383126,Mont Mougoumbi,477.0
