latitude,longitude,name,elevation
62.779446,155.3164,Коридор,1098.0
62.93773,155.26132,Джагын,1480.0
63.15798,155.29549,Руслан,1220.0
63.46488,155.07758,Волка,1611.0
63.238895,154.60464,Трибуна,996.0
62.525753,154.59528,Родвик,1462.0
