latitude,longitude,name,elevation
49.284073,31.40496,Довгий Шпиль,182.0
49.25466,31.412973,Кочержина гора,199.0
49.24624,31.469454,Чирвина гора,202.0
49.420357,31.476734,Деренова гора,155.0
49.34844,31.298264,Висока могила,202.0
48.70358,31.475176,Курган Могила-Близнюки,201.5
49.30481,31.258417,Лиса гора,218.0
49.31105,31.426315,Зірочка,184.0
49.271366,31.395023,Марків Шпіль,176.0
