latitude,longitude,name,elevation
-45.52317,-69.70253,Cerro Tres Picos,714.0
-45.810116,-69.63055,Cerro El Mirador,952.0
-45.587517,-69.699875,Cerro Rojo,750.0
-45.6613,-69.62248,Cerro Tapera Gaitan,959.0
-45.593826,-69.66957,Cerro Tres Tetas,681.0
-46.29072,-69.845215,Cerro Piedra,713.0
-46.076233,-69.94449,Cerro Slapelez,643.0
