latitude,longitude,name,elevation
1.1136045,110.224205,Gunung Penerisan,1329.0
1.1184226,110.30384,Gunung Spaoh,740.0
1.1379459,110.25768,Gunung Merobung,394.0
1.2775972,110.41291,Bukit Bukah,108.0
1.2420013,110.362625,Bukit Simpok,102.0
1.2237489,110.33218,Bukit Serumah-Semete,275.0
