latitude,longitude,name,elevation
60.433983,-144.01659,Monument Mountain,815.0
60.47113,-143.82404,Carbon Mountain,1243.0
60.272144,-144.02905,Gandil Mountain,290.0
60.226852,-143.89546,Mount Campbell,547.0
60.415535,-144.15399,Kushtaka Mountain,744.0
60.230938,-143.9752,Nichawak Mountain,509.0
60.435307,-143.89166,Doughton Peak,820.0
