latitude,longitude,name,elevation
32.267292,13.325382,رأس ام العبر,542.0
32.412285,12.867223,رأس قليب عزيز,261.0
32.365982,13.264681,رأس المنبه,502.0
32.439827,13.389225,رأس ملغة,426.0
31.975412,13.319691,Dakhret-Musba,965.0
