latitude,longitude,name,elevation
18.33864,-72.74799,Morne Chéridant,1318.0
18.382782,-72.87571,Morne Volant,808.0
18.36322,-72.90815,Morne Bellevue,1209.0
18.392273,-72.91337,Morne Convier,413.0
18.396357,-72.84848,Morne Lavisite,575.0
18.416147,-72.84004,Morne Bois Chandel,317.0
18.431248,-72.807434,Tapion Di Petit Goâve,410.0
18.365063,-72.79532,Morne Tête a Boeuf,764.0
18.371338,-72.810524,Morne Bori,898.0
18.399517,-72.67344,Morne Michel,615.0
18.394304,-72.65024,Morne Crabe,674.0
18.430971,-73.09964,Morne Parrois,237.0
18.437012,-73.09359,Morne Blanche,173.0
18.287102,-72.55749,Morne Latigre,262.0
18.450518,-73.00131,Morne Branda,619.0
18.447704,-72.96753,Morne Bois Chandel,486.0
18.287615,-72.83909,Morne Lacombe,673.0
18.289066,-72.889885,Morne Malone,822.0
18.252745,-73.0832,Morne Lièvre,504.0
18.251856,-73.01502,Morne Ti Braudais,409.0
18.30454,-73.03195,Morne Chaînneau,438.0
18.265146,-73.12205,Morne Jospeh,451.0
18.30625,-72.990005,Morne D'Argent,439.0
18.363985,-72.9433,Morne Lucas,1096.0
18.42166,-73.11659,Morne Belle Hôtesse,409.0
18.362392,-72.72111,Morne a Bruler,595.0
18.34756,-72.84043,Morne Eloi,1332.0
