latitude,longitude,name,elevation
24.498304,86.83686,Trikut Parvat,753.0
24.451878,86.75118,Taroban,300.0
24.241251,86.92185,Fuljhari Pahar,704.0
24.095482,87.280914,Satgarh hills Satbor,466.0
24.11924,87.26573,Hempur Pahār,381.0
24.088608,87.23113,Agwanduāri,440.0
24.12777,87.219215,Jhandi Pahār,463.0
24.349438,86.69442,Rasun Pahār,302.0
24.47094,86.88848,Asnaha Pahār,395.0
24.45503,86.9168,Gidhaia Pahār,357.0
