latitude,longitude,name,elevation
3.4885218,-51.630833,Monte Carupina,325.0
3.2084174,-52.462223,Mont Camopi,187.0
3.1217687,-52.33453,Tayaunõlõnga,157.0
3.1234143,-52.3394,Tayaunõlõnga,149.0
2.9951012,-52.371384,Masikili Iwɨtɨ,149.0
3.2829206,-52.201813,Roche Mon Père,85.0
3.223941,-52.388905,Alikene Wɨtɨt,328.0
3.3458037,-52.28464,Memora,238.0
