latitude,longitude,name,elevation
54.50933,94.68286,Сивуха,1808.0
54.81701,95.23294,Большой Утес,668.0
54.868656,94.52753,Голец Кирельский,1733.0
54.866653,94.67703,Копна,1182.0
54.839447,94.856346,Кулижа,1340.0
