latitude,longitude,name,elevation
13.202006,27.246693,Jabal al Kabsh,681.0
13.4338455,26.82417,Jabal Masarrah,631.0
13.344997,26.62356,Jabal Abū Ḩumayrah,721.0
13.4988165,27.129045,Jebel Kursi,711.0
13.47971,27.178171,Arrafiya,683.0
13.481543,27.226065,Jebel Abu Ruba,713.0
13.44067,27.08617,Jebel el Hilla,750.0
13.447117,27.124912,Jebel Delinya,664.0
13.243933,27.094986,Jebel es Sumayin,678.0
13.210677,27.491693,Jebel Mineidra,680.0
