latitude,longitude,name,elevation
-42.775116,-64.24271,Cormoranes,106.0
-42.53363,-64.33116,Piaggio,110.0
-42.56742,-64.30566,Unión,109.0
-42.870487,-64.14402,Morro Nuevo,109.0
-42.8108,-63.73832,Pico Lobo,80.0
-42.83044,-63.899166,Pico Sayago,92.0
-42.596294,-64.251656,Cerro Olazábal,88.0
