latitude,longitude,name,elevation
-17.75772,130.69975,Gap Hill,287.0
-17.64434,130.79562,Mount Deakin,308.0
-17.6267,130.77853,Mount Gordon,292.0
-17.558,130.91367,Mount Possum,276.0
-17.98035,130.63947,Mount Reid,338.0
-17.65068,130.64195,Mount Seale,310.0
-17.93596,130.66422,Mount Watson,316.0
-17.5029,130.69563,Red Hill,282.0
-17.54082,130.94408,The Sisters,268.0
-17.54864,130.93683,The Sisters,272.0
