latitude,longitude,name,elevation
68.29125,-165.5432,Angmakrok Mountain,476.0
68.38635,-165.73645,Ogsachak Mountain,405.0
68.197464,-165.99435,Akoviknak Mountain,151.0
68.21625,-166.0168,Inukpak Rock,39.0
68.48908,-165.85004,Mount Niaktuvik,395.0
68.345024,-165.67873,Kayaksak Mountain,318.0
68.13449,-165.95515,Agate Rock,190.0
68.328186,-165.57402,Sakpik Mountain,460.0
