latitude,longitude,name,elevation
-51.301014,-59.95928,Cove Hill,233.0
-51.327938,-60.173855,Mount Richards,418.0
-51.264595,-59.793106,Marble Mount North Peak,237.0
-51.318233,-60.13076,Rookery Mountain,421.0
-51.499725,-60.28243,Mount Fegen,360.0
-51.433636,-60.019836,Channel Hill,252.0
-51.282936,-59.758644,Middle Peak,215.0
-51.38976,-60.23617,Mount Rees,372.0
-51.42261,-59.53618,Mount Purvis,244.0
-51.287926,-59.659634,First Mountain,277.0
-51.26682,-59.79631,Marble Mount South Peak,237.0
