latitude,longitude,name,elevation
11.455435,-84.54688,Cerro Arranca Bazo,417.0
10.673847,-85.1337,Cerro Espíritu Santo,979.0
10.630082,-85.25986,Cerro Piedra,299.0
10.766836,-84.972824,Cerro Olla de Carne,454.0
10.677925,-84.996414,Fila Chiquero,1200.0
10.665061,-84.93095,Cerro La Arepa,440.0
10.747345,-85.44016,Cerro Cañas Dulces,655.0
10.771897,-85.46153,Cerro San Roque,540.0
10.729248,-85.2571,Cerro Mogote,823.0
10.809128,-85.46318,Cerro Fortuna,479.0
11.072743,-85.09878,Cerro Cucaracha,63.0
10.688587,-85.40847,Cerro Liberia,394.0
10.761268,-85.41239,Cerro Góngora,770.0
10.776129,-85.36787,Cerro San Vicente,818.0
10.700421,-85.38731,Cerro Santa Inés,362.0
10.784728,-85.4878,Cerro Atravesado,320.0
10.788863,-85.20538,Cerros La Montañosa,770.0
10.712585,-85.12251,Cerro La Giganta,1490.0
10.952623,-85.19021,Loma Blanca,170.0
10.841744,-85.27675,Cerro Chato,1130.0
10.701604,-85.44438,Loma Chancha,200.0
10.683296,-85.45276,Loma Quesos,180.0
11.235558,-84.58333,Cerro El Pavón,390.0
11.1860695,-84.73246,Lomas Laurel Galán,157.0
11.280047,-84.69458,Cerro Los Limones,296.0
11.318606,-84.70184,Cerro El Bejuco,205.0
11.069929,-85.15756,Llanos El Corozal,59.0
11.11578,-84.57794,Cerro Palo de Arquito,193.0
11.400324,-84.75471,Cerro El Pelón,266.0
11.08801,-84.51787,Cerro El Puentón,187.0
11.162571,-84.76403,Cerro de Pilón,127.0
11.135192,-84.758385,Cerro La Loma,93.0
11.177549,-85.03605,Cerro El Peñón,244.0
11.103107,-84.58454,Cerro Isla Grande,166.0
11.16415,-84.96888,Loma El Grito,95.0
11.148614,-84.93987,Loma El Tempisque,78.0
11.312611,-84.77096,Lomas El Guanacaste,154.0
11.305983,-84.761154,Lomas Guapes,150.0
11.295782,-84.76623,Loma El Guayabo,187.0
11.268264,-84.76398,Cerro Las Equinas,164.0
11.1694975,-84.765915,Cerro Fátima,128.0
11.417143,-84.8626,Filas San Joaquín,135.0
11.380028,-84.89709,Cerro Mal Andar,128.0
11.378229,-84.83756,Cerro Comején,126.0
11.389147,-84.851875,Cerro El Divisadero,166.0
11.49465,-84.80671,Cerro Valencia,216.0
11.404881,-84.826965,Cerro Copel,165.0
11.370077,-84.76256,Cerro Empinado,197.0
11.411643,-84.77925,Cerro Buenavista,214.0
11.418542,-84.77196,Cerro Tomate,197.0
11.437018,-84.74735,Loma Santa Fé,166.0
11.48709,-84.62439,Lomas El Jobo,312.0
11.4963255,-84.548355,Loma Grande,300.0
11.459025,-84.64034,Cerro Esquipulas,251.0
11.464705,-84.64898,Loma Los Tistes,241.0
11.4654045,-84.57646,Cerro La Danta,325.0
11.414724,-84.61015,Loma El Consuelo,208.0
11.426581,-84.59289,Cerro El Buey,180.0
11.391166,-84.54237,Cerro Dos Hermanos,216.0
11.359282,-84.579315,Cerro La Rampla,183.0
11.341771,-84.69133,Loma Las Delicias,139.0
11.359727,-84.65383,Cerro Silencia,96.0
11.381574,-84.647484,Cerro El Pedregal,150.0
11.379392,-84.66691,Cerro El Congo,162.0
11.385707,-84.684975,Cerro Monte Verde,162.0
11.408966,-84.68462,Cerro El Hormiguero,146.0
11.418952,-84.68437,Cerro El Rebajo,177.0
11.447124,-84.69064,Cerro El Tigre,274.0
11.310464,-84.68061,Cerro México,284.0
11.308394,-84.60402,Cerro Empinado,127.0
11.231423,-84.659424,Loma Quemada,184.0
11.21061,-84.709755,Loma Bruja,185.0
11.19278,-84.70785,Loma El Camillo,153.0
11.184257,-84.54038,Cerro Terrón Colorado,211.0
11.180417,-84.50872,Cerro El Arenito,284.0
11.2115965,-84.50837,Lomas de Ano Nuevo,264.0
11.22435,-84.50224,Lomas De Año Nuevo,305.0
11.205448,-84.742386,Cerro El Azul,130.0
11.241936,-84.67211,Cerro El Águila,178.0
11.156055,-84.69188,Lomas Melchora,96.0
11.15943,-84.51944,Lomas El Areno,166.0
11.163182,-84.592964,Lomas El Guineal,136.0
11.152735,-84.619095,Cerro El Mono,146.0
11.166424,-84.73716,Cerro Quinta,138.0
11.292116,-84.61569,Cerro Los Raizones,148.0
10.544848,-85.00479,Cerro Montecristo,761.0
