latitude,longitude,name,elevation
43.261227,-123.167564,Bald Mountain,457.0
42.92151,-123.21034,Beals Mountain,869.0
43.002895,-123.43701,Big Baldy,953.0
42.62179,-122.911995,Boswell Mountain,1062.0
43.4404,-122.99229,Brown Mountain,1256.0
43.13484,-123.20645,Brushy Butte,919.0
42.729008,-123.32006,Buckhorn,1028.0
43.168568,-123.29553,Burg Mountain,662.0256
42.901787,-123.28645,Canyon Mountain,1034.0
42.550404,-122.70032,Cedar Buttes,924.0
43.05012,-122.800606,Clayton Point,946.0
43.36706,-123.09423,Copeland Butte,775.0
43.11873,-123.24396,Dodson Butte,972.0
43.47984,-123.366196,Eagle Point,359.0
42.54123,-123.247284,Elk Mountain,1341.0
43.476784,-123.2973,Evans Butte,222.0
42.578457,-123.10922,False Face Mountain,1003.0
43.460396,-123.01951,Gobblers Knob,1054.0
42.78678,-123.46979,Grayback,1223.0
43.44984,-123.39453,Gross Mountain,427.0
43.370396,-123.145065,High Point,478.0
43.33317,-123.12368,Hog Mountain,534.0
42.58957,-122.99255,Hull Mountain,934.0
42.957874,-123.389755,Mount Isaac,630.0216
43.281784,-123.14423,Jack Mountain,561.0
42.614014,-122.73893,Joe Dyer Butte,929.0
42.691788,-123.23061,King Mountain,1601.0
42.67623,-123.406715,London Peak,864.0
42.675396,-123.434784,Malone Peak,894.0
43.206226,-123.36424,Mount Nebo,339.0
42.968708,-123.43523,Nickel Mountain,1075.03
42.766228,-123.49229,Panther Butte,1067.0
42.83123,-123.19145,Patrick Mountain,926.0
42.694008,-123.28089,Post Mountain,1147.0
42.735397,-123.21756,Quartzmill Peak,1375.0
43.33899,-122.590866,Ragged Butte,1363.4
43.371784,-123.35425,Richards Butte,439.0
42.57846,-122.645035,Rocky Hill,775.0
42.98762,-122.92144,Rondeau Butte,989.0
42.540684,-122.68476,Round Top,1121.0
43.25845,-123.24284,Round Top,614.0
42.66151,-123.28062,Saint Paul Mountain,1299.0
42.524567,-123.054214,Sardine Mountain,778.0
43.372063,-123.065346,Scott Mountain,1274.0
42.600063,-123.36577,Sexton Mountain,1163.0
42.858948,-123.37836,Silver Butte,1194.0
42.67595,-123.487015,Sugarloaf,785.0
42.897617,-123.31062,Tellurium Peak,1044.0
43.456787,-123.12063,The Buttes,490.0
43.432896,-123.46148,Tyee Mountain,742.0
42.570683,-122.7781,Vestal Butte,931.0
42.537617,-123.33395,Walker Mountain,1172.0
43.365395,-123.15618,Wild Horse,610.0
43.365597,-122.55205,Wild Rose Point,1613.3
43.275517,-123.32158,Winchester Baldy,504.0
43.323727,-123.48258,Woodruff Mountain,494.0
43.38512,-123.09479,Yellow Butte,724.0
42.573456,-122.934494,Cinnabar Mountain,754.0
43.242893,-123.2234,Black Mud Summit,291.0
43.312344,-122.56227,Pine Point,1097.0
43.372066,-122.59838,Quartz Point,1127.0
43.106785,-123.28868,Gobblers Knob,319.0
43.18456,-123.44008,Lookingglass Hill,469.0
43.280396,-123.27201,Echo Butte,425.0
42.526237,-122.80671,Mosser Mountain,537.0
42.690678,-123.006165,Horse Mountain,1269.0
43.094837,-123.426186,Mount Obette,162.0
42.558456,-123.107834,Lover Peak,757.0
42.943455,-122.85588,Pickett Butte,1003.0
43.27975,-123.03715,Ace Williams Mountain,547.0
42.59901,-123.072,Bald Mountain,1114.0
42.62012,-123.10561,Black Butte,1107.0
42.99835,-123.3986,Boomer Hill,740.664
42.825397,-123.30423,Buckhorn Mountain,1157.0
42.55568,-122.96422,Chimney Rock Butte,791.0
43.28178,-123.46508,Cleveland Hill,273.0
43.27984,-123.4223,Coyote Hill,247.0
43.360672,-123.374245,Davis Hill,218.0
42.56401,-123.000046,Elkhorn Butte,1041.0
42.751232,-123.16339,Green Mountain,1478.0
42.517628,-122.71642,Green Top,941.0
43.088726,-123.49063,Hoover Hill,528.0
43.459217,-123.42881,Marvin Hill,290.0
42.53679,-123.047,McConville Peak,950.0
42.540962,-122.67115,Obenchain Mountain,1100.0
42.98299,-123.357185,Mount Rambler,573.9384
43.291782,-123.43869,Red Hill,245.0
42.560394,-123.354225,Red Mountain,732.0
42.58123,-123.28478,Roberts Mountain,1124.0
43.351997,-123.2386,Round Timber,561.0
42.667065,-123.29812,Saint Peter Mountain,1076.0
43.35644,-122.54338,Spring Mountain,1673.0
43.493176,-123.320915,Turkey Hill,284.0
42.512344,-123.10533,Wilcox Peak,1012.0
43.48345,-123.43064,Yellow Creek Mountain,663.0
42.94346,-122.54977,Abbott Butte,1867.0
43.13373,-122.80228,Abes Mountain,1255.0
43.25623,-122.68283,Bachelor Butte,1377.0
42.757904,-122.64893,Bailey Butte,943.0
42.795197,-122.54779,Bald Mountain,1614.221
42.642067,-123.113945,Battle Mountain,1212.0
42.651516,-122.75921,Bear Mountain,818.0
43.14127,-122.774376,Dumont Butte,1478.0
43.154007,-122.76561,Black Butte,1522.0
42.96901,-123.11812,Bland Mountain,796.0
43.27401,-122.84978,Blitzen Butte,1321.0
42.66179,-122.902824,Board Mountain,1104.0
43.293728,-122.963394,Bob Butte,820.0
43.090675,-123.04867,Buck Butte,917.0
43.18012,-123.09367,Buck Peak,976.0
43.180676,-122.62144,Buckhead Mountain,1634.0
42.82457,-122.740875,Buckhorn Mountain,1327.0
43.3304,-122.87867,Burnt Mountain,1048.0
42.74957,-122.66087,Burnt Peak,1085.0
43.486786,-122.5781,Buster Butte,1147.0
42.88818,-122.67949,Butler Butte,1679.0
42.639847,-122.734764,Camel Hump,945.0
43.159843,-122.734215,Cavitt Mountain,1527.0
42.762066,-123.122284,Cedar Springs Mountain,1552.0
43.432068,-122.73117,Chilcoot Mountain,1519.733
43.200676,-122.745605,Clover Butte,1314.0
42.954014,-122.58754,Cougar Butte,1643.0
42.83929,-122.867,Cowbell Mountain,851.0
43.00901,-122.71143,Coyote Point,821.0
43.09012,-122.94172,Deadman Mountain,1371.0
42.896233,-122.88616,Deer Butte,780.0
43.20484,-122.61699,Doehead Mountain,1664.0
43.331913,-122.64896,Dog Mountain,1472.5
42.62124,-122.52948,Dudley Mountain,1389.0
43.297554,-122.5438,Eagle Rock,798.576
42.844845,-122.732544,Elkhorn Peak,1412.0
42.953377,-122.5203,Falcon Butte,1753.2
42.71124,-122.657265,Fawn Butte,725.0
43.1129,-122.67227,Flagstone Peak,1108.0
43.14484,-122.80477,Foster Butte,1390.0
42.519295,-122.62976,Geppert Butte,1044.0
42.79596,-122.72171,Gobblers Knob,1004.0
43.41373,-122.57338,Granddad Butte,943.0
43.05114,-122.51681,Grasshopper Mountain,1683.4
42.825718,-122.6007,Gravel Butte,1048.512
42.85623,-123.002,Green Butte,1183.0
43.36189,-122.54306,Harding Butte,1718.2
42.830402,-122.75921,Hawk Mountain,1451.0
42.83151,-123.0745,Ike Butte,765.0
43.322712,-122.66735,Jack Point,1134.2
43.4354,-122.63616,Johnson Butte,979.0
43.19621,-123.117645,Lane Mountain,1029.0
43.477066,-122.65422,Lemon Butte,1079.0
42.82249,-122.572296,Lick Rock,1085.088
43.236786,-122.68477,Limpy Mountain,1466.0
42.642067,-123.05644,Little Battle Mountain,1013.0
43.260387,-122.73868,Lookout Mountain,1528.0
43.36373,-122.85561,Mace Mountain,1282.0
42.793736,-122.6931,Miller Mountain,1036.0
42.781235,-122.63643,Mule Hill,854.0
42.815956,-122.81116,Mule Hill,766.0
42.838024,-122.56183,Needle Rocks,1463.04
43.22512,-122.66616,OK Butte,1443.0
42.953175,-123.000336,O'Neill Butte,688.0
43.360397,-122.88256,Old Fairview,1405.0
42.659016,-122.53615,Olson Mountain,1537.0
42.739014,-123.04589,Panther Peak,1331.0
42.77068,-122.810326,Pilot Rock,1363.0
42.923737,-122.57115,Quartz Mountain,1726.0
43.163452,-122.67199,Quartz Mountain,1661.0
42.784847,-122.783936,Ragsdale Butte,1455.0
43.166508,-122.88311,Red Butte,1570.0
42.772346,-123.01256,Red Mountain,1449.0
43.34441,-122.67956,Redmans Tooth,1066.0
43.407345,-122.53866,Reynolds Butte,1340.0
42.763733,-122.948944,Richter Mountain,1456.0
43.119358,-123.08422,Riser Butte,723.0
42.664017,-122.5267,Round Mountain,1451.0
42.70179,-122.99144,Round Top,1418.0
42.84856,-122.57881,Round Top,1585.874
43.176785,-122.97423,Sampson Butte,1199.0
42.60485,-122.54059,Santiam Peak,1388.0
43.270397,-122.920616,Shivigny Mountain,1152.0
42.732624,-123.06478,Skeleton Mountain,1344.0
43.192898,-122.63449,Snowbird Mountain,1680.0
42.628178,-123.0095,Spignet Butte,1226.0
42.714012,-122.82282,Sugarloaf Mountain,821.0
43.23512,-122.79672,Taft Mountain,1424.0
42.999565,-122.68643,Tallow Butte,881.0
43.07484,-122.99367,Tater Hill,1048.0
42.717903,-122.68393,Tatouche Peak,926.0
42.781235,-122.90477,Threehorn Mountain,1418.0
43.27095,-122.862,Thunder Mountain,1323.0
43.220955,-122.598656,Twin Lakes Mountain,1787.0
43.253036,-123.05954,Watson Mountain,699.0
42.680954,-123.07839,White Rock Mountain,987.0
42.840958,-122.69977,Heck Rock,1136.0
42.904015,-122.59282,Whaleback,1760.0
43.041508,-122.834496,Hob Knob,861.0
43.270676,-122.78311,Gobblers Knob,1364.0
43.192898,-122.58449,Raven Rock,1579.0
43.061943,-122.70639,Times Square Rock,846.0
42.928177,-122.768936,Coffin Butte,1272.0
42.862347,-122.78727,Devils Knob,1482.0
42.805958,-122.91978,Diamond Rock,1281.0
43.12623,-123.48508,Swan Hill,478.0
42.520954,-123.110886,Hillis Peak,994.0
43.003727,-123.35784,Sheep Hill,784.0
43.345955,-122.72561,Steamboat Point,592.0
42.767624,-122.746155,Finger Rock,1111.0
42.854706,-122.65903,Goodview Point,1292.352
42.80358,-122.54917,Halls Point,1591.056
42.803677,-122.58591,Hibbard Point,1189.33
42.7816,-122.544205,Whetstone Point,1545.336
42.770782,-122.55261,White Point,1525.829
43.23595,-123.322014,Mount Rose,425.0
43.152336,-123.47008,Indian Nose,367.0
42.583183,-122.546974,Fredenburg Butte,1271.0
42.70068,-122.80005,Willy Rock,1190.0
43.455257,-122.50282,Pyramid Rock,1460.9
43.366924,-122.533295,Devil's Stairway,1649.0
43.349087,-122.56264,Illahee Rock,1640.4
43.34142,-122.57312,Bartrum's Rock,1463.6
43.318085,-122.63357,Limpy Rock,1115.3
