latitude,longitude,name,elevation
58.906372,-137.52611,Mount Fairweather,4671.0
58.985394,-137.5,Mount Root,3553.0
59.243805,-137.60736,Mount Hay,2525.0
59.106426,-137.54213,Unmarked Boundary Point 166,3215.0
58.780994,-137.70117,Mount Escures,1451.0
59.10623,-137.54115,Mount Lodge,3210.0
