latitude,longitude,name,elevation
22.563166,111.20703,十二灶顶,1331.0
22.555988,110.62538,望君顶,1274.0
22.532864,111.24424,五指肚,1248.0
22.622084,111.18835,云盖大山,1224.0
22.583817,111.13901,石牛肚,1082.0
22.610912,111.190834,鸭兜山,1195.0
23.477684,111.2973,蝴蝶山,74.15
23.486712,111.33293,白云山,386.0
