latitude,longitude,name,elevation
-26.97086,138.54301,Brady Hill,30.0
-27.43222,138.60478,Cooche Hill,72.0
-27.27956,138.81721,Milkapurda Hill,73.0
-27.34705,138.9582,Moonarunna Hill,106.0
-27.35991,138.71924,Mount Gason,63.0
-26.95511,138.63324,Pirrie Hill,27.0
-27.46957,138.55379,Puthera Hill,45.0
