latitude,longitude,name,elevation
21.626474,105.71364,Núi Pháo,434.0
22.353764,105.75754,Núi Phja Bjoóc,1560.0
22.287224,105.78762,Núi Hoa San,1525.0
21.57316,105.544334,Tam Đảo Nord,1592.0
21.861906,106.19535,Núi Khau Kiêng,1107.0
21.640127,105.828285,Núi Voi,194.0
22.12866,106.180824,Núi Phia Ngôm,1193.0
22.383625,106.345,Núi Khau Hai,513.0
21.632103,105.77393,Núi Sơn Cẩm,200.0
21.80841,105.51902,Núi Khau Vịt,656.0
21.722443,105.529945,Núi Hồng,747.0
