latitude,longitude,name,elevation
-33.06229,23.71796,Witberg,1560.0
-33.124138,24.04251,Witberg,1431.0
-33.1767,23.565,Trompettersberg,1113.7393
-32.5242,24.3092,Toorkop,1250.8992
-32.5383,24.3483,Skurweberg,1138.7
-33.1783,23.5192,Klein-Spitskop,1152.8
-33.365,23.5242,Witberg,1339.0
-32.8242,24.1125,Tierberg,1045.8
-33.4667,23.84,Bezuidenhoutsberg,1604.1
