latitude,longitude,name,elevation
59.96117,-166.70848,Jayalik Hill,93.0
60.049187,-166.5713,Indooli Mountain,270.0
60.08434,-167.21146,Ingriruk Hill,152.0
60.036568,-167.18872,Ingri Butte,157.0
60.103832,-167.03966,Kimiksthek Hill,183.0
60.097378,-166.9357,Jiskooksnuk Hill,184.0
59.98139,-166.56937,Binat-Ingrat Hill,283.0
60.213806,-166.98651,Kimixthoruk Hill,131.0
60.13339,-166.58568,Ahding Ingrid Mountain,195.0
60.139717,-166.53247,Kikikyak Hill,223.0
