latitude,longitude,name,elevation
15.555666,37.82611,Mont Itaberrè' Nusc,680.0
15.727752,37.825134,Mont Marafiai,994.0
15.725196,37.794132,Mont Bagar,1188.0
16.372314,38.320362,ሮራ ላባ / Rora Laba,1816.0
15.784472,38.497536,Mont Danā Denā,1561.0
15.78057,38.486153,Mont Bagadir,1615.0
15.72693,38.4923,Mont Becana,2065.0
15.743933,38.46485,Pic Zelalē,1704.0
