latitude,longitude,name,elevation
56.46832,159.76529,Ледник,1853.0
56.305042,159.83559,Чаша,560.0
56.07378,160.34558,Поперечная,2262.9
55.965416,160.16763,Копыто,818.5
56.10821,160.21976,Тарбаганий,1006.0
55.996513,160.37698,Чёрная,1948.0
55.89001,160.45998,Поворотная,1750.0
55.849163,160.42223,Звезда Толбачика,2237.0
56.212856,160.28499,Кратерный Родник,953.0
55.72492,160.36874,Кругленькая,1258.0
56.33534,159.59456,Булочка Новая,1478.0
56.462124,159.86696,Ларина,1636.0
