latitude,longitude,name,elevation
63.28322,151.30637,1555,1555.0
63.296917,151.10916,Эзоп,2054.0
62.61489,151.17152,Сторожевая,1140.0
62.58624,150.94193,Высокая,1409.0
62.596687,150.8242,Басаганья,1424.0
62.53628,151.04541,Юбилейная,1038.0
63.056244,151.46516,Туоннах,2078.0
