latitude,longitude,name,elevation
70.58441,23.859318,Svartfjellet,629.0
70.65429,23.67446,Salen,178.0
71.0049,23.996532,Varghaugen,278.0
71.016975,23.951311,Dua,305.0
71.00944,23.948603,Stigfjellet,264.0
71.0251,23.93048,Kolnæringen,352.0
70.63988,23.698393,Tyven,418.0
70.61278,23.698963,Ørntinden,296.0
