latitude,longitude,name,elevation
-10.1475,142.3214,Banks Peak,374.0
-10.1461115,142.29277,Mount Augustus,245.0
-10.25586,142.48329,Mount Ernest,233.0
-10.13588,142.1332,Mulgrave Peak,198.0
-10.19257,142.22,Tagen Hill,173.0
