latitude,longitude,name,elevation
17.94801,73.67114,Connaught Peak Point,1409.0
18.365187,73.75499,Sinhagad,1310.0
18.245237,73.68289,Rajgad,1324.0
18.27572,73.622635,Torna,1383.0
17.935228,73.57858,Pratapgad/Bhorpyacha Dogar,1080.0
18.412014,74.04935,Malhargad,945.0
18.280077,73.974304,Purandar,1387.0
18.284384,73.98914,Vajragad,1355.0
18.457937,73.85089,FE,50.0
