latitude,longitude,name,elevation
63.636738,-144.72899,Horn Muntain,1527.0
63.540623,-145.21205,Mount Hajdukovisc,2597.0
63.72683,-144.87766,Johns,1039.0
63.81648,-145.39551,Panoramic Peak,1506.0
64.28692,-145.36093,Shaw Creek Dome,1104.0
64.4237,-144.6233,Shawnee Peak,1435.0
63.78459,-145.43947,Shovel Point Horn,1541.0
63.712242,-145.37575,Granite Mountain,1844.0
