latitude,longitude,name,elevation
53.468914,139.44382,Перепекин,390.0
53.05907,139.03098,г. Две Сестры,424.0
53.240147,139.09138,Купол,480.0
52.5108,138.8727,г. Отчаяния,966.0
53.45878,139.23071,гора Булкунар,322.0
53.05096,138.5153,гора Верблюжья,459.0
53.49137,139.17531,гора Нинель,515.0
