latitude,longitude,name,elevation
36.48262,39.056892,تل حمام,350.0
35.957573,39.048004,تل البيعا,255.0
36.033955,38.8127,جبل الفيض,305.0
35.90551,39.362534,جبل منخار الشرقي,325.0
35.90592,38.732502,تل بللانة,275.0
35.928917,39.268883,تل الكاجالة الغربي,370.0
