latitude,longitude,name,elevation
24.468187,93.6624,Thangjing Hill,2109.0
24.340294,93.79591,Langshoi Ching,1296.0
24.385157,93.54644,Khaorang,1690.0
24.407682,93.72339,Point 3404,1000.0
24.392029,93.59195,Khaorang,1709.0
24.22179,93.529785,Khaorang,1320.0
24.401064,94.10796,Aimol peak,1575.0
24.44102,93.65592,Nabil Khunou,1915.0
23.639286,93.728905,Lungtak peak,1768.0
24.184454,93.78221,Haobi,1924.0
24.403456,93.66976,Waishon,1256.0
