latitude,longitude,name,elevation
-30.22234,-67.42635,Cerro La Punta,1284.0
-29.625082,-67.06326,Cerro El Manzano,2530.0
-29.760231,-67.03358,Cerro Ampisa,1799.0
-29.819185,-67.02936,Mogote La Tinaja,1515.0
-29.74949,-67.42095,Mogote Totoral,1726.0
