latitude,longitude,name,elevation
-16.41719,129.06972,Byrnes Hill,295.0
-15.54764,128.57072,False House Roof Hill,309.0
-16.34377,129.10066,Lone Hill,290.0
-15.6135,128.85156,Martin Bluff,265.0
-15.73847,128.80774,Mount Cecil,310.0
-16.45262,129.2587,Mount Duncan,290.0
-15.77272,128.9836,Mount Zimmermann,323.0
-16.34217,129.0766,The Twins,321.0
-15.830914,128.749,Elephant Rock,177.0
