latitude,longitude,name,elevation
31.400166,100.038185,莫兰彻结,5100.0
31.457893,100.20151,卡瓦洛日峰,5928.0
31.417513,99.98807,卓达拉山,5690.0
30.52404,99.55192,扎金甲博,5382.0
31.4165,100.398506,旦都喀,5368.0
31.449228,99.9968,M-Dechok phodrang,5567.0
31.453424,99.998825,N-Dechok phodrang,5550.0
31.477608,100.019775,茶卓玛,5241.0
31.428043,99.9857,卓达拉山北峰,5567.0
31.485577,99.88559,peak 5154,5154.0
31.496462,99.80849,peak 5006,5006.0
31.469841,100.32453,peak 4993,4993.0
31.453997,100.33534,peak 5208,5208.0
