latitude,longitude,name,elevation
42.737007,96.532906,хилийн багана-178,1457.0
42.754993,96.74859,хилийн багана-180,1290.0
42.754753,96.872536,хилийн багана-181,1237.0
42.75437,96.97772,хилийн багана-182 /Нарансэвстэй булаг/,1234.0
42.79458,97.17158,Нарансэвстэйн Өндөр - 184,1376.0
43.317776,96.68831,Дулаан уул,2222.0
42.949135,96.6666,Загт толгой,1373.1
42.834473,96.647385,Майхан толгой,1373.8
