latitude,longitude,name,elevation
16.059168,121.69639,Mount Dabukid,855.0
16.25389,121.889465,Mount Anacuao,1819.0
16.329721,122.174446,Mount Borogyod,378.0
15.701111,121.59,Disogsip Mountain,625.0
16.024445,121.67028,Mount Dimanjotol,579.0
16.26802,121.81798,Mount Dialanese,1808.0
