latitude,longitude,name,elevation
11.524926,124.46804,Mount Busale,341.0
11.913094,124.3029,Mount Opao,553.0
12.209167,123.659164,Mount Bagulipat,604.0
11.6107,124.480804,Mount Guiauasan,1070.0
12.093211,123.912025,Mount Banco,339.0
12.357706,124.38258,Mount Saamong,500.0
