latitude,longitude,name,elevation
42.888256,-1.9801879,Beriain,1493.0
42.634686,-2.3488295,Ioar,1414.0
43.19243,-2.4145677,Karakate,742.0
42.73243,-1.7028818,Perdon 2,1033.82
43.226223,-2.4597497,Kalamua / Maaxa,771.0
43.130318,-2.4989338,Intxorta,743.0
43.309036,-1.635508,Larhun,905.0
43.132732,-2.3889399,Pagolagaña,710.0
43.147114,-2.374722,Nordia,595.0
43.126694,-2.4131966,Kokote,308.0
43.162308,-2.4949288,Egoarbitza,733.0
43.2089,-2.4327576,Moru,458.0
43.214874,-2.4587207,Aizketa,700.0
43.219357,-2.4645488,Garagoiti,701.0
43.28168,-1.7854264,Erroilbide,837.0
43.285255,-1.7835174,Txurrumurru,828.0
43.28688,-1.7834675,Irumugarrieta,811.0
43.288692,-1.786115,Muganix,758.0
42.92096,-2.3049555,Aratz,1432.0
42.902164,-2.290266,Umandia,1224.0
42.842594,-2.3065987,Baio,1197.0
42.758804,-2.3704998,Bitigarra,1165.0
42.6514,-2.3003342,Costalera,1234.0
42.614494,-2.4915633,Peñalta,1243.0
43.01558,-2.116081,Ausa Gaztelu,901.0
42.6525,-1.6135793,Artatxu,844.0
43.17576,-1.6277885,Iñarmeakako Kaskoa,637.0
43.23749,-1.9005466,Urdaburu,599.0
43.215557,-2.312473,Aitola-kurutze,645.0
42.79707,-2.4932127,Itxogana,1063.0
43.34827,-1.6086295,Bizkartzun,184.0
43.16621,-2.4731152,Galdaramuño,664.0
43.1459,-2.1265981,Mendikute,816.0
43.158657,-2.1358628,Ubeltz,1017.0
43.156784,-2.1265886,Herniozabal,1011.0
43.114876,-2.148062,Iruntxur,743.0
43.18105,-2.1655543,Gazume,1002.0
43.24416,-1.8226889,Munagirre,781.0
42.73333,-2.4935753,San Cristóbal,1058.0
42.80965,-2.344381,Arrigorrista,1149.0
42.797367,-2.4299774,Marabileta,1088.0
42.78648,-2.4831052,Indiagana,1101.0
42.737133,-2.3279896,Perriain / Cruz de Alda,1121.0
43.299915,-1.7137306,Akozpe,457.8
43.309147,-1.7033542,Manttale,574.0
42.9072,-2.4765694,Aldaia,789.0
42.905468,-2.4634955,Cruz de Larrea,733.0
43.16431,-2.0437245,Loatzo,633.0
43.308037,-1.6481682,Larrun Txiki,699.82
42.923054,-2.3067875,Elurzuloak,1430.0
43.297104,-1.6193883,Fage,552.0
42.910183,-2.29689,Allaitz,1245.0
43.376312,-1.5102848,Otsantz,143.0
43.344215,-1.7301123,Gaztelu Zahar,198.0
43.331245,-1.5868914,Zuhalmendi,301.0
42.952515,-1.9640224,Artxueta,1345.0
43.315258,-1.618634,Altsanga,625.0
43.433956,-1.5071352,Axerimendi,71.0
43.345287,-1.8559722,Jaizkibel,545.3
43.152637,-1.9871106,Urdelar,852.1
43.176445,-2.367468,Irukurutzeta,898.3
43.30848,-2.2021284,San Antón,112.8
43.047424,-2.3604205,Gorostiaga,950.8
43.1424,-2.1919398,Urraki,825.2
42.994484,-2.392288,Buetraitz,1319.6
43.266136,-2.3208263,Andutz,612.5
42.98727,-2.213366,Atxurbide,782.1
43.225746,-2.1656337,Olarteta,714.0
43.3035,-1.7514873,Pagogaña,480.0
43.10044,-2.337584,Irimo,900.7
43.106586,-2.2792387,Izazpi,972.6
43.11652,-2.1441596,Aldaba,740.4
43.21146,-2.359542,Azkarate,664.4
42.950085,-2.2104082,Balankaleku,984.6
43.19232,-2.243566,Arauntza,612.2
43.238964,-2.0143769,Buruntza,441.3
43.131466,-2.307197,Samiño,933.3
43.070343,-2.1452763,Alzagamendi,539.1
43.206585,-2.2804415,Erlo,1029.7
43.290062,-2.2048028,Garate,281.3
42.699234,-2.3720732,Hornillo,993.7
43.09138,-2.2025561,Murumendi,868.0
43.097527,-2.052771,Otxabio / Muñobil,800.7
42.997902,-2.4960835,Elorretako haitza,1141.3
43.258743,-2.2156549,Indamendi,461.9
43.170273,-2.152768,Hernio,1078.0
42.7206,-2.1225965,Sartzaleta,1109.5
42.9704,-2.05674,Puttarri,1299.0
42.927513,-1.6580335,Txutxurro,804.9
43.02511,-1.9196548,Atume,881.4
42.8108,-1.5542419,Malkaitz,771.8
42.62128,-1.5179518,Basagaitz,989.8
43.156036,-1.753824,Ekaitza,1046.0
43.02894,-1.5565205,Xuriain,1410.5
42.608265,-2.4617913,Castillo de Lapoblación,1244.0
42.874508,-2.08531,Maiza,1182.5
43.196327,-1.690515,Apaola,682.2
42.692074,-2.0650687,Belastegi,769.0
42.633766,-2.1066523,Monjardín / Deio,893.9
43.19748,-1.8901919,Aranomendi,572.0
43.08477,-1.9694685,Ulizar,868.2
42.88824,-1.6298505,Ortxikasko,977.6
43.144955,-1.9060701,Mandoegi,1046.0
43.06177,-1.6603818,Txaruta,1080.8
42.60939,-2.2563002,Monte Cabrega,757.2
43.20534,-1.7653064,Izu,828.9
43.210155,-1.6265938,Azkua,786.5
42.98452,-1.7904277,Irumuga,837.5
43.058956,-1.9297938,Guratz,956.2
42.889538,-1.5825841,Elixato,920.8
42.65482,-1.9246473,San Cristóbal 2,738.7
43.238224,-1.6902026,Frain,498.4
42.799,-2.0478384,Dulantz,1243.2
43.173935,-1.5674596,Legate,869.8
42.927982,-1.8108784,Erga,1094.3
42.563328,-1.9364219,San Bartolomé,518.8
42.869698,-1.5036005,Lakarri,1046.1
42.54243,-1.5162297,Txutxu,930.5
43.100628,-1.8396357,Irakurri,1142.4
43.149857,-1.6438547,Oteitzoiana,685.1
43.190754,-1.589737,Aizkolegi,841.4
42.775948,-2.1503386,Larregoiko,1019.2
42.527557,-1.9319842,San Marcos,528.1
43.000103,-2.0258188,Intzako Dorrea,1430.0
42.987125,-1.6607172,Arañotz,840.0
43.044476,-1.8347516,Ernaitzu,1203.0
42.779484,-1.513399,Irulegi,893.0
43.155445,-1.7192864,Mendaur,1130.6
43.045944,-1.559205,Saioa,1418.3
43.261284,-1.583173,Saiberri,506.0
43.03578,-1.9594011,Elosta,926.22
43.19985,-2.2865083,Xoxote,912.0
43.20723,-2.2832463,Eskorta,1009.0
43.199295,-2.3011003,Kakueta,927.0
42.999805,-2.087313,Gañeta,1323.0
42.999866,-2.0795002,Malkorri Ekialdea,1329.0
42.84614,-2.308618,Mirutegi,1167.0
42.989464,-1.9864335,Alborta,1227.0
42.991623,-1.9902761,Ttutturre,1283.0
42.992554,-1.9971039,Ttutturregi,1292.0
42.99974,-2.0056267,Asteasu,1051.0
43.05112,-1.5055132,Okoro,1259.0
43.19299,-1.5334319,Larrondoko Kaskoa,853.0
43.185093,-1.5286599,Ezkitz,831.0
43.190094,-1.5391204,Urruzpil,822.0
43.162037,-1.7266889,Mendieder,1071.0
43.161537,-1.573527,Larratzu,749.0
43.156525,-1.7834411,Loitzate,1048.0
43.02564,-1.8463576,Aiztondo,1026.0
43.134426,-1.9040209,Urepel,1056.69
42.90222,-2.3157794,San Migel Haitza,867.0
43.200573,-1.5100375,Larro,786.0
43.21579,-1.5138543,Aizkotz,844.0
43.22314,-1.7309088,Unanu,650.87
43.012608,-1.5586807,Eride,1246.0
43.25305,-1.5464076,Mendibil,617.0
43.053555,-1.5877819,Gartzaga,1291.0
43.169018,-1.7656037,Domizko Gaina,1038.94
43.184914,-1.7791824,Beltzuntza,912.0
42.89846,-1.6555122,Mendurro,929.0
42.872845,-1.5858043,Arromendi,886.0
42.99987,-2.3123326,Arripillaeta,864.0
42.780357,-2.4290795,Legarda,885.0
43.005028,-2.0639796,Ganboa,1413.0
43.300537,-1.8030841,Belitz,484.0
43.001286,-2.045134,Labeongo Punte,1293.0
43.042385,-2.025641,Batzillarko Gaina,732.29
43.02445,-2.0728118,Larraone,1188.0
42.98308,-2.1372914,Agaotz,973.0
43.003326,-2.0941508,Beleku Iparra,1251.0
42.958736,-2.3534048,Kalparmuño Txikia,1184.0
43.010857,-2.0897782,Zumalerdi,1215.0
43.006577,-2.0697167,Ganbotxiki,1377.0
43.03187,-2.0315516,Balerdi,1193.0
43.005905,-2.06051,Menditxiki,1356.0
43.298264,-2.1954892,Lasuntalaia,70.0
43.006363,-2.0988898,Kilixketa,1195.0
43.029854,-2.0408695,Artubi,1261.63
43.2681,-2.399593,Oliturri,608.0
43.22011,-1.887737,Notizitxarreko gaina,412.0
42.980427,-2.3798058,Tellakaskueta,1179.0
43.015938,-2.0848198,Auntzizegi,1249.0
43.024616,-2.096477,Amezti,982.0
42.96577,-2.1214101,Ariztizabal,797.0
43.000885,-2.044527,Eitzabal,1309.0
43.00556,-2.038129,Urkute,1328.0
43.00115,-2.0751543,Uarrain,1344.0
43.244453,-1.89226,Zuarkazu,465.0
43.006336,-2.064602,Zealar,1401.0
42.996414,-2.0541897,Putreaizko Punta,1304.0
43.040432,-2.0256698,Urreagako Haitza,783.93
42.99986,-2.0559466,Pardarri,1396.0
43.008533,-2.075863,Arrubi,1325.0
43.005558,-2.0324764,Aldaon,1409.0
43.017155,-2.0637703,Uzkuiti,1332.0
43.15485,-2.4841397,Otalaldapa,609.0
43.014175,-2.058721,Salingain,1322.0
43.291553,-1.7031611,Bonoko Kaskoa,286.27
43.00368,-1.5698389,Gereziain,1091.0
42.855938,-1.9979162,Erlotxiki,1155.0
43.026157,-1.5622133,Iturrondo,1340.0
43.19365,-1.8497387,Alduzinmendi,350.25
43.294693,-1.700714,Akiler,313.77
42.703907,-2.0583446,Bargagorria,623.0
42.881897,-1.6474909,Makirriamendi,798.0
43.015877,-1.5745326,Sabiaundi,1128.0
43.018867,-2.0390756,Elizkaitz,1214.0
43.262493,-1.6374714,Obispo Gaina,375.17
42.932888,-2.0930853,Fagamendi,814.0
43.176296,-1.840519,Subelepottiki,519.22
43.151314,-1.827838,Malkorburu,513.71
43.00768,-1.5928199,Lababotako Gaina,967.64
42.93201,-2.0860412,Maitzegur,782.0
43.017677,-1.5852507,Kedarbeko Gaina,1162.0
42.81106,-1.8623513,Obiarri,982.0
42.953827,-1.9892803,Debata,1139.0
43.28447,-1.642559,Bonoa,211.79
42.99975,-1.5523711,Burdindogi,1247.65
42.86829,-1.7345972,Ezkidi,656.0
43.035816,-1.6012036,Algorrieta,1159.0
42.925533,-1.7511854,Mendurrotz,919.66
43.013496,-2.0374067,Beoin,1347.0
42.80536,-1.8915724,Ezpeldiabazter,1014.0
43.289448,-1.6354723,Egiluzeko Kaskoa,281.49
43.015472,-1.6009818,Otañoko Gaina,947.89
43.197712,-1.8116467,Soroaundiko Gaina,580.91
43.306965,-1.6599025,Aritzmendi,461.46
43.206665,-1.8998398,Etxola,328.95
42.78235,-1.8957458,Izmendia,927.0
43.04394,-1.5787985,Okolin,1355.0
42.93455,-1.9290769,Madalen,859.0
42.80355,-2.042207,La Nevera;Alto de la Nevera,1214.0
42.850002,-1.6075737,Ezpeldigorri,622.0
42.679768,-1.5605417,Karbatoki,1115.0
42.799633,-1.8955263,Soroluzeta,1014.0
42.9669,-1.502788,Azegiko Gaina,1013.0
42.910797,-1.7506815,San Gregorio / Harriaundi,942.0
42.794006,-1.8961123,Andaradia,1003.0
42.85582,-1.5894206,Pikulin,668.0
43.119606,-1.906108,Amorruixketa,773.75
42.65824,-1.6347495,San Bernabé,822.0
42.66494,-2.049092,Sarnabiaga,598.0
42.89834,-2.4017963,Basarte,641.0
42.6911,-2.4178884,Soila,994.0
42.918762,-2.4114785,Bukario,690.0
42.96049,-2.4964814,Mentazpi,1094.0
42.658024,-2.4980752,Alto de los Cerros,811.0
42.899487,-2.4792986,Dundo,704.0
42.87785,-2.425189,Iturmendi,652.0
42.95653,-2.4256961,Gaboñu / Artia,1176.0
42.885704,-2.4534166,Altos de Heredia - Lalingain,678.0
42.94172,-2.3654294,Malkorra,1242.0
42.89491,-2.408605,Galzaragaza,640.0
42.804848,-2.3567693,Peña Alangua,1089.0
42.849247,-2.2450097,Bigate,1125.0
42.90419,-2.3990836,Sorogain,624.0
42.671513,-2.4292278,Muela,1055.0
42.53627,-2.4781713,Alto de las Águilas,559.0
42.935505,-2.4670687,Nubarzeta,661.0
42.90531,-2.4319396,Usuburu,660.0
42.884537,-2.3733382,Ordoñana Mendia,625.0
42.71374,-2.3479125,Peña Puntón,893.0
43.00148,-2.4958515,Kurutzebarri,1112.0
43.207455,-2.4963372,Mundio,723.0
43.278706,-1.9107646,Utzabaleta,154.0
43.13942,-2.2073119,Garrintza,730.0
43.264496,-1.8839287,Aldura Txiki,428.0
43.243904,-2.3503733,Gaintxipixa,626.0
43.21987,-2.1628249,Atxuri Gaina,664.0
43.081547,-2.4006157,Azaldegieta,789.0
43.191837,-2.0404036,Murkulluts,204.0
43.19881,-2.2203424,Munomendi,601.0
42.97325,-2.347135,Urdajamentu,1371.0
43.17204,-2.0743842,Elormendi,247.0
43.223118,-2.4490469,Olaburu,532.0
43.115074,-2.125178,Mareagako Gaine,590.0
43.263195,-1.9323813,Atxurro Mendi,284.0
42.96515,-2.246515,Mote,579.0
43.120983,-2.242781,Kondize Muno,649.0
43.062458,-2.3256302,Goitegimendi,635.0
43.092686,-2.4568188,Irutontorreta,623.0
42.956375,-2.400465,Larrangoiti,1126.0
43.117424,-2.2472808,Kaiku Muno,623.0
43.23434,-2.310215,Agido,739.0
43.342422,-1.8812207,Amaotz,259.0
43.091675,-2.1799366,Azkoiako Gane,428.0
43.127716,-2.3739297,Itxumendi,731.0
43.221565,-2.3664277,Gorrinako Gana,498.0
43.005226,-2.468176,Iruaitz,755.0
43.275906,-1.9711497,Aritzmendi,127.0
42.943493,-2.2159166,Beturzin,913.0
43.10589,-2.1958566,Maramendi,721.0
43.071167,-2.3184469,Zumarramendi,601.0
43.24671,-2.0757315,Andatza,562.0
43.249798,-2.2557588,Otamotza,252.0
43.253777,-1.866064,Ezkitako Kaxkua,442.0
43.091118,-2.0254433,Narbaitzu Gane,479.0
43.1151,-2.1782618,Mallutz,754.0
43.12589,-2.4028125,Aingelu,452.0
42.978867,-2.48696,Maruatx,1036.0
43.068287,-2.3745627,Arrola,904.0
43.194176,-2.2991862,Makola,696.0
43.28908,-2.3893569,Apain,395.0
43.11671,-2.0671668,Euletxaga,347.0
43.17244,-2.0943074,Txurro,431.0
43.15979,-2.285484,Agitemendia,369.0
43.256523,-1.905666,Igorin,459.0
43.191635,-2.4071667,Akillar,763.0
42.961258,-2.2487335,Garaio,568.0
43.002228,-2.2858646,Barbariko Haitza,583.0
43.17159,-2.1322901,Endaizburu,736.0
43.294563,-2.2266893,Urgullmendi / Orollogaña,226.0
43.282562,-1.9974642,Oioko Mendia,125.0
43.163048,-2.4912152,Mendiburu,593.0
43.20418,-2.2977731,Aizlar,802.0
43.097786,-2.2148187,Ekuneta,722.0
43.175644,-2.4325132,Potzueta,429.0
43.011417,-2.4562068,Orkatzategi,869.0
43.249638,-2.0502646,Olaiko gaina,323.0
43.297848,-2.066936,Mendizorrotz,416.0
42.99621,-2.291355,Arkuruta,514.0
43.00666,-2.3627994,Aritztiziarreta,621.0
43.130524,-2.329741,Oleta Txiki,777.0
43.255833,-1.8814266,Aldura,544.0
43.184616,-2.4900146,Karigana,418.0
43.11507,-1.9762288,Alloar,601.0
43.07617,-2.2340508,Montekopunta,483.0
43.334717,-1.9029201,Mitxintxola,332.0
43.07369,-2.2080803,Zormendi,742.0
42.946873,-2.3626628,Oburu,1240.0
43.169155,-2.1269495,Argorri,665.0
43.170193,-2.2960265,Txalintxo,275.0
43.252422,-2.362584,Garaluz,575.0
42.98167,-2.3659008,Artzanburu,1365.0
43.10462,-2.1059349,Sagasti Ganeta,271.0
43.196625,-2.1387105,Aranburuko Gaina,596.0
43.246426,-2.3581505,Arrazkain,529.0
43.150635,-2.3325074,Arrietako Zabala,521.0
43.25991,-1.9971738,Elutzetako harkaitza,235.0
43.19938,-2.3650947,Untzon,517.0
42.952095,-2.3504696,Peruaitz,1219.0
43.01736,-2.3435564,Amutxanda,764.0
43.25304,-2.2000017,Txatxarromendi,452.0
43.113525,-2.2882612,Arantzeta,867.0
43.25058,-1.8552461,Otraitzeko Gaina,502.0
43.244167,-2.415476,Artxingakogana,447.0
43.08484,-2.2068129,Eizeta / Urrezparatz,792.0
43.182064,-2.17485,Mendibeltz,968.0
43.2098,-2.350965,Baratxuetagaina,596.0
43.27651,-2.4193103,Jaungoiko mendia (buzón),516.0
43.15673,-2.104538,Mendigain,672.0
43.072086,-2.455896,Kortaburu,484.0
43.246353,-2.0333285,Leteun,228.0
43.324944,-1.9897366,Urgull,125.0
43.25175,-2.439192,Koosa Mendia,496.0
42.991215,-2.2142682,Atxartiko Gaña,741.0
43.247086,-2.054014,Biribillondo,346.0
43.23057,-2.3715856,Barrenkorta,458.0
43.13333,-2.3362536,Ibargoiti,715.0
43.30417,-1.8582652,Urkabe,234.0
43.180065,-2.454501,Arizbakar,428.0
43.296688,-2.2314787,Otolagaña,192.0
43.158455,-2.2577908,Endaizu,412.0
43.082504,-2.1983516,Leizia / Mendiburu,731.0
42.97045,-2.385916,Gazteluaitz,917.0
43.02436,-2.451838,Gorordo,692.0
43.18318,-2.1249616,Mugallegi,526.0
43.202652,-2.3092515,Putreaitza,887.0
43.257668,-2.3650548,Sosote,519.0
43.097706,-2.0753064,Elordi,374.0
43.149166,-2.4406,Garbe,513.0
43.15396,-2.2740357,Murgil Gana,445.0
43.19161,-2.3603635,Zarrikoategana,541.0
42.99381,-2.2866106,Tellautxoko Puntea,568.0
43.257294,-2.2115858,Agiñetazar,441.0
43.095028,-2.3028784,Beloki,659.0
43.15152,-2.4562225,Tranku,642.0
43.188995,-2.4884765,Lindari,443.0
42.989082,-2.4981182,Aranguren,1149.0
43.31123,-2.4237218,Baraiku Mendia,342.0
43.164196,-2.1238048,Zopite,614.0
42.95849,-2.436942,Sekillaga,1152.0
43.076504,-2.422297,Krabelinaitz,686.0
43.213253,-2.062199,Basopota,324.0
43.263996,-2.4211266,Amoba,498.0
42.991535,-2.335214,Urkimendi,799.0
43.219173,-2.497557,Arraiza,483.0
43.11832,-2.3051274,Lizartxo,633.0
43.273426,-1.9230883,Imiaga,263.0
43.042007,-2.3195686,Aizaleku,809.0
43.126286,-2.2465935,Pagola Gana,613.0
43.03109,-2.197367,Gaintingana,351.0
43.237015,-2.2347777,Ertxiña,434.0
43.18527,-2.111396,Murgil,464.0
43.193092,-2.2351813,Sañoa,616.0
43.254772,-2.4330535,Otxortia,520.0
43.09856,-2.159084,Bizkarretako Gaina,502.0
43.109776,-2.3939116,Santikurutz,433.0
43.23339,-2.4481537,Goikonekogana,561.0
43.309097,-1.9555452,Ametzagaña,122.0
43.17238,-2.232855,Potzueta Mendia,428.0
42.957798,-2.2150116,Izozko Gaña,937.0
43.255257,-1.8279879,Basate,630.0
43.15101,-2.2184095,Erlogona,584.0
43.2741,-1.8574414,Lanberri,362.0
43.243202,-2.3063293,Ganeta,443.0
43.004604,-2.2795439,Txoritegi,592.0
43.183006,-2.2412064,Mandiotegi,364.0
43.150616,-2.1389651,Etxemendiko Gana,783.0
43.07305,-2.4143207,Maizelaieta,717.0
43.188507,-2.0353305,Larranburu,266.0
42.96343,-2.3364,Arbelaitz,1506.0
43.01969,-2.4547036,Gogordo Txiki,655.0
43.179317,-2.0300465,Bildotseta,384.0
43.163475,-2.2940068,Munoaundi,385.0
43.252525,-1.9164121,Arritxueta,373.0
43.170006,-2.3762753,Aizkonako Haitzak,827.0
42.974907,-2.2541592,Pelotaleku,685.0
43.020187,-2.3184981,Otaño,838.0
43.295475,-2.2335844,Sillerogaña,205.0
43.121696,-2.2627764,Bolaleku,561.0
43.013958,-2.3217988,Salobieta,783.0
42.95907,-2.4144456,Keixtui Gana,1132.0
43.22927,-2.0961137,Peusgarate,459.0
43.229107,-2.3060808,Sesiarte,758.0
43.08698,-2.1760123,Erreztiko Gane,337.0
43.114174,-2.4017098,Ugasarrigaña,415.0
43.21881,-2.2617095,Munatxoko punta,200.0
42.928745,-2.2658508,Unamuño,896.26
43.061832,-2.3199594,Trapaleta,635.0
43.234463,-2.0832057,Eskatzu / Ezkeltzu,503.0
43.131706,-2.1883392,Illaun,826.0
43.26368,-1.8659471,Igantzi,465.0
43.153812,-2.4401145,Albizuri,461.0
42.97169,-2.4915018,Maiputz,1079.0
43.057915,-2.3745272,Oregi,924.0
43.176563,-2.1435149,Agota,801.0
43.204525,-2.313012,Aizpeltzeko Gaña,890.0
43.270466,-2.395689,Kanpanzar,629.0
42.983383,-2.4902153,Aiznardako atxa,1026.0
43.160408,-2.1125515,Atxutegi,691.0
43.17121,-2.0777893,Basagain,295.0
43.155964,-2.288514,Letemendia,377.0
43.24905,-2.011865,Benedika,223.0
43.220043,-2.3834238,Peto Mendia,317.0
43.090363,-2.224983,Txoritegi,792.0
43.274437,-1.9325316,Santiagomendi,298.0
42.95025,-2.354898,Petrinaitz / Artzanegi,1217.0
43.10584,-2.230642,Txarabeltz,692.0
43.210243,-2.3175576,Gaztelu,778.0
43.276386,-2.3953023,Banderako puntea,616.0
43.095715,-2.1569295,Itzaleta,519.0
43.162212,-2.414931,Kuretzekogaina,567.0
43.03112,-2.47434,Galarrixa,547.0
43.28335,-1.9878099,Oriamendi,188.0
43.292118,-2.058064,Arratzain,341.0
42.93658,-2.2382476,Gazteluberri,862.0
43.134018,-2.3044832,Gurutzeta,928.0
43.255775,-1.863045,Arginuztako Kaxkua,411.0
43.169205,-2.4442616,Aingeruguarda,585.0
43.237778,-2.106478,Esteneagako Txurrua,367.0
43.264618,-2.3434782,Lizarreta,537.0
43.135536,-2.3717208,Aizpurutxomendi,692.0
43.064972,-2.378039,Arranoaitz,899.0
43.179188,-2.129999,Arburua,583.0
43.29718,-2.3803794,Urkamendi,296.0
42.977596,-2.4056542,Aitzabal,752.0
43.142143,-2.3051567,Arkina,789.0
42.984375,-2.4720154,Andartotxiki,847.0
43.287216,-1.8795823,Munoaundi,154.8
43.217922,-2.3575513,Urnobitza,644.0
42.920334,-2.2501311,Txurruko punta,991.0
43.10753,-2.2847416,Izazpiko Gurutze Zaharra,935.0
42.969692,-2.3408084,Andreaitz (Burnikurutz),1432.0
43.220352,-2.0992777,Zarateaitz,487.0
43.14758,-2.4840882,Armendigaina,602.0
42.994183,-2.4926527,Apotza,1072.0
43.10052,-2.2004676,Zarate Mendia,662.0
43.298832,-2.3689618,Mutrikugaina,232.0
43.14645,-2.116062,Artegietako gaina,780.0
43.1718,-2.4744706,Laupago,553.0
43.008793,-2.4642234,Ametzueta,807.0
43.244637,-2.0605192,Enuto,399.0
43.32864,-1.9501733,Atxumaitz,198.0
43.26757,-2.4116416,Amegikurutz,480.0
43.0282,-2.3561263,Ipiñuegi,685.0
43.12924,-2.3224497,Oñamendi,837.0
43.185623,-2.3657422,Urkiri,662.0
43.296635,-1.7869661,Lasaingana,527.0
43.334324,-1.8865379,Menditxiki Mendia,336.0
43.067863,-2.215716,Pagobakar,673.0
43.128254,-2.3792212,Loidi,701.0
42.95954,-2.3580594,Zabalaitz,1263.0
43.077255,-2.2503488,Bisutsain,621.0
43.182842,-2.116897,Almitxuri,489.0
43.1907,-2.282031,Korostieta,420.0
42.9585,-2.4562397,Mirubizkar,1048.0
43.11154,-2.0824804,Ollagon,367.0
43.229755,-2.4401293,Morkaiku,531.2
43.145935,-2.276344,Antxosi,482.0
43.29745,-1.9136193,San Marko / Bizarain,260.0
43.18739,-2.399049,Pagomuneta,769.0
42.981247,-2.2100768,Dorrontsorogaña,765.0
43.077965,-2.352526,Arriandieta,708.0
43.217724,-1.8947954,Sartze,398.0
43.15752,-2.2105234,Menditxiki,662.0
43.320847,-2.0100229,Txubillo,181.0
43.140484,-2.4276202,Larregi,367.0
43.176483,-2.4397469,Illordogaina,541.0
42.993797,-2.470472,Santikurutz Gain,830.0
43.088654,-2.207427,Arrapaitz,815.0
43.19183,-2.135891,Menaka Gaina,623.0
43.1965,-2.1931088,Txoondegi,661.0
43.31287,-2.4010804,Galdonamendi,223.0
43.153416,-2.129461,Igorreko Gana,859.0
43.067333,-2.457682,Arriaundiburu,481.0
43.234287,-2.0475438,Learbarro,396.0
43.220043,-2.3331597,Atxurigain,731.0
43.271664,-2.387276,Birular,598.0
42.99622,-2.28289,Illarramuño,566.0
43.05508,-2.4815264,Kurtzetxiki,531.0
43.16899,-2.0241024,Muñobil,483.0
43.235237,-2.3799071,Etun,416.0
43.12817,-2.331737,Pagozurieta,796.0
43.176056,-2.3732483,Kurutzebakarra,902.0
43.059303,-2.1397269,Gaintzamendi,514.0
43.160618,-2.4209752,Krabeliñaitz,607.0
43.078915,-2.2082005,Mallutz,752.0
43.11223,-2.4028966,Aizpekola,417.0
42.95243,-2.390926,Trango,1182.0
43.239933,-2.082003,Ziortza,451.0
43.252945,-2.374344,Mote,361.0
42.977867,-2.4991035,Atain,1087.0
43.08579,-2.1036954,Urkolamendi,435.0
43.152023,-2.3620024,Agerreburu,857.0
43.236423,-2.4459589,Lapion,463.0
43.053226,-2.3709922,Jentiletxe,913.0
43.31171,-1.8638866,Trapada,186.0
43.195324,-2.362663,Munoa,514.0
42.93511,-2.2844095,Añabaso,964.0
43.206577,-1.9614148,Adarra,819.0
43.12875,-2.1999202,Olanegi,641.0
43.19313,-2.026235,Lasturmendi,282.0
43.239994,-2.4213543,Bigoingogana,455.0
42.9695,-2.365667,Enaitz,1296.0
43.231457,-2.1783514,Urruztume,678.0
43.27317,-2.3192954,Txorobillar,480.0
43.18254,-2.2474787,Anabe,352.0
43.147537,-2.167833,Armoi,652.0
43.24858,-2.4393196,Kortatxiki,463.0
42.979507,-2.4781876,Andarto,1074.0
43.046272,-2.4452589,Otaerre Oriental,506.0
43.222145,-2.0472414,Belkoain,491.0
43.222504,-2.3043294,Aitolako punta,679.0
42.99913,-2.2024696,Irumugateko Gaña,702.0
43.179047,-2.022238,Arizmendi,489.0
43.227207,-2.365581,Lizundia,507.0
43.123158,-2.3003206,Pagola,823.0
43.272465,-1.9358215,Agineta,301.0
42.95669,-2.2751725,Trikamunota,806.0
43.118908,-2.4471824,Txikasoro,522.0
43.13633,-2.2509265,Loreto Gana,581.0
43.224136,-2.2980473,Otxako punta,592.0
42.964596,-2.386458,Arriona,934.0
43.19196,-2.1813066,Indo,764.0
43.25913,-2.4251032,Eguliz,498.0
42.89378,-1.9981819,Ihurbain,1416.0
43.308117,-2.429389,Tontorramendi,386.0
43.314377,-2.486559,Paguteko Mendi,226.0
43.32252,-2.4833987,Kurubio,262.0
43.325947,-2.4645975,Oruetagana,258.0
43.283463,-2.434488,Zabaldei Mendia,488.0
43.193016,-2.491832,Artaluze,514.0
43.26756,-2.458308,Onuntzezabal,416.0
43.31908,-2.4727025,Zabaliendi,303.0
43.320328,-2.4668484,Kalamendi,315.0
43.267475,-2.4179466,Aldoskako gaina,564.0
43.257206,-2.4313061,Urkarregi,522.0
43.29026,-2.4526138,Iturrinoko Tontorra,349.0
43.331306,-2.4793487,Kurutzea Mendi,251.0
43.32634,-2.4509397,Urkizamendi,274.0
43.235073,-2.4768407,Arrantzamendi,620.0
43.28813,-2.4399557,Arrikurutz,414.0
43.258366,-2.4473245,Erribaso,401.0
43.298412,-2.4984336,Itunomendi,403.0
43.304695,-2.457334,Txindurri,266.0
43.33599,-2.4868276,Siñoitz,292.0
43.325752,-2.4353545,Urkamendi,211.0
43.273823,-2.4558234,Oreuntzue,398.0
43.068172,-2.2242982,Lupazketa Gaina,609.0
42.737938,-2.2263832,Larraineta,1118.0
42.665604,-1.5730859,Alto Borda de las Vacas,938.0
42.807686,-1.8522898,Itxesorde,1009.0
42.615616,-1.6059783,Alto de Eristáin,652.0
42.657284,-1.7348208,Alto del Txaparro,695.0
42.61395,-1.5220231,Alto de la Marquesa,986.0
42.50478,-1.5847642,Alto de Camproñal,527.0
42.742188,-1.8111815,Peña Redonda,899.0
42.68397,-2.198007,Peñas de Mendandia,741.0
42.700848,-1.5915809,Alastrain,975.0
42.78343,-1.5934457,Landabarren,533.0
42.68005,-2.250346,Alto del Cierzo,635.0
42.69297,-1.5351887,Peña Grande,1093.0
43.27788,-1.7617095,Kopako Harria,596.05
43.089943,-1.5671569,Abartan,1095.0
42.828957,-1.693497,Alto de la Bandera,512.0
42.784008,-2.249006,Etxaurte,1026.0
42.525566,-1.6880558,Alto las Cruces,489.0
42.71443,-2.2778976,Peñas de Aizkorri,775.0
42.65446,-1.539461,Alto de las Saleras,913.0
42.657497,-1.6148902,Peña de Unzué,987.0
43.15759,-1.8850484,Tartazu,704.28
42.69961,-1.6707591,Alto del Cascajo,628.0
42.686733,-2.2033083,Peña del Gato,704.0
42.6471,-1.6666347,Olkotz,701.0
42.521862,-1.5318844,Alto de los Pasaros,737.0
42.674976,-1.60077,Alto de Aiurdi,979.0
42.598923,-1.5625911,Peña del Ladrón,908.0
42.600338,-1.5510191,Alto del Corral Chiquito,834.0
42.86912,-1.5109931,Peña de Beltzunegi,986.77
42.731956,-1.6254092,Oritz,558.0
42.610924,-1.60106,Alto de Juan Barranco,615.0
42.770374,-2.0182135,Alto de la Planilla,966.0
42.684566,-2.2148442,Alto de la Comunidad,663.0
42.661827,-1.6366296,Peña del Abrigo,915.0
42.655224,-1.6682667,Alto de Ozarán,634.0
43.25136,-2.1540048,Iturrain mendia,212.0
43.276653,-2.1370697,Mendibeltz,179.0
42.98676,-2.3729093,Biozkorna/Harriurdin,1274.0
43.265926,-2.083228,Agamuno,169.0
42.991737,-2.3856544,Arkaitz,1312.0
43.28683,-2.081,Aginagamendi,220.0
43.282265,-2.0995066,Txarakohaitza,175.0
43.159363,-2.3643188,Elosumendi,885.0
43.291492,-2.1113622,Talaigaina,351.0
42.97353,-2.3948076,Erbizaskun,884.0
43.27826,-2.4574232,Sarasola Mendia,324.0
42.93989,-2.3487563,Milpiribil,1279.0
43.254524,-1.8760728,Pertsebel,529.0
43.244267,-1.84918,Zaria,625.0
42.915806,-2.302428,Imeleku,1319.0
43.330704,-1.9304563,Ferminen kaskoa / Sorgiñarri,191.0
43.03142,-1.5518951,Zetume,1369.0
42.80456,-2.4175687,Santa Elena,1112.0
42.806156,-2.4101136,Soil,1108.0
42.8494,-2.2974906,Surbe,1157.0
42.65135,-2.315155,Mataverde,1183.0
42.656933,-2.3188226,La Cogolla,1072.0
43.117428,-1.5169262,Mendigain,646.0
43.1122,-1.5064974,Urkizta,689.0
42.964745,-2.4825237,Aumategi,1192.0
42.818356,-1.6182506,Erripaburua,468.0
42.926823,-2.3091311,Argorri,1311.0
42.768696,-2.0754523,Krezmendi - Garimendi,1118.0
43.305435,-1.7593074,Erlaitz,497.0
42.907,-2.2954724,Allaiztxiki,1171.0
42.85562,-1.6646758,Ezkaba,895.0
43.337765,-1.7185127,Galbario /Mont Du Calvaire,270.0
43.189476,-2.015985,Oindolar,435.0
43.312386,-1.6544768,Sugizeaga,563.47
43.27021,-2.354593,Arbil,434.0
43.05152,-1.9611537,Malkorraundi,850.51
42.978863,-1.9919125,Beloki,1276.0
42.99198,-2.0080795,Mendiaundi,1307.0
42.978085,-2.012045,Txameni,1299.0
42.977642,-2.0071857,Txorrotxeta,1273.0
42.989304,-2.004559,Atallaurre,1275.0
43.025936,-2.0400233,Uragorri,1305.44
43.06712,-1.9728936,Musaio,821.0
43.066097,-1.9909058,Pagota,854.0
43.070293,-1.9934609,Urkieta,865.0
42.652653,-2.3064415,Costalera Occidental,1228.0
42.884186,-2.2628384,Olanoko Aitzandia,1083.0
43.313965,-1.846054,Arkaleko Arkaitzak,250.0
42.80425,-2.369098,Larredez,1104.0
42.9607,-2.3335836,Iraule,1507.0
42.808018,-1.607416,Elizmendi,531.0
43.256367,-1.7929885,Errenga,794.0
42.629616,-2.0453787,Vértice de Montejurra,1044.0
43.30559,-1.7833734,Arburu,476.0
42.809437,-1.9978156,Oskandia,1215.0
42.98906,-1.9801955,Putremalkorra,1221.0
42.990524,-1.9786603,Subezelaigañe,1209.0
43.237766,-1.6038868,Madariko Gaina,588.0
43.24219,-1.5863583,Zentinela,662.0
42.7278,-2.4104605,Arburu,1048.0
42.74433,-2.4341664,Peñas de Obi,854.0
42.999123,-2.0811317,Malkorri,1329.0
42.818695,-1.9916123,Malkaxko,1238.0
43.12184,-1.9530574,Ipuliño,934.0
42.722916,-2.4122167,Lamarizala,971.0
42.794945,-2.4905243,Elabe,1067.0
43.048965,-1.8428003,Ireber,1207.88
43.19588,-1.9670048,Oindo,785.0
43.15393,-2.0475042,Uzturre,730.4
42.786892,-1.5751486,Bordalarre,573.0
42.800987,-1.846049,Etxauriko Haitzak / Peña Etxauri,1136.0
43.078266,-1.7218745,Bonozorrotz / Munazorrotz,1018.0
43.074753,-1.7611487,Intsusa,913.06
43.059,-1.6988934,Armaltxuri,947.0
43.123116,-1.9208902,Intxusu,950.82
43.127163,-1.9169618,Altzegi,1010.81
42.73338,-1.7018552,Erreniega / Alto del Perdón,1034.06
42.721725,-1.693759,Aizkibel,1016.0
42.72812,-1.686345,Bordatxar,1002.0
42.868603,-2.0510416,San Adrián,1113.0
43.072887,-1.5635318,Katilliko Kaskoa-Pikuda,1119.0
42.755512,-1.593562,Sierra de Tajonar,672.0
42.764046,-1.5967512,San Salvador,587.0
42.74875,-1.6110213,Santo Domingo,574.0
42.747807,-1.5562869,Bizkaia,762.0
42.749138,-1.5367901,Bagadi / Pagadia,898.0
42.757915,-1.51856,Urramendi,896.0
42.76758,-1.5176555,Arikita,834.0
42.788406,-1.5122494,Txaparre,852.0
42.793938,-1.5257573,Aritzko,844.0
42.801598,-1.5376977,Tangorri,845.0
42.807392,-1.5443817,Donatsai,795.0
42.811485,-1.5662361,Bordalarre,615.0
43.05293,-1.5457554,Eurtegi,1194.0
43.065292,-1.5664527,Zokoa / Ekaitzeko Kaskoa,1181.0
43.078247,-1.564048,Olariaga,1045.0
43.084354,-1.5663844,Elorregi/Iturburu,1045.0
43.09285,-1.5571305,Aitzkoa,954.0
43.096252,-1.5619794,Urdintz,912.0
43.097263,-1.5655386,Urlegi,922.0
43.048504,-1.5309294,Larrakarte,1186.0
43.05852,-1.5257365,Zaguako kaskoa,1159.0
43.063934,-1.5215375,Araongo Harria,1084.0
42.66401,-1.6462888,Urraun,816.0
42.676678,-1.6219983,Itzula,1044.0
42.68181,-1.6247545,Orrontz,1123.0
42.68882,-1.5943724,Santa Cruz,1051.0
42.694313,-1.5604806,Txanburu,1136.0
42.692352,-1.5693856,Irumuga,1132.0
42.676834,-1.5436755,Ekisoain,1071.0
42.672115,-1.5197068,Mendiurrun,1000.0
42.682114,-1.5144452,Ekisoain,801.0
42.69585,-1.5312513,Higa de Monreal,1289.0
43.031086,-1.6106029,Loiketako Gaina,1139.2
43.007023,-1.5800529,Garbitz,1074.0
42.992752,-1.5444927,Leateko Gaina,1204.0
42.98818,-1.5480118,Goitiko Gaina,1232.0
42.98709,-1.5675888,Urdanatz,1124.89
42.98982,-1.5670316,Gurbaitz,1112.38
42.984055,-1.5806136,Apordoki,1082.0
42.96711,-1.526602,Eurtalde,922.49
42.83607,-1.5972718,Miravalles,599.0
42.874893,-1.5830171,Antxorizko Haitza,868.0
42.885857,-1.5841663,Peña de Berrondo,883.0
42.958363,-1.5613413,Baratxueta,1147.5
42.918915,-1.7407027,Mintxegi,924.0
42.891056,-1.6421473,Landakoa,841.0
42.87833,-1.6552929,Zapurda,683.0
42.869884,-1.6253862,Auzalor,696.0
42.856823,-1.634913,Erausogaina,581.0
42.86352,-1.6991313,Arrondoa,505.0
42.86185,-1.7105001,Santa Cruz,505.0
42.862495,-1.7377841,Cerro de la Fuente,532.0
42.854618,-1.738221,Lakidainbularra,504.0
42.837296,-1.7271734,Alto de los Pinos,469.0
42.882256,-1.7269822,Eltxumendi,851.0
42.87993,-1.7411278,Arburun,667.0
42.887318,-1.7402902,Izketa,766.0
42.893295,-1.7273804,Oiargun,734.0
42.89828,-1.7292542,Andibarro,742.0
42.898636,-1.743165,Primiziburu,746.0
42.908978,-1.7334887,Arberoki,791.0
42.915337,-1.7489063,Santa Bárbara / Urrutxaga,917.0
42.926785,-1.7347138,Maribizkar,875.0
42.92923,-1.7348847,Arangaitz,889.29
42.92892,-1.7296354,Arizbakar,867.38
42.926052,-1.7112888,Bagadixar,797.0
42.884956,-1.8152574,Bizkai,823.0
42.881786,-1.856098,Txurregi,1121.0
42.889645,-1.8630862,Alto de la Balsa,889.0
42.887737,-1.8390343,Gaztelu,998.0
42.886436,-1.7739406,Larreaundi,623.0
42.88901,-1.7645332,Ollarnagusi,618.0
42.89615,-1.7721192,Mendi,709.0
42.895836,-1.7656126,Txurri,691.0
42.89426,-1.7586942,Txurbil,703.0
42.83804,-1.842424,Mortxe,1123.0
42.844177,-1.840784,Saldise,1043.0
42.797195,-1.8152812,El Huso,644.0
42.771313,-1.8566136,Txarakardia,945.0
42.754143,-1.870929,Esparatz,1022.0
42.761204,-1.8789923,Peña Grande,934.0
42.782448,-1.589648,Sotoburu,549.0
42.786285,-1.5865126,Sotoaldapa,589.0
42.786953,-1.5621586,Cerro de la Borda,593.0
42.791107,-1.5665534,Beltzunegigain,589.0
42.658577,-1.7199098,San Martín,715.0
42.755436,-1.6558867,Mendi,518.0
42.812428,-1.8818091,Garindo,1003.0
42.95522,-1.6545358,Markots,648.0
42.960606,-1.6308112,Aldegi,682.0
42.9563,-1.6140012,Etxaideko Dorrea,597.0
42.937534,-1.6182239,Bordaburu,802.0
42.92825,-1.621228,Lizuri,674.0
42.915176,-1.6335995,Joanaitsesi,774.0
42.908936,-1.6247375,Sarroa,758.0
42.91939,-1.6752244,Arranomendi,809.0
42.90989,-1.6878744,Tartazupe,756.0
42.924557,-1.6784333,Iturzubi,768.0
42.929417,-1.6833214,Artzagibel,749.0
42.941082,-1.655725,Ozin,704.77
42.943485,-1.6596088,Aitzpea,689.17
42.960777,-1.7048444,Itxondoa,786.0
42.85749,-2.2048113,Gainsoil,1064.0
42.84705,-2.1641386,Agileta,994.0
42.853436,-2.126871,Tximista,945.0
42.844204,-2.1078167,Bretxagaina,965.0
42.870583,-2.162233,Bargagain,1153.0
42.872547,-2.1435864,Balankaleku,1106.0
42.87214,-2.1521459,Ixuripunta,1133.0
42.871696,-2.1169176,Santa Marina,1064.0
42.87176,-2.07254,Iruelorrieta,1093.0
42.86204,-2.0053937,Tunelgaina,1146.0
42.863533,-1.974508,Aitzorrotz,1192.0
42.863846,-1.964034,Eskalaborro,1228.0
42.86451,-1.9563683,Pagomotxeta,1237.0
42.86691,-1.9431343,Atazabal,1226.0
42.864548,-1.9385679,Peñablanca/Aitzuri,1266.0
42.948105,-1.9926383,Saldisgain,1088.0
42.95961,-1.9915233,Mozkordi,1086.0
42.96287,-2.028062,Irutxinpunta,1162.03
42.98002,-1.9429814,Zamariborro,826.43
42.981506,-1.948516,Pastarri,855.0
42.98364,-1.953666,Izarritako Gaina,920.0
42.983006,-1.963533,Kaxamongo,1002.71
42.98351,-1.9665097,Txurtxur,1057.86
42.984455,-1.9718553,Gaztelu,1080.58
42.986794,-1.9767745,Arriolatz,1172.78
42.98873,-1.99671,Aitzear,1286.0
42.985477,-2.0189016,Zeontza,1221.0
42.978535,-2.0376534,Atxispuru,1278.0
42.832977,-1.5822381,Urbizkain,505.0
42.843945,-1.5721744,San Miguel,689.0
42.849846,-1.5565475,Lertxundi,784.0
42.854244,-1.5472413,Erkalaz,782.0
42.861435,-1.539259,Asketa,862.0
42.862427,-1.5517324,Irotzmendi,765.0
42.87045,-1.5314763,Suprincio,875.0
42.869785,-1.5022914,Elmendi,1036.0
42.883926,-1.5323817,Kozkorro,868.0
42.88168,-1.5438615,Puno,859.83
42.83905,-1.5289276,Ilbiriku,832.0
42.852306,-1.5244133,Egulbati,933.0
43.00205,-2.1692593,Jentilbaratza,465.0
42.85525,-1.5965381,Amiñagain,771.0
43.306747,-1.6296241,Pilotalekugaña,870.0
43.195206,-2.2308702,Mugarriluzeko Punta,604.0
43.029507,-1.8170027,Seanbe,1023.0
43.0367,-1.8302844,Txiale,1066.0
43.182648,-2.3855815,Atxolin,841.0
42.804253,-1.9323875,Elimendi,1135.0
42.81619,-1.9331743,Zoiolagana,1147.0
42.987503,-2.3176017,Elortxiki,865.0
43.298134,-1.6680889,Lizarnabarra,366.44
43.29961,-1.6717045,Txarrantxarri,335.97
42.7025,-1.8991525,Iguste,884.0
42.721058,-1.891039,San Cristóbal,756.0
42.703705,-1.922129,San Quiriaco,659.0
42.690838,-1.8753244,Markalagain,757.0
42.704292,-1.881862,Axixuri,806.0
42.701134,-1.918535,Peña de la Torre,638.0
42.699005,-1.9282304,Txapardia,706.0
42.705383,-1.9484777,Burumendi,603.0
42.70183,-1.9545236,Txaparrandia,598.0
42.70835,-1.935688,Irurre,687.0
43.18925,-1.9584374,Zaburu,781.0
43.317207,-1.7072208,Munhoa,353.0
43.318615,-1.7202559,Osingo Zelaia,392.0
42.94022,-2.160334,Intsuspuru,942.0
42.942047,-2.1171386,Irumugeta,959.48
43.144596,-1.74655,Oltzorrotz,888.7
43.160427,-1.770704,Arainburu,1054.0
43.14687,-1.747918,Arantzazelai,860.57
43.28998,-2.477495,Amalloko tontorra,123.0
43.265278,-1.9879307,Agerreburu,245.0
42.908367,-1.660564,Aldaun,917.0
42.907753,-1.706332,Illarragorri,722.0
42.91112,-1.706641,Oiargain,724.0
43.21589,-1.960434,Aballarri,642.0
43.219444,-1.9655468,Arlegor,545.0
43.188293,-2.4944491,Sanmartinburu,376.0
43.190502,-2.495557,Artarrai,406.0
43.19351,-2.4898949,Lixibaeta,518.0
43.29618,-1.6128763,Fageko Harria,551.0
43.286842,-1.787499,Errekarte Harria,652.0
42.991833,-2.048446,Olamuño,1261.0
42.995308,-2.0481122,Ontzanburu,1281.0
42.998913,-2.049821,Muñotxikieta,1261.0
43.000202,-2.039299,Kobagaine,1324.0
42.995853,-2.039379,Arbelo,1332.0
42.995552,-2.0106578,Kurutzeaga,1308.0
42.998474,-2.022666,Beldarregi,1405.0
43.012062,-2.04174,Egurtegi,1320.0
43.009106,-2.032902,Egurbide,1317.0
43.0326,-2.05124,Zabalegi,1111.0
42.9809,-2.0381196,Errenaga Txiki,1277.0
42.98275,-2.0382977,Errenaga,1287.0
42.98556,-2.038718,Pagota,1271.0
42.980587,-2.0330155,Desaomendi,1306.0
42.98609,-2.042855,Beaskin,1232.0
42.980087,-2.0234404,Desaomendi Txiki,1261.0
42.970196,-2.034923,Arrartetxipia,1253.35
42.97137,-2.0182028,Eurlatz,1283.69
42.97253,-2.0161266,Ipuzmeaka,1272.36
42.9793,-2.051301,Uazkuru,1249.0
42.97391,-2.043192,Aparein,1261.0
42.978798,-2.0433905,Kargaleku,1253.0
42.976048,-2.0529654,Hirupagoeta,1235.0
42.972332,-2.0927548,Alleko,1017.0
42.974144,-2.47886,Gazteluko Aitza,1027.0
43.001293,-2.469247,Arbe,731.0
43.03397,-2.446888,Illargaina,640.0
43.04538,-2.4477282,Otaerre,516.0
43.08765,-2.4815574,Anporreta,585.0
43.178776,-2.4662132,Tontorra,345.0
43.169033,-2.4512048,Topinburu,590.0
43.23606,-2.42308,Ziardamendi,468.0
42.60827,-1.502996,Montejulio,1002.0
42.623066,-2.3549142,Hermana Menor / Ahizpa Txikia,841.0
42.623844,-2.3541229,Hermana Mayor / Ahizpa Handia,968.0
43.017513,-1.8451517,Iroxketa,942.0
43.019043,-1.864014,Arrizuri,844.0
43.03219,-1.894826,Basakaitz,891.0
43.0349,-1.8760145,Azolako Malkorra,907.0
43.038967,-1.867201,Arpalats,977.0
43.040215,-1.8595027,Iontza,962.0
43.053234,-1.8432837,Launtze,1194.52
43.02204,-1.8123436,Ormalabaki,864.0
43.01583,-1.8089167,Iturrondo,829.0
43.08153,-1.9343418,Urtezar,700.0
43.077095,-1.9332232,Hirupagoeta,842.0
43.074894,-1.9309621,Okabio,864.0
43.07261,-1.9314325,Axuste,851.0
43.065304,-1.8924431,Aritz,1041.72
43.064785,-1.8799161,Ansolitzaundi,1055.57
43.067978,-1.8689364,Kornieta,1081.0
43.068073,-1.862003,Aurritz,1066.0
43.072525,-1.862338,Akan,1056.0
43.07101,-1.869517,Atsotegietako Gaina,1021.0
43.068066,-1.8416803,Zuparrobi/Zuperrori,1165.0
43.074234,-1.8440094,Beraitz,990.49
43.076305,-1.8652066,Artxulo,954.0
43.098946,-1.9025791,Baztarla,942.0
43.10153,-1.9221184,Arramia,862.61
43.10518,-1.9103854,Biuztain,902.35
43.100185,-1.884566,Petriketa,1057.0
43.090473,-1.8824357,Loiategiko Kaskoa,797.0
43.100933,-1.8776492,Eguzkizko Muinoa,1083.0
43.100327,-1.8168693,Arriurdiñeta,1059.35
43.107155,-1.8371356,Korostur,1056.06
43.098686,-1.831969,Ezkain,1065.47
43.150234,-1.9202721,Baratzazarreta,986.0
43.169315,-1.916752,Leuneta,880.87
43.17073,-1.9194305,Unamuno,886.0
43.175304,-1.9316332,Etzala,813.0
43.180435,-1.9393511,Azketa,835.0
43.05133,-1.627078,Mendiborobil,940.0
43.049866,-1.626435,Gazteluzarra,942.0
43.066547,-1.683602,Labeaga,971.84
43.04933,-1.637571,Berriozokoa,983.0
43.04259,-1.620054,Urdanbidegi,952.0
43.0464,-1.648563,Galbarreneko Bordako Harria,908.0
43.054028,-1.649366,Golbaiko Gaina,1019.0
43.0574,-1.658207,Uztalakortako Gana,1063.0
43.056133,-1.6633905,Putzuetako Gaina,1062.0
43.0574,-1.679119,Sanmigelargain,1021.0
43.06286,-1.629399,Karramiztegi,955.0
43.06202,-1.679155,Pagoaundi,1029.0
43.300304,-1.9190825,Kutarro,215.0
43.237823,-1.77841,Bidangoko Kaskoa,781.25
43.2287,-1.762941,Almendruitz,712.0
43.219215,-1.7611032,Pagolletagaña,685.0
43.22554,-1.7428504,Itsaszelaieta,576.18
43.030052,-2.351442,Albatxuri,676.0
43.055283,-2.3247135,Gaintxiki,587.0
43.21205,-1.6342927,Kokori,723.0
43.217754,-1.637691,Mendizorrotz,596.0
43.215576,-1.652981,Azkuko Gaina,569.35
43.205795,-1.621757,Arranokamaineta,752.0
43.204266,-1.61725,Barda,812.0
43.19108,-1.600638,Paretazar,800.0
43.195248,-1.609405,Paretazarreta,771.0
43.205715,-1.589951,Bagolea,703.0
43.203205,-1.5733387,Mendabio,607.0
43.186577,-1.639517,Iztola,624.0
43.178486,-1.614412,Añolatz,643.0
43.150322,-1.596896,Munoa,454.0
43.165752,-1.58338,Amezti,598.0
43.165894,-1.602137,Aintsoro,425.0
43.160156,-1.5879842,Arregiko Kaskoa,657.0
43.152367,-1.633967,Meateko Kaskoa,648.97
43.144466,-1.6188835,Amaburu,448.0
43.137314,-1.585426,Auzkue,423.0
43.148434,-1.68824,Bunogain,495.0
43.149624,-1.680983,Axkin,558.0
43.17234,-1.706158,Peromendi,591.03
43.170467,-1.721268,Mairubaratzeta,850.0
43.159927,-1.5402842,Muno,433.0
43.155186,-1.7099117,Atzurdi Punta,1004.0
43.190075,-1.6955248,Urkidi,627.0
43.204456,-1.685255,Oianberri,653.0
43.166264,-1.523484,Bagordiko Kaskoa,619.0
43.179615,-1.540794,Unbotoko Kaskoa,802.0
43.2022,-1.5338838,Atxuela,828.0
43.190388,-1.515999,San Fermingo Harria,637.0
43.19779,-1.5258977,Arburu,752.0
43.207848,-1.5500941,Bular,647.0
43.213417,-1.540025,Erdi Bizkar,688.01
43.210567,-1.50417,Betarteko Haitzak,823.0
43.24375,-1.655846,Xiñaurtegi,378.0
43.25296,-1.6710854,Etxeburu,238.0
43.25684,-1.662235,Apategi,288.24
43.25352,-1.653512,Zurgaieta,292.0
43.250835,-1.635167,Ezkiña,455.44
43.254074,-1.642326,Ezkututza,420.0
43.252804,-1.629481,Monoko Bizkarra,481.09
43.237965,-1.594109,Bagobilleta,628.0
43.25334,-1.603413,Nabarlatsako Gaina,525.0
43.254684,-1.610738,Gaztañarriko Gaina,491.77
43.25403,-1.591793,Eguzkietako Gaina,526.0
43.257683,-1.617384,Idoietako Gaina,510.68
43.018135,-1.5408368,Alkozarko Gaina,1235.0
42.983234,-1.600177,Iruxabal,827.64
42.979847,-1.5977345,Eskatimalda,778.35
42.983196,-1.612602,Alanegi,718.0
42.674843,-2.4413488,Peña del Santo,1037.0
42.68996,-2.422356,Gaztelua,867.0
42.649143,-2.46431,San Cristóbal,882.09
42.658943,-2.427122,Redina,839.0
42.61043,-2.455438,El Tajo,1201.0
42.61767,-2.425379,Gurugu,898.0
42.60406,-2.424797,Las Llanas,972.0
42.721203,-2.36945,San Justo,786.0
42.72743,-2.357527,Martingatxa,874.0
42.720078,-2.35207,Roblegindo,925.0
42.719753,-2.294329,San Cristóbal NW,842.0
42.717968,-2.292652,San Cristóbal,847.0
42.719265,-2.384175,San Kristobal,963.0
42.736015,-2.337674,Txintxularri,1124.0
42.717255,-2.2100277,Astenbelarra,1001.0
42.73703,-2.1940074,Gatutarri,871.0
42.730297,-2.2117815,Zikilamendi,1092.0
42.728603,-2.236159,Irasabela,1095.0
42.754105,-2.270623,Mendilepo,1025.0
42.750977,-2.281486,Ilunpia,1132.0
42.761105,-2.264272,El Castillo,939.0
42.76093,-2.276251,Armontu,964.0
42.76056,-2.271782,Mendiarre,922.0
42.760868,-2.283584,Tostarana,951.0
42.765003,-2.28933,Bengalzarra,905.0
42.75247,-2.288434,Izazpikueta,1059.0
42.75725,-2.26681,Egurtza,922.0
42.748993,-2.180788,Surgurin Txikito,681.0
42.740623,-2.233616,Zepoteta,1082.0
42.74377,-2.2251112,Barluze,1026.0
42.743393,-2.2192228,Sagastoia,993.0
42.73939,-2.2537427,Artatxueta,1194.0
42.745396,-2.20311,Mendizorrotz,824.0
42.74478,-2.211658,Aizkorribe,924.0
42.748444,-2.19211,Kostainlupe,736.0
42.746574,-2.183985,Surgurin Grande,785.0
42.759544,-2.215944,Etxazarra,767.0
42.75935,-2.220468,Aitzuripe,781.0
42.76351,-2.231513,Belaztegi,797.0
42.761612,-2.228836,Barluze Uiarra,764.0
42.764694,-2.253523,Urdaida,888.0
42.75013,-2.25773,Olastitzu,1067.0
42.764824,-2.2425578,Alto de Amaso,832.0
42.741917,-2.2760353,Arnaba,1248.0
42.748627,-2.266093,Askitxa,1091.0
42.764973,-2.2239525,Isusura,785.0
42.766724,-2.3465936,Txandi,1151.0
42.774426,-2.330026,Kapitate,1119.0
42.79077,-2.29268,Kontrastarregaina,1072.0
42.784863,-2.282729,Murube,1129.0
42.786243,-2.2474506,Etxaurte,1025.0
42.830307,-2.3071668,Txumarregi,1098.0
42.826553,-2.2918992,Lazkueta,1123.0
42.848312,-2.304431,Atauko Haitza / Peña Atau,1103.0
42.824577,-2.32618,Punta del Puerto de Munain,1045.0
42.843643,-2.2726734,Kortaundi,1069.0
42.847298,-2.2805555,Akarrate,1089.0
42.844402,-2.2662895,Belleku,1055.0
42.720623,-2.490442,Ipurtika,1027.0
42.71311,-2.407682,Peña Rebita,904.0
42.732803,-2.4074428,Mendibibila,1043.0
42.714382,-2.4308,Gustaldapa,935.0
42.719902,-2.468367,Alto de la Tejera,859.0
42.781376,-2.480689,Arbozu,1063.0
42.772655,-2.470372,Los Altos,925.0
42.72574,-2.4126253,Santa Águeda,1041.0
43.269176,-1.762148,Agiña,618.0
43.28056,-1.7500831,Azperra,461.23
43.25327,-1.7610393,Ikatzuloko Bizkarra,580.0
43.330208,-1.9338717,Mendiola,209.0
43.247143,-1.7600795,Zumarrako Gaina,604.0
43.23172,-1.7799538,Utxa,745.79
43.16815,-1.8042676,Amonamotzeko Kaskoa,947.0
43.161,-1.7898204,Putzuetako Gaina,992.0
43.163635,-1.8101637,Mendibilla,947.91
43.19172,-1.7630612,Baratxar,739.0
43.17611,-1.7575566,Negusoro,863.0
43.165154,-1.8187397,Arramaltako Kaskoa,844.62
43.15912,-1.8330808,Deskargako Dorrea,739.14
43.17597,-1.833461,Bimunttueta,549.05
43.1827,-1.8490586,Tartolako Kaskoa,471.0
43.18003,-1.843941,Gorosketako Kaskoa,549.0
43.17811,-1.8918155,Añone / Urgarateko Kaskoa,596.0
43.177242,-1.9021971,Arriurdingain,706.88
43.1334,-1.88522,Barrengo Munoa,981.0
43.115807,-1.8792362,Erroizte Azpikoa,744.0
43.114063,-1.8741162,Erroizte Iparra,820.56
43.11175,-1.8735291,Erroizte Hegoa,849.1
43.11496,-1.8874049,Urdola,742.0
43.10459,-1.8090844,Soingo Gaina,1036.04
43.108757,-1.8095936,Txelaitxoko Kaskoa,1022.28
43.11321,-1.8041719,Orrotako Gaina,932.86
43.106,-1.797345,Goiko Azako Mehaka,834.47
43.109066,-1.7901936,Iartza,898.0
43.113075,-1.781536,Lexarburu,916.0
43.122955,-1.7772086,Artxinga,846.34
43.108505,-1.7366933,Aintzingurutz,711.72
43.1182,-1.6970239,Arranburu,413.0
43.086105,-1.7194258,Monaxketa,944.0
43.102306,-1.7022587,Munoa,467.0
43.09458,-1.759527,Otabeltza,658.0
43.071396,-1.7807528,Uztartza,877.57
43.073387,-1.7807502,Artzeleta,870.27
43.066677,-1.7804534,Oattolako Kaskoa,905.0
43.08919,-1.7690103,Erriburu,709.88
43.062817,-1.7816107,Tantadi,928.0
43.063175,-1.7908267,Urkiko Gaina,962.0
43.064323,-1.8026227,Orobiko Larre,997.11
43.06099,-1.8188449,Lotza,962.39
43.071384,-1.7998405,Azkonzulueta,887.09
43.0594,-1.7838397,Goiko Gaina,932.0
43.0499,-1.8885047,Egieztu,910.47
43.011288,-1.8160341,Istildoki,756.0
42.991844,-1.7755195,Aano,781.0
42.973164,-1.7775705,Oianberri,817.42
42.991013,-1.7693413,Xoxanea,804.0
42.988953,-1.7636051,Zugazmendi,806.0
42.981644,-1.7900352,Pagadiandieta,836.08
42.9893,-1.754153,Arkatxu,776.0
42.960854,-1.642567,Extingo Gain,722.0
42.97281,-1.7059245,Beuntzako Gaina,796.0
42.962093,-1.6263309,Aldegi,682.0
42.933044,-1.6293914,Artzanegi,632.0
42.956818,-1.6346624,Otxabizkiko Gaina,747.0
42.947834,-1.6053437,Gongora,726.0
42.959175,-1.6492122,Espaltza,679.0
42.951656,-1.629444,San Antón,781.0
42.93467,-1.620274,Urrutia,758.0
42.942078,-1.6222166,Bordaburu,802.0
42.955505,-1.6246729,Zalabartako Gaina,773.0
42.893467,-1.5806797,Otsakaingo Gaina,895.0
42.873466,-1.5900882,Txumendi,849.0
42.861225,-1.590012,Zabalgain,668.0
42.842712,-1.5532199,Erbaluz,743.0
43.160923,-2.2641616,Oñazmendi,397.0
43.160805,-2.262355,Argaña,408.0
43.127808,-2.189412,Beleku,805.0
42.885365,-1.6432326,Illarraga,817.0
42.877647,-1.6381001,Epel,698.0
42.88077,-1.6217357,Txaraka,812.0
43.19986,-1.9856318,Usabelartza,673.0
43.195164,-1.9943303,Muntto,499.0
43.188885,-1.9202735,Garagartza,674.0
43.23588,-1.9201632,Agiña,438.0
43.241825,-1.8993981,Urdaburu Txiki,481.0
43.064163,-2.2217958,Asti,604.0
43.06736,-2.2200851,Biruin,648.0
43.076183,-2.1863525,Arritarte / Litsosota,696.0
43.08164,-2.1938107,Ermosoroeta,711.0
43.089455,-2.209582,Murutxiki,805.0
43.08766,-2.2197292,Portamosegi,759.0
43.09458,-2.2058494,Atxipimendi,778.0
42.986145,-2.2512631,Aizleor,723.0
42.97753,-2.26687,Mariñamendi,786.0
42.976433,-2.277649,Amezti,611.0
42.9484,-2.2521133,Gazbide,757.0
42.946156,-2.2393339,Naizpe,779.0
42.954113,-2.2528694,Mendiurkillo,784.0
42.977966,-2.2175376,Lizarrabea,724.0
43.0045,-2.155434,Intzartzu,811.0
42.990086,-2.1698875,Artzate Haitza,656.0
42.993584,-2.1706746,Loibe,625.0
42.987465,-2.1527748,Beamaburu,758.0
42.99625,-2.1706877,Itaundieta,608.0
43.007545,-2.1607773,Aizkoate,735.0
43.000263,-2.2054474,Andrelorriaga,725.0
42.678146,-2.1836083,Peñas de la Miel,749.0
42.68809,-2.1550398,San Víctor,822.0
42.703335,-2.1452622,Sardegi,958.0
42.7123,-2.1264164,Sartzaleta Inferior,1055.0
42.739872,-2.1100626,Lokiz,1121.0
42.742146,-2.064059,Azantza,1085.0
42.729614,-2.112187,Ibirin,1082.0
42.730553,-2.1180737,Lisa,1126.0
42.776947,-2.0740094,Guremendi,1141.0
42.782677,-2.0697212,Ekaitza,1166.0
42.779457,-2.0959306,Arrepuia,1066.0
42.799023,-2.0920198,Bardoitza,1115.0
42.799137,-2.0334983,Zanabe,1136.0
42.779346,-2.0394258,Kurruzkarraz,1054.0
42.76193,-2.0417535,Azpala,1036.0
42.77479,-1.9807936,Mendizelaia,982.0
42.814243,-1.9846655,Artxurieta,1228.0
42.81156,-1.981621,Iturgoiengo Hirutasuna,1224.0
42.807003,-1.977794,Mugaga,1219.0
42.820816,-2.007366,Monosarios,1067.0
42.826294,-2.007511,Ibarrola,1065.0
42.838585,-1.8980905,Gazteluzar,979.0
42.810772,-1.9656864,Tanturaundi,1162.0
42.815983,-1.9760436,Zurloz,1224.0
42.820145,-1.9634013,Lardanburu,1183.0
42.815075,-1.9572092,Otsaurka,1171.0
42.8241,-1.9341438,El Alto,1137.0
42.806698,-1.9598328,Tanturtxiki,1102.0
42.829197,-1.9273515,Urdanegi,1133.0
42.821156,-1.9166155,Motxope,1079.0
42.782948,-1.7630565,Meaz,513.0
42.775627,-1.7867345,Martxamendi,549.0
42.77212,-1.8018368,Biribilleta,526.0
42.759632,-1.8117372,Zulozar,759.0
42.743637,-1.8172255,Aritzdigorri,874.0
42.745827,-1.800541,San Esteban,887.0
42.743935,-1.7900167,Kalaberagain,845.0
42.746315,-1.779316,Elzate,771.0
42.751305,-1.7835436,Ertxubia,798.0
42.673035,-1.5890388,Arriurdin,1002.0
42.66032,-1.5016133,Mugaluze,1013.0
43.09737,-1.9934964,Anakar,722.0
43.09232,-1.9879866,Intsusburu,741.0
43.099648,-1.9964873,Muñoaundi,718.0
43.089584,-1.9691325,Hirumugarrieta,852.0
43.081112,-1.9746647,Ultxarraundi,860.48
43.094654,-1.982984,Aldamuño,737.0
43.08383,-2.0119135,Elorrigaina,479.0
43.101482,-1.886334,Aizaran,1052.16
43.027225,-1.921675,Epele,873.0
43.03127,-1.9252604,Mergelu,912.0
43.04189,-1.9368128,Eraso,873.21
42.98862,-1.981729,Uarrain,1221.0
42.992043,-2.0013638,Itturtxuloko Punte,1265.0
43.14713,-1.7774756,Iramendi,1015.0
43.226585,-1.8908912,Gorostegi,359.0
42.839638,-1.6194547,Ezkaba Txiki,595.0
43.3458,-1.865856,Tximistarri,425.0
43.348526,-1.8594756,Artola,451.0
43.351933,-1.8526993,Artzain,473.0
43.12305,-2.0122626,Larte,811.0
42.991997,-2.3137312,Arranoaitz,875.0
42.998337,-2.1450746,Arastortz,827.0
42.98538,-2.1272347,Sarastarri,995.0
43.065727,-2.2038553,Usurbe,703.0
43.075256,-2.251341,Torreburu,606.0
42.947556,-2.1902812,Muñaan,911.0
42.9631,-2.216537,Atxu,979.0
42.957367,-2.2247014,Egiroeta,893.0
42.93288,-2.2542524,Antzuzkar,748.0
42.927578,-2.2462995,Naparraitz,860.0
43.245403,-2.2717247,Endoia,429.0
43.244503,-2.2508337,Gurutzea: Vértice,399.0
42.92303,-2.1427536,Sarabeko Haitza,734.0
42.91638,-2.146814,Laieneko Haitza,685.0
42.940937,-2.1301746,Beitzeta,924.28
42.941055,-2.135567,Argonitz,936.11
42.94512,-2.1123788,Zelatamuño,952.02
42.947838,-2.100125,Txaradigorri,987.69
42.956535,-2.1026194,Aasko,835.0
43.235195,-2.3364007,Otaerre,663.0
43.220802,-2.2083585,Santa Engrazia,507.0
43.22642,-2.1715932,Murugil,717.0
43.231678,-2.1759622,Pagoetako Gurutzea,676.0
43.17258,-2.1557546,Portumatza,1049.0
43.166805,-2.1460779,Aizpel,1068.0
43.085484,-2.0457313,Laparmendi,814.0
43.10509,-2.3483462,Meaka,825.0
43.101772,-2.344203,Trintxuleku,869.0
42.975754,-2.151779,Aizkaizto,927.0
42.977158,-2.1567693,Malkorra,883.0
42.97524,-2.142566,Leitzadi,948.0
42.97466,-2.1483617,Aitzeta,927.0
42.970104,-2.163878,Mugarriko Gaña,596.0
42.97854,-2.1608186,Asundegi,808.0
42.970345,-2.167333,Agaramunda,593.0
42.96711,-2.1285672,Amiltzu,828.0
42.96515,-2.159201,Muñoa,562.0
42.97241,-2.1239305,Marumendi,821.0
42.973278,-2.1165478,Malkorburu,862.0
42.981377,-2.0750134,Akaitz,1080.0
42.981724,-2.0981767,Akaitz Txiki,942.0
43.165737,-2.3613398,Leiopago,827.0
43.20389,-2.2821367,Erlokurutz,1026.0
43.00165,-2.312786,Oamendi,862.0
42.98431,-2.3207114,Oazurtza,845.0
43.0707,-1.6566432,Garmendia,1059.0
43.071754,-1.7273699,Mugakosoro,1035.0
43.12053,-1.632745,Mokorro,505.0
42.62503,-1.7460032,Egastiaga,594.0
42.624935,-1.7588722,Larrabeltz,571.0
43.22491,-2.3408341,Atxuriko punta,589.0
43.11455,-2.0015857,Arburu,789.0
43.175323,-1.8357762,Munttu,548.38
43.02274,-2.0884185,Larrunarri - Txindoki,1342.0
42.949818,-1.695512,Arraldegaña,813.0
42.96912,-1.6431699,Epaitzburu,837.0
43.097984,-1.5509187,Baraburuko kaskoa,877.0
43.088367,-1.5790612,Altzueta,896.0
43.267586,-2.4127147,Txori haitz,513.0
42.96713,-2.362323,Gorostiaran,1281.0
42.95857,-2.3568888,Kalparmuño,1236.0
42.964924,-2.358436,Aizpotorreta,1191.0
43.320965,-1.805514,Zubeltzu,216.0
42.8042,-2.4247253,Basasakan,1033.0
42.801804,-2.4241102,Larrintxo,1056.0
43.322037,-1.6908038,Mokoa,362.0
42.776073,-2.3127117,Ilarratza - San Kristobal,1142.0
43.02153,-2.381243,Auntzolamuino,350.0
43.024418,-2.3885667,Biaingain,362.0
42.850834,-2.2362647,Legunbe,1127.0
42.803734,-1.9354236,Elimendi-W,1121.0
43.105774,-1.8379129,Korosturgo Tximinia,1059.57
43.161686,-2.0136058,Belabieta,699.0
42.59597,-1.5071428,Basagar,980.0
42.568626,-1.5305419,Sandagata,892.0
42.64043,-1.5599658,Kazteluxar,908.0
43.266605,-2.110512,Abaro,201.0
42.941635,-2.2574313,Aitzabal,794.0
42.7413,-1.8078465,Ekoiengo Gaina,924.0
42.685646,-1.616425,Orraunandia,1155.0
42.69125,-1.6066967,Bagadigorri / Alaitz,1171.0
42.96249,-2.098274,Malkorbizkarra,744.63
42.66782,-2.0287006,Zalatambor,515.0
42.665096,-2.0280504,Atalaya,539.0
42.6772,-2.027567,Peñaguda,605.0
42.683437,-2.0220852,San Millán,670.0
42.687107,-2.013723,Apalaz,677.0
42.66201,-2.0260699,Arena Blanca,545.0
42.669147,-2.0285118,Lizarrara,476.0
42.65784,-2.0230541,Ordoiz,547.0
42.66306,-2.052135,Peña Negra,582.0
42.660767,-2.0579312,Los Romerales,616.0
42.663795,-2.0615582,Ostaita,646.0
42.668663,-2.0570533,Peñarroya,581.0
42.677822,-2.053955,Muskildia,557.0
42.711254,-2.0618615,Lazkua,781.0
42.708004,-2.0603619,Altikogaña,733.0
42.63151,-2.0442865,San Ciprián,1041.5
42.63062,-2.0447938,Montejurra,1046.0
42.65505,-1.9532877,Mauriain,686.0
42.651817,-1.9192564,Eskintza,740.0
42.68986,-1.9718082,Santa Bárbara,554.0
42.93375,-1.8092221,Artola,920.02
43.330357,-1.9584525,Ulia,222.0
43.250507,-1.8926088,Malbazarko gaina,443.0
42.729656,-2.1630378,Olataguas occid.,1040.0
43.123554,-1.6605811,Beortegiko Kaskoa / Arregi,319.32
43.14781,-1.73017,Ganbelar,802.0
42.998463,-2.4003077,Aloña / Gorgomendi,1244.0
43.021572,-2.0736675,Etitzegi,1184.0
43.0137,-2.0688357,Aoki,1317.0
43.02494,-1.8431365,San Pablo,988.0
42.95423,-1.5097123,Udaiu,605.0
42.9494,-1.5296866,Mendia,824.0
42.950577,-1.525172,Oiezki,825.0
42.9367,-1.5087961,Aramendi,654.07
42.93005,-1.5306377,Aldukain,767.0
42.92024,-1.5286531,Ermitabizkar,752.0
42.966457,-1.5661726,Tanporrene,1017.0
42.973423,-1.5638456,Azimendi,1009.0
42.963642,-1.5526557,Bardegi,971.0
42.95332,-1.5640919,Oiartzabal,1099.25
43.02716,-1.5041792,Leateko Harria,1092.0
43.03318,-1.5045304,Otxaberri,1132.0
43.0224,-1.509726,Xaukadi,1065.0
43.052322,-1.5502659,Zirolako Harria,1135.0
43.063667,-1.565795,Ekaitza,1172.0
43.066124,-1.5482066,Bagolegiko Kaskoa,818.0
43.066097,-1.5397452,Dolameakako Kaskoa,834.0
43.08071,-1.5405036,Xaguxelaiko Kaskoa,794.0
43.076397,-1.540348,Azkurretako Kaskoa,796.0
43.108883,-1.5598915,Ezkorlako Kaskoa,645.0
43.103733,-1.5254571,Irazabal,611.0
43.1049,-1.5056169,Katarri,637.0
42.58405,-1.5057667,Montearriba,886.0
42.569023,-1.5046147,Subiza,715.0
42.629436,-2.4001844,Peña Otxanda,916.0
43.20645,-2.280517,Erlo,1030.0
42.723366,-2.1907587,Mendibela,1052.0
43.05116,-2.011615,Garamendi,414.63
43.054752,-2.0038135,Artitzako Malkorra,437.11
43.232178,-1.9518434,Oindi,548.0
42.94806,-1.8542625,Larrazpil,1069.0
42.949657,-1.8493484,Ilarraundiko Malkorra,1062.5
42.951458,-1.9042355,Akier,1119.0
43.10045,-2.3375614,Irimo,901.0
43.129986,-2.3280787,Oleta lepoa,759.0
43.02641,-1.965872,Arritxu / Zigadi,559.53
43.02327,-1.9480386,Lete,554.0
43.07592,-2.03996,Sasiolako Gaina,774.0
43.073853,-2.0336864,Sasiolako Ekialdeko Gaina,744.0
43.24415,-1.7868608,Galtzarrieta,813.0
42.70813,-2.446334,Mantxibio,937.0
42.82204,-2.294895,Lazkueta (buzón),1087.0
42.827515,-2.3213818,Peña Roja,1067.0
42.64929,-2.2910087,Peña Gallet,1160.0
42.769676,-2.336552,El Sombrerete,1139.0
42.59216,-2.1218994,Alto San Miguel O.,587.0
42.591995,-2.1231072,Alto San Miguel,587.0
42.579174,-2.1363697,Alto del Pito,559.0
42.585808,-2.1201928,Garamenza,597.0
42.764263,-1.7524332,San Jorge,518.0
42.884747,-2.2592883,Olanoko Aiztxiki,1058.0
42.995945,-1.9830548,Muñabiur,1036.0
43.12507,-1.874606,Mendibil,848.0
43.18332,-1.7143377,Zipuru (Gurutzeko Gaina),725.32
42.933533,-2.333989,Askiolagaña,1208.0
42.93353,-2.3279307,Liñategieta,1206.0
42.789185,-2.2769544,Aizluze,1068.0
42.89094,-2.2865493,Albéniz-Albeitzeko Haitza/Aitzabala,1014.0
42.66447,-2.3008032,Aldosilla,766.0
42.895203,-2.2504573,Arbarain/Illarragorri,1118.0
42.929943,-2.3198376,Arboligaina,1201.0
42.900448,-2.3043296,Arrazpi,887.0
42.64385,-2.2792194,Peña la miel,1037.0
43.1187,-2.0067637,Gazteluaitz / Mina Txuri,779.0
43.136948,-1.976703,Larre,808.0
43.047813,-1.8023685,Begaña,1103.95
42.92869,-2.249364,Zabalaitz,868.0
42.930458,-2.2601275,Arkaungaina,825.64
42.95777,-2.005006,Lurgorri,1092.0
42.892906,-1.9945872,Beriainpunta,1428.0
43.29955,-1.833484,Egieder,330.0
42.951946,-2.0654416,Serlo Gaina,919.09
42.999786,-2.0919635,Bustia,1278.0
43.02313,-2.089694,Erlabeltzeko Puntie,1312.0
42.889744,-1.6501174,Uspel,822.0
42.88093,-1.6650645,Metola,664.0
42.86557,-1.8849279,Txargain,972.0
42.866066,-1.9188412,Alto de las Bordas Viejas,1265.0
42.861725,-1.9214633,Arrasaundi,1261.0
42.85801,-1.9649324,Tontorraundi,1203.0
42.87673,-1.9407198,Lezizagoa,1348.0
42.88571,-1.9474717,Amorro,1349.0
42.88839,-1.915535,Idoitxiki,1272.0
42.889374,-1.8885128,Vértice de Satrustegi / Satrustegi Erpina,1139.0
42.88968,-1.9011776,Satrustegiko Haitza,1204.0
42.984352,-1.9226072,Muzkur,738.0
42.9829,-1.959077,Kaxamongo Ekialdeko punta,960.0
42.635403,-2.3326385,La Plana,1337.0
42.62736,-2.3184705,Malpika,1087.0
42.935795,-2.1674132,Igartza,882.0
42.934288,-2.1817324,Intzetako Gaina,869.55
42.88352,-1.7522906,Oiarko,632.0
42.78009,-2.2363763,Arnotegi,1015.0
43.24555,-2.3330674,Gaztelu,533.0
43.24206,-2.329636,Urkulu,544.0
43.238216,-2.3331704,Elordi,616.0
42.85091,-2.2357037,Legunbeko Haitza,1125.0
42.996998,-2.117448,Martxabaleta,841.0
43.143005,-2.1921215,Urrakiko buzoia,820.0
43.151276,-2.1644156,Tontordo,593.0
42.953583,-2.3269303,Aitxuri,1508.0
43.173428,-1.8283973,Elorretako tontorra,614.0
43.16098,-1.8224862,Bilurtzikar,807.0
43.12989,-2.3057754,Samiñotxiki,880.0
42.66574,-1.8000124,Argurutz,531.0
42.897736,-2.232145,Kipular,1065.0
43.06624,-1.7452761,Eragorri / Erroberriko Gaina,1010.0
43.062866,-1.505153,Astabizkar,1128.0
43.220596,-2.051077,Belkoain,489.0
42.663387,-1.7437147,Montemotxa,626.0
42.97671,-2.4003336,Bellostegi,792.0
42.9565,-2.4484673,Burgamendi,1081.0
42.905655,-2.4376512,Axpuruko gurutzea,672.0
42.909904,-2.4293048,Laspurueta,667.0
43.06921,-1.59264,Añamendi,718.0
42.958122,-2.3291516,Aketegi erpina,1548.0
42.95878,-2.3299654,Aketegi,1551.0
42.956905,-2.328208,Illarrabeltxeko gaina,1533.0
42.946903,-2.3227515,Aiztontor Altuna,1454.0
42.94893,-2.32436,Tontorraundi,1484.0
42.93512,-2.3153665,Leizarrate,1053.0
42.941,-2.3282952,Ontzabertza,1273.0
43.056267,-1.7982812,Irumugarrieta,1044.0
43.036533,-1.7015064,Zardaiko Kaskoa,881.81
43.04675,-1.706924,Otsarteko Gaina,916.0
43.052658,-1.789253,Goiko Soroa,1026.74
43.04979,-1.5979265,Azkenatz,1171.0
43.036953,-1.6282455,Giltzurriñarri,940.0
43.0395,-1.630951,Matrakola,948.0
43.04734,-1.700589,Kulpittu,947.0
43.038322,-1.7208126,Arburuko Kaskoa,938.0
43.032177,-1.7487806,Arrizorrozko Kaskoa,878.42
43.036995,-1.7510977,Ataketako Harria,844.19
43.054123,-1.8105778,Bordaburu,1033.54
43.053898,-1.8227262,Arnabarrita,1008.93
42.8643,-2.0381627,Ollide,1134.0
43.004364,-2.4214528,Belar,897.0
42.99615,-2.3953557,Kurtzezar,1287.0
42.990337,-2.3818955,Urrabiatza / Errikoaitz,1265.0
43.155373,-2.468058,Azkonabieta,728.0
43.226585,-1.5736858,Kaskoaundi,623.0
42.968525,-2.3384292,Kantoizulueta,1410.0
42.967255,-2.3426874,Lekunberri,1358.0
42.990387,-2.3503263,Pikandiain,788.0
42.98824,-2.343382,Urkimendi,844.0
42.992867,-2.3554156,Bederatzi Iturrieta,732.0
42.99453,-2.3407385,Muñazorrotz Aundi,752.0
42.78676,-2.4051316,Mutxitxeta,957.0
42.77825,-2.4089777,Merduka lepoa,924.0
43.00898,-1.6013505,Urrukarriko Haitza,917.19
42.78102,-1.5492547,Monte de Santa Cruz,659.0
42.55768,-1.5196189,Indusi,789.0
42.554066,-1.5240566,Alto Burlon,809.0
43.262653,-1.5127378,Azkar,428.0
43.128407,-2.4938543,Intxortatxiki,715.0
43.36689,-2.4952652,Garraitz,48.0
42.97191,-1.9944022,Oiarbide,1190.01
42.97827,-1.987194,Belokigain,1245.0
42.88806,-2.2807362,Atxipi,950.0
42.886635,-2.2768295,Artzanegi,980.0
43.006176,-1.6756712,San Prudentzio,683.54
42.609917,-2.2291102,Murillo,639.0
43.061836,-2.3759198,Eskortazarreta,890.0
42.741253,-2.4299448,Buzón,830.0
42.628803,-1.9743222,Santa Barbara,572.0
42.96006,-1.8074603,Otsopasaje,722.76
42.956543,-1.8128427,Añoa,712.9
42.645935,-2.3317485,Puntarredonda,1202.0
42.63304,-2.340071,Peña de los Cencerros,1171.0
43.307034,-1.8612579,Galbailurra,189.75
42.940174,-2.3409145,Burgalaitz,1282.0
42.948524,-2.378018,Naparbasoko Punta,1225.0
42.969646,-2.3468077,Aizkorritxo,1344.0
42.961487,-2.3614485,Elorrolako Haitza,1253.0
42.823963,-1.909838,Mendiburu,1039.0
42.81704,-1.913568,Santa Cruz,1042.0
42.729492,-2.3451116,Somorredondo,1077.0
42.7326,-2.428416,Peñalascinco,907.0
43.323048,-1.7012476,Oneaga,382.0
43.33796,-1.7334323,Lumaberde,226.0
42.91406,-2.2787051,Iramendi,975.0
43.279823,-1.8264122,Pagolarre,341.0
42.951355,-2.3253424,Aizkorri,1528.0
42.975136,-2.3491032,Azkolaundi,1373.0
42.975838,-2.3526032,Azkolatxiki,1352.0
42.97585,-2.3543935,Zulagaizto,1361.0
42.979588,-2.359753,Adarraitz,1359.0
42.740913,-2.270411,Otzamendi,1257.8
43.27076,-1.8527722,Elorrietako Kaskoa,398.0
43.26049,-1.8224221,Urmendi,494.0
43.026264,-2.0746171,Azpiko gaina,1129.0
43.269344,-1.5154599,Argangoieta,353.0
43.259125,-1.524542,Etxeteko Arriak,478.0
43.263866,-1.5284442,Arleun,525.0
43.25877,-1.5384439,Aizparaz,544.0
43.259544,-1.5489017,Malkor,518.0
42.618576,-2.0823665,Lukin,835.0
42.619667,-2.0764723,Cogoteredondo,863.0
42.610012,-2.0854697,Alto del Monte,788.0
42.979668,-2.362757,Artzanburutxiki,1356.0
42.844017,-2.495394,Henaio,663.0
43.287273,-1.8582491,Altamiralarre,180.0
43.287094,-1.8500376,Arraskuelarre,199.0
42.605595,-1.5333098,Argain,965.0
42.609447,-1.5424069,El Cascajo,956.0
42.607544,-1.5410445,Amunarrizketa,982.0
42.707783,-2.0450795,Artazkaña,695.0
42.652218,-2.1311004,Sorogorri,542.0
43.315533,-1.7572615,Atseginarri,392.0
42.956303,-2.261283,Mota,781.0
42.945827,-2.257988,Burnikurutz,793.0
42.94921,-1.9181991,Sollaundi,1043.0
42.933765,-1.897154,Urbaran,748.0
42.946316,-1.905977,Soiltxiki / Sorotxiki,1022.0
42.953724,-1.912037,Akier Occidental,1107.0
42.95059,-1.900557,Irumuga,1079.0
43.013588,-1.638686,Abaunzko Harria,702.0
43.009563,-1.6462576,Muino,634.32
43.014973,-1.6462922,Kaxkaxuko Harria,698.0
42.997005,-2.1264658,Andurio,638.0
43.039497,-1.932556,Ollarmendi / Zepain,899.0
43.021984,-1.914389,Hirumuga,845.0
43.042366,-1.944857,Akordategaña,866.2
43.057335,-1.944035,Añalde,854.0
42.85887,-1.9288125,Elordia,1235.0
42.541866,-1.5111574,Herrerico,911.0
43.295746,-1.9378879,Antoña,120.0
43.327984,-1.9304527,Ostaberdeburu,152.0
42.862167,-1.9998965,Saratsa,1173.0
42.917732,-2.2177742,Orobe,842.0
42.90932,-2.196933,Eguberako harri,732.0
42.91211,-2.221398,Motto,887.0
42.890347,-1.7916906,Illunbeta,715.0
42.89775,-1.8116816,Zapardi,618.0
42.911186,-1.7940491,Urriztondo,569.0
42.92139,-1.7684752,Zanborraga,813.0
42.941555,-1.7767011,Zarrantzmendi,883.72
42.933586,-1.7841353,Kapiztar,777.0
42.934002,-1.821497,Mundumalkorra,866.69
42.908756,-1.8166741,Sarobe,718.0
42.928814,-1.8263026,Ahizpa Txikia,671.72
42.929394,-1.830017,Ahizpa Haundia,703.64
42.61084,-2.2214592,Peña del Gate,694.0
43.25969,-1.6939718,Otsango,311.78
43.265358,-1.7108543,Amargun,356.15
43.26316,-1.7188725,Meakako Gaina,362.42
43.267567,-1.7361048,Illasmendi,512.0
43.265987,-1.6715962,Larrate Gaina,398.64
43.100494,-2.3402882,Arrizuri,889.0
42.95017,-1.8571674,Iparraundi,1064.0
42.956757,-1.8558317,Alitzako Malkorra,1066.0
42.95645,-1.8424495,Ttutturru,879.0
42.94623,-1.8244464,Argain,701.0
42.967678,-1.9006078,Basaran,876.0
42.956482,-1.9315549,Otansur Txiki,1023.0
42.94064,-1.9940441,Laba,884.0
42.958546,-1.9461948,Otansur,1076.0
42.974915,-1.9668845,Amutxate,992.0
42.974487,-1.9525571,Aizkorri,915.0
42.95785,-1.9258658,Ziñiku,1048.0
42.955032,-1.9175415,Elorrigañe,1063.0
42.934486,-2.0226262,Aldaia,573.0
42.98055,-1.9360687,Erbitz,793.0
42.9336,-2.0328367,Maaltza,593.0
42.94793,-2.0248885,Algorri,968.0
43.201496,-2.486871,Urko,795.0
43.209473,-2.4993207,Arandomendi,695.0
43.125244,-2.0185907,Larte,804.0
43.153336,-2.0523107,Uzturreko Kurutzea,662.0
42.555126,-1.555704,Los Parapetos,899.0
42.544052,-1.5966917,Cuerno de la Cimota,852.0
43.06912,-1.8932154,Belarzañeta,1010.23
43.070213,-1.8978419,Artzangaztelu,978.61
43.045135,-2.0246527,Elosu,632.0
43.129284,-1.6883365,Topillaberro,383.0
43.161125,-1.9960271,Arnabar,790.0
42.645523,-2.074481,Monte de la Purísima,626.0
42.644432,-2.114413,Labeaga,684.0
43.107197,-1.9749506,Sobelar,671.0
43.119617,-2.0569465,Aparburu,295.0
43.245758,-2.0031054,Aramontzategiko Arkaitzak,246.0
43.00096,-2.4938133,Zaraialaburu,1119.0
43.023376,-1.9016885,Aizuriaga,771.0
43.022587,-1.7682092,Aizorroxko gaina,808.0
43.016804,-1.9172049,Pagalleta,669.0
43.024986,-1.7931746,Atamendi,769.0
43.029377,-1.9086516,Muntegieta,738.0
43.033546,-1.6640686,Asketa,815.0
43.03884,-1.6617686,Urkizu,829.0
43.038174,-1.6762689,Analazko Haitza,806.27
43.016315,-1.6996375,Gurbil,716.0
43.020184,-1.7225177,Sastrain,721.0
43.023846,-1.7415389,Pillotasoro,811.0
43.09035,-1.6196941,Illarratzuko Kaskoa,686.0
43.099117,-1.6058251,Pagamendi,649.0
43.077484,-1.5946293,Burgalar,826.0
43.059338,-1.6101487,Astarte,909.0
43.064976,-1.6041262,Larrondo,925.0
43.06921,-1.6036001,Bagoandieta,857.0
43.07632,-1.6154151,Laztegi,752.0
43.058132,-1.6413326,Larrebeltx,906.0
43.13989,-1.8767918,Saroberri,872.0
43.13078,-1.769175,Lizartzeta,849.44
43.117947,-1.749089,Urrizbono,431.74
43.103428,-1.6381532,Otolo,775.0
43.107357,-1.609148,Sailuz,629.0
43.28816,-1.668044,Altzatelarre,309.0
43.26767,-1.6575466,Soroko Gaina,360.21
43.285583,-1.63702,Gaztelu,273.63
43.31118,-1.6776923,Erentzazu,422.48
43.303375,-1.678861,Gartzin,406.0
43.056526,-1.7711899,Lertzamendi,1007.05
43.254917,-2.3818696,Santa Kurutz,204.0
43.299965,-1.660155,Mugerriko Gaina,399.59
43.018627,-1.9668953,Irulegi,447.0
42.663754,-1.549458,Monte de Arriba,969.0
42.606968,-1.58357,El Characal,769.0
42.604164,-1.5643855,San Pelaio,959.0
43.249176,-2.0379236,Txaldatxur,303.0
43.228676,-1.807992,Putrarrita,712.0
43.23311,-1.808677,Exkax,727.0
43.227314,-1.795281,Erroiarri,633.0
43.21613,-1.841375,Biribiletako Kaskoa,524.55
42.813385,-1.530958,Monte Txikito,679.0
42.619232,-1.595229,Santa Cruz de Gazteluzar,757.0
42.71437,-1.598556,El Puno,569.0
42.818325,-1.528223,Monte Grande,639.0
42.787144,-1.510305,Bordaxar,850.0
42.79087,-1.51573,Elusmendi,843.0
42.81521,-1.539514,Eurri,668.0
42.79558,-1.522195,La Facería,829.0
42.84385,-1.5303662,Akerregi,832.0
42.800056,-1.7260431,Gazolatz,554.0
42.841183,-1.6394225,Burutxeko,617.0
42.819695,-1.6122462,Erripagaña,479.0
42.810654,-1.623558,Mendillorri,497.0
42.820107,-1.6006672,Altzutzate,486.0
42.80012,-1.6018991,Irigarai,539.0
42.817818,-1.5691426,Gorraitz,558.0
42.82856,-1.6722153,Zandua,469.0
42.82773,-1.6991659,Mendikur,467.0
42.77262,-1.582221,Kapana,543.0
43.002182,-2.0931678,Beleku,1256.0
43.006386,-2.0966766,Saltarrimendi,1184.0
42.99184,-2.1097927,Kotaleku,845.0
42.99479,-2.1163886,Argarbi,833.0
43.215546,-2.4672806,Arrikurutz / Akondiagaina,749.0
43.234333,-1.9139025,Pagoetako gaina,436.0
43.233086,-1.9186023,Erkaitz,437.0
43.174282,-2.1459498,Hernio Txiki,809.0
43.189976,-2.1481798,Sagain,705.0
42.633827,-2.1060264,Monjardín / Deio,894.0
42.64048,-2.3359308,Alto de San Cristobal,1244.0
42.62819,-2.320073,Malpika Occidental,1110.0
42.64485,-2.2820127,Peña del Encino del Herrero,1048.0
42.757442,-2.3818183,Lezaundi,1147.0
42.608543,-2.42343,Pinganilla,973.0
43.213932,-1.868558,Untzorrotz,377.88
43.221478,-1.8696678,Urritxabal,290.34
43.22406,-1.8748156,Intxurretako kaskoa,306.23
43.226868,-1.8692473,Txundarretako tontorra,242.41
42.648865,-2.230292,Los Buritos,805.0
42.61153,-2.20611,Virgen de la Guarda,729.0
42.61282,-2.181867,La Sierra,706.0
42.61303,-2.168331,Learza,719.0
42.637657,-2.218038,Dos Hermanas,865.0
42.611248,-2.217028,Piñalba,698.0
42.64336,-2.23453,Santa Coloma,749.0
42.614075,-2.145091,La Barranca,686.0
42.614777,-2.139119,Caracierzo,699.0
42.61597,-2.131423,Otxandibar,715.0
42.61258,-2.157425,San Cristóbal,705.0
42.613167,-2.150187,La Salera,697.0
42.61367,-2.270132,San Gervás,790.0
42.61539,-2.279062,Alto de las Canteras,791.0
42.635548,-2.385868,Sierra Txikita,990.0
42.63692,-2.367056,Peña Humada,1155.0
42.633858,-2.357062,Grudo,1363.0
42.62828,-2.348487,Peña Blanca,1249.0
43.232338,-1.608031,Bagarateko Harri,472.0
43.232433,-1.6018418,Gaineko Harrieta,545.0
43.119614,-1.606301,Gurutzaldea,443.37
43.166073,-1.6378372,Iruleta,563.0
43.1227,-1.62231,Irakorri,498.0
43.286446,-1.9767821,Menditxogaña,112.0
43.28246,-1.9778818,Oiaola,163.0
42.99959,-2.083858,Urrusti Hegoa,1324.0
43.00884,-1.8426737,Asku,794.0
42.999706,-1.8332752,Euntzategiko Gaina,753.0
42.99753,-1.8191057,Mendigaña,691.46
42.804745,-2.3630967,Atxuri,1091.0
42.79372,-2.4350867,Marabileta SW,1052.0
42.799114,-2.425303,Zorrikobaso,1083.0
42.904366,-2.0074627,Garategibel,821.0
42.89648,-2.0227158,Ondazgain,717.0
42.66974,-1.777302,Montarraga,517.0
42.668182,-1.7959421,Arnotegi,524.0
42.94569,-1.8415359,Egillor,910.25
42.876793,-2.0954955,Iruaitzeta,1144.0
43.064213,-1.7588896,Otedegi / Larremear,988.43
43.29434,-1.7585537,Erroiarri,428.0
43.293137,-2.1034148,Munioetaburu,361.0
43.292503,-2.1067965,Kukuarri,377.0
43.32168,-1.8157691,Elatzeta,199.0
42.7827,-1.8460906,El Encinar,875.0
42.76433,-1.8615686,Ollakarizketa,989.0
42.76109,-1.8706841,Peña Txikita,885.0
42.548862,-1.5816973,Gerinda,886.0
43.30564,-1.7086796,Zigorriaga,549.0
43.31023,-1.716108,Faalegi,484.0
43.32817,-1.7613792,San Martzial,249.0
43.09811,-1.8488173,Idoia,1061.9
42.927425,-2.3052492,Maillukate,1329.0
42.89923,-2.2655838,Harrobigana,1032.0
42.94916,-1.533693,Karate,820.0
42.609226,-2.1569948,Peña del Pico,666.0
42.61966,-2.1356008,Alto del Pecho,700.0
42.618877,-2.1262348,Alto de Araneta,688.0
42.603985,-2.3041694,Alto de Barcil,638.0
42.600323,-2.288924,La Pedrigosa,659.0
42.61539,-2.2790716,Alto de las Canteras,791.0
42.608353,-2.243578,Peñalarga,698.0
43.00109,-2.0831952,Urrusti Ipar,1312.0
43.17622,-1.9956925,Arrisario,443.0
43.17031,-2.0069444,Deskarga,571.0
43.173737,-2.0005329,Kiriki,541.0
43.0896,-2.236193,Antxintxurdi,658.0
43.094902,-2.2235322,Aiztar,749.0
43.219177,-1.9882162,Pardaki,350.0
43.22167,-1.9812227,Atxelitun,408.0
43.227787,-1.9604701,Zorrotzarri,412.0
42.855465,-1.98544,Dorrokoteka,1176.0
42.92873,-2.067844,Zamar,730.0
42.8758,-1.7254145,Agua,752.0
43.21491,-1.9969217,Atxular,320.0
43.229267,-1.941456,Katamotzarri,420.0
42.650326,-1.9043967,Alto Burgueiro,629.0
42.644657,-1.908729,Markora,663.0
42.657818,-1.7815232,Metelua,456.0
42.637444,-1.8085225,Las Tres Mugas,440.0
42.620617,-1.8253781,Antelugar,443.0
42.628967,-1.8029402,Peñas de Gorriti,472.0
42.624687,-1.7795722,Txingarra Txiki,524.0
42.52172,-1.8506562,Cascajo,404.0
42.625614,-1.7652498,Gazteluzar,567.0
42.537598,-1.912568,San Lorente,492.0
42.526733,-1.9447658,Los Pilares,498.0
42.535027,-1.9291735,Ventura,499.0
42.625206,-1.7724648,Txingarra,544.0
42.90403,-2.3151853,Azpileta,867.0
42.73804,-2.4278953,Zabalegi,865.0
42.929016,-2.029575,Uskain,561.0
42.934364,-1.9658228,Amorleku,869.0
42.93143,-2.0787766,Gañaundi,767.0
42.92817,-1.9617969,Aiztondo,709.0
42.930458,-2.0479958,Minueta,709.0
43.291565,-1.539821,Olasur,123.0
42.876846,-2.1002407,Hiruaitz / Hiru Haitz,1130.0
42.91784,-2.1491418,Gazteleku Haitz,665.0
43.361153,-1.8304843,Erramutz,386.0
42.87161,-1.9776721,Gañaundi,1013.0
43.249344,-1.926765,Akola,359.0
43.242756,-1.9534131,Kaxargain,211.0
42.793,-1.6526792,Donapea,453.0
42.800682,-1.6331275,La Cruz Blanca,447.0
42.804756,-1.6195796,El Campamento,471.0
42.791756,-1.635107,Garitón de Ripalda,455.0
42.80067,-1.6221707,Malpaso,462.0
42.841652,-1.6510822,Artikagain,566.0
42.867622,-1.6765534,Berroalde,584.0
42.87381,-1.6736356,Kapana,536.0
42.882282,-1.672347,Urriola,597.0
42.826687,-1.6822072,Santa Lucía Occidental,475.0
42.831577,-1.6580782,Kaskallugaña,449.0
42.83244,-1.6549639,Mogote Menor,438.0
42.80013,-1.7125349,La Cruz,513.0
42.800793,-1.7209694,Santa Águeda,544.0
42.80452,-1.7201207,Errotondoa,470.0
42.85172,-1.9465574,Beorzulo,1231.0
43.051826,-1.7361681,Loiaundi,1033.0
43.032593,-1.8068839,Arañalde,779.0
43.026424,-1.6914707,Orbide,756.32
43.057568,-1.7523311,Belazketa,963.17
43.05011,-1.7393053,Aizarbil,1059.0
43.05576,-1.7266152,Uztakorta,938.12
43.04776,-1.9352,Mugarriberri,897.0
43.03375,-1.9936416,Urdanin,390.0
43.045933,-1.7699453,Planteta,982.57
43.058327,-1.7194763,Arlengo Harria,977.65
43.042583,-1.6877145,Iraua,909.0
43.130524,-2.3207612,Oñamendi,841.0
43.29905,-1.8193568,Lerungo Arkaitzak,400.0
43.28305,-1.7844862,Lizarretako gaina,824.0
43.29427,-1.8140622,Beltzaiz,424.0
43.302933,-1.8207479,Aireko Gaina,360.0
43.287666,-1.7842953,Putzuetako gaina,789.0
43.298634,-1.7833745,Gogortegiko Gaina,545.0
42.98559,-2.4942012,Aranguren Txiki,1106.0
43.037098,-1.7982773,Murgi,788.0
42.98385,-1.9716319,Gaztelu 2,1079.6
42.66659,-1.6422538,Peñartea,797.0
42.657818,-1.6136018,Aieregi,961.0
42.642826,-1.7067736,San Esteban,708.0
42.63705,-1.7136382,El Boyeral,712.0
42.691837,-1.5963407,Larrazpilleta,1056.0
42.693172,-1.6030616,Alto de las Tres Mugas,1146.0
42.66667,-1.6277308,Aitzertea,813.0
42.645035,-1.6966398,Mendialto,701.0
42.634235,-1.7288831,Aitakaio,642.0
42.664967,-1.5269288,El Alto de la Borda Larga,982.0
42.600388,-1.5002811,El Ardil,1001.0
42.706047,-1.590257,Alto de Bordatxar,773.0
42.921986,-2.3133323,Hagineta,1223.0
42.904907,-2.3191633,Marutegi,863.0
43.21594,-1.5444388,Oiamuino,679.36
43.30199,-1.7806234,Sardinola,516.0
42.797226,-1.8163126,Peña del Cantero / Harginaren Haitza,741.0
42.848454,-1.8790948,Ziñitarri,845.75
42.866135,-1.8779126,Euntzeta,751.0
43.214115,-2.0492952,Bostaitzeta,305.0
43.22138,-2.0618398,Txingorrigaina,427.0
43.210655,-2.060921,Añegi,304.0
42.992626,-1.8916161,Araigaña,598.0
42.990673,-1.8873677,Ganddar,615.0
42.96372,-1.6019944,Iluntsain,729.0
42.96372,-1.5939049,Baldideko Gaina,747.0
42.95882,-1.5884284,Salaberri,677.0
42.973564,-1.5872381,Bortzaitzetako Gaina,812.0
43.00973,-1.6256098,Belaztegiko Gaina,804.24
43.018555,-1.6230079,Landertxetako Gaina,813.0
43.01969,-1.6177992,Ertxetako Gaina,860.0
42.992218,-1.5987948,Mitxuleta,814.0
42.993374,-1.5964736,Txuritxeta,821.0
42.99594,-1.5790942,Eztapuru,994.72
43.001797,-1.606703,Urkixuko Gaina,813.95
43.19622,-1.5334375,Pausutxar,825.21
43.02629,-1.6974479,Narbatazu,756.33
43.029335,-1.7036455,Isasti,804.44
43.02507,-1.6893187,Eztunarri,740.44
43.04148,-1.6917222,Arpegi,862.27
43.03852,-1.7035277,Zamategi,897.15
43.041676,-1.7101796,Armuñegiko Haitza,820.12
43.154118,-1.7216111,Eztenarri,1057.66
43.10678,-1.762539,Beolate,540.66
43.110653,-1.7526695,Arrataburu,559.47
43.103977,-1.7548145,Aiaza,575.6
43.117493,-1.7246962,Bunoa,594.7
43.129417,-1.7453567,Itzagirre,379.49
43.127186,-1.757307,Arriaundi,598.75
43.097538,-1.7522033,Gurutzakun,556.5
43.09367,-1.7427769,Azkagaña,498.21
43.090187,-1.7257009,Artxelita,769.81
43.091793,-1.7061604,Mendixabal,572.73
43.091366,-1.676513,Bidartxoko,570.97
43.106136,-1.6520832,Kaskante,578.06
43.102303,-1.8116863,Soingo Gaina,1036.74
43.11623,-1.7806591,Intsusoko Goia,861.81
43.160748,-1.6073099,Arbera,354.93
43.156334,-1.6010187,Elortzuri,373.97
43.159607,-1.5998081,Elortzuriko Kaskoa,333.03
42.90142,-1.5818835,Dolarea,826.35
42.916824,-1.6040926,Kapanako Gaina,714.68
42.93505,-1.5950075,Ipetea,713.38
42.935898,-1.5840156,Munaundi,744.89
42.94098,-1.5700711,Enaburu,831.84
42.94308,-1.5663007,Arsu,835.51
42.95226,-1.5468625,Plazabizkar,953.17
42.951874,-1.5522051,Arimalda,967.51
42.952633,-1.5383508,Arizkain,901.0
42.966293,-1.5364089,Ipete,899.95
42.98526,-1.5677743,Erbilarreta,1125.41
43.245594,-1.8154099,Gogorren Hegiko Torrea,772.0
43.245136,-1.8063157,Masuketa,795.0
42.942535,-1.512658,Murelu,702.19
42.94142,-1.5084069,Gurutxain,606.97
42.9456,-1.5086586,Goitiko Labakieta,655.77
42.994823,-1.5115128,Boiarren Kaskoa,775.06
42.984837,-1.503834,Arballeta,874.19
42.963337,-1.6144471,Egintto,599.06
42.968155,-1.6096025,Apostegiko Gaina,660.03
42.976692,-1.6217353,Otadi / Karate,677.31
42.980797,-1.6383026,Mendikarate,636.79
42.988472,-1.6358993,Legartzagibel,668.0
42.994984,-1.6189007,Legarburu,681.64
43.002205,-1.6309652,Ollarregiko Gaina,700.19
43.00669,-1.6406056,Narbaitz,627.44
43.01364,-1.6423283,Aritzarte / Lamizulo,667.3
43.025608,-1.6543415,Artxar,779.65
43.026203,-1.6653851,Kaikubillazokoa,685.63
43.024704,-1.64882,Usalto,671.14
43.027718,-1.6464452,Oianilun,677.93
43.02365,-1.6420808,Atagarai,645.23
43.0269,-1.669152,Berattarneta,658.16
43.213406,-1.647919,Loita,470.47
43.21819,-1.6603646,Arrakoizko Mendi,499.73
43.201645,-1.6625295,Bagaleku,244.32
43.17611,-1.6575841,Arrutela,430.94
43.172752,-1.6491722,Eñardi,464.51
43.158306,-1.6624053,Arrondoa,411.65
43.167892,-1.6629572,Lurgorri,278.59
43.174088,-1.6827664,Olegi,317.0
43.176643,-1.6885054,Iruerreka,292.71
43.16001,-1.6477402,Bidegurutzeta,411.65
43.17496,-1.6207066,Iñarmeakako Lepoa,625.01
43.188328,-1.657684,Sagasketa,416.0
43.334694,-1.9336436,Plata,139.0
43.04497,-1.6106497,Aldegi,1001.84
43.01205,-1.633667,Ameztiko Harria,744.57
43.014786,-1.6080381,Galtzarraitz,816.4
43.019703,-1.6070186,Arriurdiñeta,825.32
43.027985,-1.609999,Sugarastiko Haitza,1075.83
43.039078,-2.0266254,Urdilleta,748.31
43.05072,-2.0187407,Zarategaña,519.68
43.053696,-2.0190268,Urdaintxetako Gaina,517.51
43.058872,-2.0196276,Eztebei,551.92
43.070187,-2.0106347,Illarrasu,206.53
43.06873,-2.0082545,Erleanea,287.5
43.06589,-2.0065165,Aizpea,261.95
43.067085,-2.006774,Karakan,216.13
42.970375,-2.031266,Galoren Koba,1262.29
42.967636,-2.0477931,Lizardieta,1210.97
42.960823,-2.0904567,Liosoroeta,622.76
42.953396,-2.0948563,Miguez,854.7
42.94008,-2.136051,Argiñaroz,932.66
42.94129,-2.1413898,Berreonako Gain,878.44
42.94198,-2.1438518,Berreona,872.87
42.935116,-2.1764796,Irumugeta,875.49
42.929195,-2.1811361,Arbotonaundi,808.64
42.928493,-2.184072,Arbotontxikia,797.05
42.975826,-2.0261695,Katamotztegi,1190.35
42.97244,-1.988182,Dornaots,1174.14
42.973545,-1.9824536,Aizpeargi,1152.49
42.929546,-1.8318752,Aixita,703.55
42.942112,-1.7647984,Elosu,759.77
42.972767,-1.7707413,Lezedeneko Gaina,814.04
42.98476,-1.7907488,Larreta,830.32
42.992336,-1.8097591,Ibaia,560.95
42.993046,-1.8030833,Leteraun,689.46
43.00002,-1.8106993,Españaga,662.43
42.86778,-1.5152276,Argibel,986.97
42.880596,-1.5265572,Losaro,734.82
42.87369,-1.5534683,Urbe,718.89
42.87605,-1.5496992,Zuruaingo,740.47
43.259716,-2.0999389,Idoiaga,179.0
43.265476,-2.0966022,Barremuno,142.0
43.280468,-1.8258654,Irubuztamuturra,329.0
43.269203,-1.8295972,Arritxurietako Gaina,456.0
43.274384,-1.8094909,Mendelu,376.0
43.275925,-1.8108656,Arbabidegaña,370.0
43.277466,-1.8137565,Urritxabaleko kaskoa,347.0
43.223118,-2.116324,Kapelu,406.0
42.984634,-1.5603772,Eztelegi,1025.48
42.992046,-1.5588326,Zugarraundi,1011.25
42.97299,-1.5762666,Odiñoko Gaina,868.18
42.97451,-1.5741268,Odiño,887.23
42.966015,-1.5804843,Iausketagibel,709.41
42.966446,-1.5888819,Pausugaizto,794.86
42.96676,-1.5905635,Axarixulo,792.06
42.96829,-1.5934311,Iralar,751.9
42.972076,-1.6003063,Mendiurrun,672.47
42.97034,-1.616945,Alorkaxko,645.3
43.065407,-1.7327352,Erronealekua,1053.22
43.060852,-1.7422293,Erpegilar,918.91
43.055805,-1.7777439,Isasti,987.58
43.030937,-1.7996709,Arañul,694.33
43.0369,-1.787748,Perraburu,697.26
43.043118,-1.7823174,Sagardimendi,836.3
42.947536,-2.0686202,Pipuletatxiki,801.04
42.94313,-2.0522735,Zubaate,708.6
42.94624,-2.0526175,Arbotoneta,750.11
42.934902,-1.6640196,Askaxar,636.67
42.937347,-1.6799862,Aizkodi,660.65
42.93252,-1.6965512,Xara,675.4
42.933487,-1.717848,Mindegi,702.34
42.938522,-1.7218926,Otsaurke / Larlaz,647.57
42.93461,-1.725755,Eritzeko Sasi,698.51
42.93549,-1.7336729,Bagoaldea,696.0
42.923714,-1.7614603,Kaskamarga,834.83
42.919315,-1.7734766,Plaxa,782.35
43.05586,-2.2453184,Estradamusu,443.0
43.061447,-2.2478683,Aizpuru,475.0
43.066624,-2.2472866,Errobizabal,529.0
43.08253,-2.2540286,Kizkitza,676.0
43.12843,-1.9616356,Oldizgain,795.0
43.150414,-1.8378525,Arrandia,633.7
43.153206,-1.8370959,Arlepo,648.13
43.140568,-1.8429924,Zaibide,350.56
43.142616,-1.8337777,Martineko Bordako Torrea,361.85
43.144062,-1.8090234,Burumendi,820.12
43.143826,-1.8146338,Intsustiburu,681.15
43.13671,-1.8245565,Adartzeko Hegia,443.4
43.133396,-1.824652,Arluxe,540.53
43.128937,-1.8253815,Pillotasoro,663.31
43.127956,-1.8196522,Arbea,693.66
43.12302,-1.8272357,Deskargako Harria,761.6
43.12228,-1.8345157,Beasoiko,912.89
43.11586,-1.834673,Otagoien,980.54
43.1107,-1.8378596,Munoandia,1033.59
43.157013,-1.8199737,Organbide,747.22
43.15811,-1.8010848,Egibeltza,750.6
43.163956,-1.798634,Urkin,915.0
43.16152,-1.7945642,Ardatzipurdi,935.8
43.18316,-1.8111423,Uzkueko Gaina,614.64
43.19133,-1.813331,Aritzaltueta,665.65
43.19461,-1.8145432,Meatxarreta,673.12
43.202343,-1.8101712,Loiola,424.23
43.208412,-1.8031116,Etzanleku,540.6
43.204628,-1.7999789,Otaran,548.8
43.20958,-1.777296,Izurrizti,725.47
43.210907,-1.7435453,Ibina,468.27
43.21062,-1.7480167,Goiko Ibina,491.29
43.20671,-1.7435988,Idoia,402.59
43.10903,-1.8665016,Abietako Kaskoa,835.05
43.112167,-1.8524929,Arangaitz,514.24
43.1496,-1.8542501,Itzaire,296.82
43.153492,-1.851627,Izpe,247.41
43.182312,-1.86854,Otzbero,346.74
43.188694,-1.8789022,Uzteroko Kaskoa,502.46
43.17806,-1.8840867,Urkatikako Kaskoa,523.5
43.179104,-1.8897346,Bidagurutzetako Kaxkoa,592.5
43.17266,-1.9070486,Lakendiko Gaina,692.89
43.18687,-1.8950132,Urkamendi,572.52
43.181496,-1.8983177,Ezkiturritako Gaina,651.72
43.216927,-1.9107947,Telleriko Kaskoa,206.21
43.11773,-1.9160826,Urkizu,788.19
43.146114,-1.9096476,Azarizuloetako Gaina,996.0
43.146755,-1.9128101,Ezkaiztegi,949.62
43.16643,-1.843934,Aitasemegi,512.8
43.169815,-1.8528038,Zalkintza,439.44
43.193604,-1.866273,Zimizketa,341.3
43.200436,-1.859469,Sarobeberri,175.9
43.209038,-1.8856351,Mendaratz,217.66
43.228767,-1.876542,Usanbelartza,248.11
43.22542,-1.8512132,Okillegi,229.51
43.211334,-1.8254038,Baltsako Kaskoa,596.5
43.208622,-1.823039,Gurutze Kaskoa,589.32
43.197483,-1.8214033,Elizburu,642.93
43.198326,-1.8285687,Mendibilko Burua,512.73
43.161186,-1.8067636,Argarateko Harria,856.39
43.160362,-1.8088478,Argarateko Harri Ttikia,815.55
43.28709,-1.9424388,Mendiaundi,116.0
43.137436,-1.7733335,Iramendi,803.27
43.07019,-1.7585634,Oale,844.27
43.03514,-1.7514073,Ataketa,835.04
43.032787,-1.7424434,Arrizorrotz,761.23
43.037407,-1.741359,Maldattiki,717.24
43.03228,-1.7350622,Legarraga,756.06
43.069958,-1.7708414,Alkaintzeneko Gaina,753.75
43.077164,-1.7672005,Plazazelaia,817.91
43.070663,-1.7899206,Monotxiki,770.67
43.056347,-1.8119365,Ospegaña,1008.8
43.057034,-1.8169458,Bartzagaña,976.21
43.054935,-1.8565061,Malkorzuri,1062.05
43.06422,-1.8767306,Kosaundi,1016.89
43.064987,-1.8895468,Ansolitztxiki,1035.48
43.070507,-1.9031739,Mukarrain,924.93
43.084538,-1.9066238,Zirigarateko Kaskoa,535.23
43.083458,-1.9013113,Aritzmendi,581.77
43.08128,-1.8966578,Zugarrain,637.22
43.08724,-1.865565,Ikatzeta,671.01
43.20875,-1.84006,Gaztaozko Bordako Kaskoa,565.35
43.20347,-1.8357208,Deskantsu,575.98
43.198746,-1.8429766,Kintaleku,480.88
43.14151,-1.8711035,Arinsarobeta,843.44
43.159122,-1.867981,Suanbillako tontorroa,396.39
43.158966,-1.8783576,Karamendi,578.56
43.152866,-1.8936137,Zalkuko Biarrieta,843.83
43.126213,-1.8298146,Tximiztiko Harria,731.5
43.257442,-1.686067,Matxarian,247.06
43.272972,-1.7171173,Urdaleta,77.19
43.075985,-1.9709295,Perratokieta,773.54
43.054882,-1.9818164,Argixugaña,575.04
43.043076,-1.966469,Ubaategaña,750.86
43.037003,-1.9343079,Ollarradar,856.28
43.050705,-1.8822796,Arlatza,882.09
43.05083,-1.8770869,Esita,878.82
43.250313,-1.7276506,Gartxokil,318.67
43.256516,-1.7488947,Akarregi,424.34
43.221855,-1.752237,Basaingo Bizkarra,599.67
43.253315,-1.718635,Uaburu,256.73
43.25725,-1.7267774,Dendarieneko Bizkarra,228.8
43.27881,-1.7337326,Eskolamendi,413.84
43.29195,-1.6931874,Posta,298.56
43.284904,-1.6890031,Kalbario,192.4
43.29567,-1.6689119,Artzairaulkua,363.23
43.302036,-1.6667984,Meaxkilur,281.14
43.285675,-1.6555336,Otaun,235.64
43.28922,-1.6505609,Amonagurutze,254.12
43.29518,-1.6346432,Oiarrune,372.73
43.265495,-1.6451246,Ibentze Gaina,342.63
43.255886,-1.6299391,Monaxka,437.55
43.261673,-1.6558816,Arregi,298.14
43.263477,-1.6529644,Eraste,288.38
43.295628,-1.6516134,Burkaitza,247.09
43.27999,-1.6555018,Oianbizkarra,147.18
43.268513,-1.6471065,Ollareskanda,311.61
43.307365,-1.6420974,Zizkuitza,702.78
43.20488,-1.7290329,Burutza,230.96
43.313885,-1.8527961,Arluze,223.0
42.78557,-1.7240036,Calvario,472.0
42.796886,-1.7464178,Lizasetagaña,442.0
42.803295,-1.7419116,Sancristobalgaña,441.0
42.960415,-2.26456,Aztio,893.0
42.999176,-2.2034068,Urbaraundiko punta,702.0
43.123756,-1.7485431,Pasiaz,369.15
43.12207,-1.7959908,Tulubi,755.0
42.940678,-1.5993719,Arrogain,552.76
42.96628,-1.6234765,Murriaga,588.68
43.11425,-1.7711173,Aritzederraga,691.21
43.060364,-1.7159452,Pariarte,973.26
43.108204,-1.6760588,Ermitagaña,238.06
43.086002,-1.8165956,Munoa,601.32
43.075977,-1.8230139,Goiko Itola,776.4
43.07576,-1.8171746,Eztaleku,707.78
43.076553,-1.8019634,Arburu,760.95
43.01597,-1.6541898,Artxar,620.42
43.03999,-1.6952862,Arpegiko Haitza,862.27
43.035027,-1.701541,Oianbeltz,881.26
43.02127,-2.3594139,Illuntziaga,628.0
43.0245,-2.360681,Otsamuño,637.0
43.03348,-2.3722124,Akelarre,581.0
43.13518,-1.7928277,Otsondo,746.96
43.132687,-1.806016,Aldumar,520.52
43.138977,-1.9638942,Beibatarri,711.0
43.141495,-1.978349,Axerigain,797.0
43.230278,-1.8991834,Untzaiko,397.0
42.950626,-2.3838868,Zabalenegia,1214.0
43.23022,-1.5036314,Aitzola,604.0
43.23771,-1.5159695,Aiuse,441.0
43.23932,-1.5252392,Ameztiko Kaskoa,508.0
43.254612,-1.5508976,Airagarri,594.0
42.97766,-1.5215437,Arteaga,701.0
43.02325,-1.542372,Arteko Gaina,1239.0
42.770966,-1.5012565,Cerro de Gesaltze,642.0
42.728172,-1.5097967,Ollagar,581.0
42.722305,-1.5184656,San Juan,675.0
42.718304,-1.5003552,Cerro de Ata,748.0
42.70506,-1.5103546,Castillo de Elo,616.0
42.837105,-1.509999,Gurugú,804.0
42.843052,-1.5009642,Chaparral Chico,889.0
42.80136,-1.561904,Moreabizkar,604.0
42.95686,-1.7895216,Mendigillaga,563.9
42.966743,-1.8334101,Elizkasko,548.38
42.96409,-1.829387,Txabaldoki,583.66
42.959156,-1.8188313,Belarbeltz,662.77
43.03483,-1.7813578,Kaate,805.86
43.04126,-1.7689116,Otsaketa,963.79
43.0373,-1.7721807,Arrondo,903.8
43.224823,-1.5665026,Gaineko Saroia,625.0
43.224777,-1.5828127,Zamateluko Harriak,646.0
43.22034,-1.5757132,Zamateluko Gaña,674.0
42.90846,-2.4847634,Peña del Moro,757.0
42.847256,-1.8203701,Itsaskoa,575.0
43.270958,-1.627935,Labeaga,617.0
42.94765,-1.716703,Gurdiogain,628.91
42.674088,-2.0249162,Picacho,522.0
42.573193,-2.2238522,Zobazo,577.0
42.573715,-2.2442284,La Rosa,568.0
42.851482,-2.0866494,Lubierri,1096.0
42.862995,-2.0451772,Peña de Arrangarte W,1101.0
42.86445,-2.0684998,Arantzadia,1081.0
42.862072,-2.041201,Peña de Arrangarte E,1088.0
42.871582,-2.0721142,Lardiko gaina,1093.0
42.871277,-2.0959194,Aingibel,1153.0
42.85217,-2.0961368,Mendarteko Gaina,1049.0
42.85915,-2.038602,Ollideko Bizkarra,1069.0
42.864708,-2.040697,Bargattentte,1135.0
42.722168,-2.382081,La Redonda,932.0
42.714417,-2.392267,Peña Rabita,831.0
42.718403,-2.39125,Montilsancho,943.0
42.523335,-1.6326534,Altos de Valgorra,596.0
43.290718,-1.9217021,Txoritokieta,318.0
43.141724,-2.1128612,Arantzabeaitza,703.0
43.1444,-2.1182225,Olamuño,770.0
43.14799,-2.1320047,Larrarteaitzak,774.0
43.15265,-2.1213002,Muñoaundieta,854.0
43.156223,-2.1522417,Akutu,666.0
42.973633,-2.2551813,Zorroztarri,683.0
42.620983,-2.4764147,"Pedrera, La",878.0
42.756954,-2.0418396,Peña del Sacristán,944.0
42.920307,-1.5606068,Aranburu,793.0
42.93508,-1.5625664,Itsasdigain,788.0
43.088303,-1.6168182,Apurtxegaña,722.0
43.081253,-1.6290162,Soragarateko munoa,406.0
43.07284,-1.5636988,Katilliko Harria,1119.0
42.928658,-2.1745627,Musarrako haitza,779.0
42.92464,-2.1857915,Auntzetako harri,756.0
42.925995,-2.1747086,Aizkaiako haitza,788.0
42.90729,-2.1748478,Murgil,587.0
42.909626,-2.1068501,Ikalabeta,692.0
42.90968,-2.118512,Otsagiko Punta,661.0
42.909153,-2.1343715,Galartza,645.0
42.91085,-1.5798672,Asketako Gaina,795.0
42.867672,-1.5476909,Peña Sarea,726.0
42.692337,-2.0366988,Altos de la Llana,627.0
42.953327,-2.0463686,Eltxorrosgo Barga,892.0
42.947723,-2.0121322,Eupar,992.0
42.9477,-2.016901,Maisumartin,988.0
42.942627,-2.0099707,Gurutzezar,831.0
42.951065,-2.0549724,Kolungaña,876.0
42.968876,-2.0623882,Argarbi,1206.0
42.968723,-2.0427952,Mezeriain,1221.0
42.968952,-2.0519395,Mandueta,1201.0
43.12173,-1.6902972,Elortiko Bizkarra,365.13
43.113853,-1.6361451,Usategieta,540.85
43.1188,-1.6519543,Ieraungain,281.66
43.161655,-1.5129154,Ameztigain,520.19
42.810787,-1.5542359,Malkaitz,772.0
43.243183,-1.835359,Kausugaña,626.0
43.24401,-1.8304489,Kausutxiki,638.0
43.308178,-1.9508603,Crater de Ametzagaña,114.0
42.88929,-2.0845492,Elbegia,608.34
43.02058,-1.7180778,Esnarte,708.0
43.032963,-1.5197054,Mugadena,1012.0
42.940228,-1.6667491,Argain,588.31
43.01927,-1.5405132,Elikadoreko Gaina,1237.34
43.017838,-1.5412749,Erregerena,1237.0
43.117374,-2.0478876,Zupitxarragako gaina,329.6
43.102074,-2.026862,Muñoko gaina,367.4
42.929714,-2.2699263,Beunda,850.0
42.93632,-2.3419836,Oinbakoitzeko gaina,1233.71
43.027184,-1.5758146,Karidadeko Gaina,1097.39
43.012184,-1.6150492,Mendiburuko Gaina,974.0
42.884884,-1.7737261,Larreaundi sur,622.0
42.899803,-1.8220271,Alto de Larraintxo,572.0
43.080788,-1.5936884,Burgalarko Harria,776.34
43.200226,-2.2076719,Sagatsegaña,514.0
43.233044,-1.5439152,Txonborro,358.83
42.91852,-1.7023448,Aistringua,721.0
42.90014,-1.7096394,Itxasi,641.0
42.94164,-1.6340771,Otsaerte,642.0
42.996506,-1.8482099,Zeamendi,626.28
42.625797,-2.4080865,Peña del pañuelico,905.0
43.05229,-1.6829388,Beizaiko Harria,975.54
43.07324,-1.6063328,Peñika,701.0
43.27553,-2.4252264,Jaungoikomendi,528.0
42.98275,-1.8502077,Pagaditxar,662.87
43.02932,-1.893115,Irumuga,843.32
43.089222,-2.092381,Lugarragatxikigain,336.0
42.78726,-1.5896269,El Pineral,575.0
43.14643,-2.4915361,Goikomendi,652.0
42.886562,-2.2345912,Gobazpi,964.0
42.896313,-2.236426,Ibirigana,1054.0
42.88846,-2.2412426,Beorkolarre,1008.0
42.89114,-2.2405233,Aiztxipi,1001.0
42.87684,-1.6476834,Txapardi,696.0
43.301067,-1.7122833,Arranoko Harria,475.0
42.97396,-2.0358262,Mandarrate,1263.0
42.61918,-1.5089386,Urrizabal,953.0
42.624268,-1.5035613,Murugain,936.0
43.01897,-2.0070581,Perratxikito kaskoa,411.0
42.80404,-1.728532,Mendibiribil,456.0
43.006634,-2.3137114,Alustitzaingaña,809.0
43.015274,-2.3161082,Otañugorosoa,761.0
42.984577,-2.3393016,Altzola,867.0
43.240448,-1.6713821,Polboringo Bizkarra,123.0
43.16628,-2.294911,Munobiltxiki,327.0
42.995903,-2.0827467,Ondartxuri,1220.0
42.77349,-1.5235372,Ezpelgorria,657.0
42.77488,-1.5270292,Olendain,622.0
43.29136,-1.5522224,Galtzagorri,137.0
43.28612,-1.5542227,Lekueder,168.0
43.291325,-1.5469586,Lori,147.0
43.287167,-1.5448406,Olasur Garaia,176.0
42.945763,-2.3137138,Lekabieta,1066.0
43.27654,-1.5333059,Pagazelai,199.0
43.28227,-1.516624,Oiarmun,190.0
43.286266,-1.5228837,Kapanaitzeta,161.0
43.28617,-1.5257128,Munaundi,173.0
43.280296,-1.5203933,Mihura,162.0
43.273876,-1.5429168,Landar,212.0
43.2802,-1.546117,Aitxar,199.0
43.27923,-1.5499022,Aito,191.0
43.26848,-1.5486088,Lezea,207.0
43.242493,-1.5808008,Orizki,643.0
43.254356,-1.5837014,Mugarrimakets,494.0
43.254673,-1.5089993,Gainekola,162.0
43.247635,-1.5037347,Elorga,394.0
42.9353,-2.1520257,Zearrenburu,846.0
42.92722,-2.1636703,Aizpila,764.0
42.90958,-2.1692827,Ezkailamaileta,594.0
42.91169,-2.1600869,Azunzartegain,581.0
42.6785,-2.2882993,Castejón,657.0
42.67251,-2.3107686,Horma,675.0
42.678074,-2.306146,Lasia,633.0
42.70732,-2.3116083,El Muro,694.0
42.686813,-2.2739973,Peñamayor,609.0
42.685665,-2.2679205,Las Tasuberas,612.0
42.70841,-2.2904453,La Cogolla,726.0
42.7106,-2.303069,Peña de la Galina,788.0
42.720703,-2.272886,San Miguel,685.0
42.714924,-2.2585173,Cogote de Mendia,622.0
42.942764,-2.2606282,Aitzaundi,755.0
42.94972,-2.2322154,Arlepo,713.0
42.78576,-2.2573857,Atermina,1001.0
42.78946,-2.263589,Peñarroya,1007.0
42.791683,-2.2725616,Aldarana,1008.0
42.76857,-2.2684352,Kukuilo,822.0
42.77135,-2.2624314,Sagarminasu,798.0
42.760754,-2.236202,Oiugaina,722.0
42.75261,-2.2470646,Bailunbe,962.0
42.75182,-2.2367165,Kukuruku,972.0
42.75943,-2.242014,Laumendi,773.0
42.77051,-2.215571,Alto de Epermendi,705.0
42.76219,-2.1668952,Irurbe,674.0
42.757103,-2.2037983,Argariza,738.0
42.756832,-2.19813,Suberoki,729.0
42.759243,-2.1763654,Alto de la Cruz,687.0
42.754692,-2.2282853,Erenzaba,884.0
42.755653,-2.1874332,Alto de las Chozas,727.0
42.765095,-2.2799292,Barraikua,856.0
42.76822,-2.2828019,Kurakoia,825.0
42.729435,-2.1574697,Olataguas orient.,1049.0
42.700653,-2.1094365,Urkamendia,587.0
42.704906,-2.1160057,Otxegia,641.0
42.71982,-2.096949,Arandaki,592.0
42.75155,-2.053024,La Bandera,985.0
42.73961,-2.0585203,Rulez,1064.0
42.744724,-2.0688038,Los Picos,1084.0
42.787605,-2.0695183,Irigorri,1166.0
43.29872,-1.7670622,Arbiun,482.0
43.29478,-1.7757587,Irufagoeta,534.0
42.526302,-1.9362491,Alto del Portillo de los Lobos,508.0
42.52842,-1.9276791,San Marcos Central,521.0
42.517513,-1.9302762,Alto de Barrancohondo,443.0
42.629658,-1.8120857,El Mochuelo,462.0
42.629612,-1.8252333,Alto de Zabarate,412.0
42.756588,-2.1612287,Zarmendi,598.0
43.233315,-1.7264111,Sastringo gaina,452.0
43.237522,-1.7161574,Beltzau,405.0
43.256596,-1.7202469,Uaburuko gaina,270.0
43.254074,-1.6423259,Ezkututza,420.0
43.068275,-2.3745277,Arrola,904.0
43.077595,-2.4229949,Krabelinaitz (buzón),670.0
43.076324,-2.4019032,Landarraitz,829.0
43.068005,-2.393006,Korosomuño,795.0
43.072803,-2.3984056,Irupagoeta,777.0
42.89281,-1.8711939,Peña del Rayo,773.0
42.584167,-1.7016188,LA SARREA,656.0
43.183132,-1.9216425,Zamiolasoroko harkaitza,660.0
43.017803,-2.069952,Aldaon,1279.0
43.035496,-2.0646768,Anduitzeko Haitzorrotza,646.0
43.30206,-1.8429667,Markelainburu,238.0
43.30355,-1.8450524,Galtzerdimuño,209.0
42.572983,-1.7025603,Buskil,638.0
42.557,-1.7028949,Alto del Portillo del Sastre,574.0
42.529434,-1.6775856,Santa Lucía,481.0
42.682514,-1.7704482,Murumundigaña,436.0
42.679565,-1.7435117,Ermita San Cristóbal,464.0
42.679893,-1.7464406,Axarimendia,462.0
42.66981,-1.7313862,Sagrado Corazón,458.0
42.987293,-1.9865868,Trotarie,1196.0
43.18641,-2.0304627,Komizargaña,277.0
43.1148,-1.9031649,Aritzaundiko muinoa,649.0
42.563934,-1.6496603,Alto de Santiago,579.0
42.566742,-1.6685078,La Campaña,619.0
43.321907,-1.6633458,Ziburu Mendi,411.0
43.31721,-1.8949164,Altamiragain,73.0
42.87731,-1.823032,Zumabe,489.0
42.63534,-2.3321137,Cogote Redondo,1336.0
43.196682,-1.6682822,Iruribieta,146.0
43.19861,-1.6534895,Arraidegi,377.0
43.17211,-2.0969188,Mendiola,431.0
42.80092,-2.1389027,Surgaina,952.0
42.621918,-2.4178383,Peñas de Escusa,847.0
43.251896,-1.6087728,"Lakain, Mugarrien 48. zenbakia",498.0
43.294445,-1.6021247,Olhain,397.0
43.271503,-1.6203988,Ibanteli,698.0
43.369198,-1.5229539,Larreko Gurutzea,166.0
43.325687,-1.7218969,Xoldoko Gaïna,486.0
43.338573,-1.6102968,Esnaur,273.0
42.772697,-2.3994143,Kristabera,980.0
43.12743,-2.1540926,Pintore,648.0
43.13138,-2.1526947,Urkobieta,688.0
43.034332,-1.8670835,Alto de Zuloaundi,942.0
43.032406,-1.8627632,Irumuga,942.0
43.02247,-1.7740659,Arraietako gaina,799.0
43.027954,-1.850694,Zumiztegieta,979.0
43.03082,-1.8464181,Aitzalde,984.0
43.034225,-1.8484411,Bereztarun,982.0
43.034794,-1.8430907,Korosmendia,956.0
43.040142,-1.8744608,Irumugarrieta,951.0
43.052544,-1.864761,Armutur,1016.0
43.0198,-1.7771256,Iruerreketa,801.0
42.989532,-1.8843592,Irui,642.0
43.29866,-2.3428009,Santa Catalina,188.0
43.298588,-2.3334212,Arranomendi,103.0
43.255722,-1.569582,Arxuria,758.0
42.849976,-1.5304028,Izpikudi,855.0
42.856953,-1.5187057,Arteta,889.0
42.977383,-1.7552537,Mugarriautsi,793.0
42.809765,-1.7685765,Zurbau,409.0
42.806107,-1.7694929,Iridia,409.0
42.86822,-1.7987554,Aiorbe,517.0
42.858177,-1.8026345,Etxamendi,463.0
42.850452,-1.7831281,Bizkar,589.0
42.864815,-1.7848293,Zabalgaña,606.0
42.84738,-1.7993796,Txurio,512.0
42.8486,-1.7848535,Artatzea,569.0
42.86671,-1.819743,Sariozar,493.0
42.84869,-1.7902488,Garbaleku,556.0
42.866028,-1.808518,Ezteramendia,463.0
42.854324,-1.7869284,Arrobia,605.0
42.785503,-1.7244529,El Calvario,472.0
43.27288,-1.7744426,Iarteko Bizkarra,269.0
43.29624,-2.1938994,Amezmendi,70.0
43.28883,-2.1964147,Gazteluzar,254.0
42.951054,-2.3563957,Petrinaitz,1203.0
43.17044,-2.152863,Hernio,1077.0
43.18253,-2.1619236,Akategi,942.0
43.181038,-2.1700482,Elkomen,937.0
43.22179,-2.162817,Olarteta,664.0
43.220623,-1.5072575,Alkurruntz,927.0
43.294235,-2.2455714,Floresko mendia,77.0
42.67041,-1.6709508,Castro de Murugain,636.0
42.670753,-1.6741945,Murugain,639.0
43.214836,-1.8998437,Arribitarte,307.0
43.26346,-1.8938917,Aizibitarte,326.0
43.26012,-1.8903898,Susperregi,356.0
43.262604,-1.9526618,Juantonenea,123.0
43.26184,-1.9568865,Martindegi,113.0
42.707912,-1.694656,Eskibel,795.0
43.28938,-2.1997778,Garategaña,261.0
43.30385,-2.210035,Kanpaiaga,82.0
43.246384,-1.955422,Ereñotzu,172.0
43.226734,-1.9739166,Pozontarri,231.0
43.344006,-1.8765804,Ganzaba,254.0
43.35745,-1.8673697,Mitxitxola,202.0
43.34009,-1.8855599,Sagatxaga,252.0
43.33803,-1.8923577,Iñalurreta,251.0
43.39488,-1.791963,Amuaitz,19.0
43.19759,-2.0033488,Idoiagagaña,368.0
43.19085,-1.9999222,Argaña,368.0
43.18569,-2.00965,Astabizkar,308.0
43.18347,-1.9714875,Artikutza,645.0
43.20633,-2.0036504,Gaztelutxo,262.0
42.694023,-1.6755154,Alto de San Cristóbal,668.0
42.705643,-1.6659458,Larrea,614.0
42.682453,-1.6778705,Belazkoarena,583.0
42.686954,-1.6666303,Lizoain,592.0
42.70962,-1.6656698,San Miguel,597.0
42.71617,-1.6704043,Larremendigaña,640.0
42.979027,-2.088052,Saroizar,825.0
42.97906,-2.0858073,Mallagaña,872.0
42.979733,-2.083184,Mallagain,903.0
42.988365,-2.0722606,Maldako Punta,1012.0
42.989605,-2.0690403,Olasoro,1019.0
42.98845,-2.064191,Erdiko Tontorra,1040.0
43.00284,-2.0662382,Lizasogaine,1340.0
42.83695,-1.7271577,Alto de los Pinos,468.0
42.831223,-1.7217216,Itzabizkar,465.0
42.825165,-1.708972,La Iglesia,464.0
42.82744,-1.7235394,Moreandia,441.0
42.82281,-1.7258013,Alto de las Viñas,431.0
42.83545,-1.7717756,Biskert,439.0
43.291924,-2.2177255,Goikogaña,215.0
43.246803,-1.7906675,Bianditz,843.0
43.067543,-1.7296273,Soratxipi,1069.0
43.007084,-2.281224,Kortatxo,538.0
42.987476,-2.2700617,Egieta,454.0
42.980778,-2.292765,Murgisarri,395.0
43.01233,-2.297658,Muñaingo Haitza,553.0
43.012863,-2.2892003,Liztormendi,437.0
42.89852,-2.4886844,La Cueva,642.0
42.90143,-2.46563,Altorredondo,722.0
42.894657,-2.465505,Gustarrate,711.0
42.891994,-2.4603617,Burgamendi,685.0
42.797195,-1.8173889,Kiriako,740.0
43.10046,-2.3389604,Losakate,887.0
43.09943,-2.3341365,Kurutzea,855.0
43.09978,-2.3357496,Arbeleta,872.0
43.106594,-2.2792048,Izazpi,972.0
43.131474,-2.3071635,Samiño,933.0
43.000103,-2.0258265,Intzako Dorrea / Irumugarrieta,1430.0
43.002514,-1.8745244,Santa Krutz,664.95
43.29767,-2.0427177,Minjabasoa,151.0
43.30322,-2.0521624,Txalin,313.0
43.30095,-2.0587983,Arrozibar,331.0
43.31033,-2.0700638,Antso,44.0
43.294712,-2.079813,Aitzazate,359.0
43.307655,-1.9009188,Arramendi,78.0
43.31772,-2.0120664,Arburua,171.0
43.097347,-2.1628282,Aitzarte,489.0
43.09897,-2.1594567,Arrasaetako Tontorra,504.0
43.103172,-2.1624851,Bizkarretako Gaina,525.0
43.28071,-2.0263703,Elorko Mendia,142.0
43.295444,-2.149613,Talaizarra Irla,12.0
43.296658,-2.1500342,Mollarri,18.0
43.280132,-2.1366925,Usategi,152.0
43.22571,-2.1656418,Pagoeta,713.0
43.27313,-2.1173067,Mota,50.0
43.2182,-1.8626151,Ottarrengaña,289.92
43.223896,-1.8602633,Mizpiretagaña,338.8
43.161087,-2.0412152,Donostiarkaitza,625.0
42.797714,-1.8153478,Peñas de los Canteros,708.83
