latitude,longitude,name,elevation
-26.62974,137.85274,Beal Hill,59.0
-26.84159,138.1687,Kertiewanko Hill,45.0
-26.79797,138.44452,Koomarinna Hill,63.0
-27.22684,138.14322,Meedla Hill,40.0
-26.94924,138.36134,Murda Hill,50.0
-27.37626,138.04349,Parry Hill,50.0
-26.89734,138.06598,Towinna Hill,58.0
-26.71193,138.21704,Womma Hill,57.0
