latitude,longitude,name,elevation
49.583954,36.352287,Козача гора,132.0
49.963043,35.517006,ДГМ Радгосп Перебудова (3),185.0
49.876663,35.594482,ДГМ Гузівка (3),186.0
49.92652,35.535385,ДГМ Ковяги(2) M362421800,200.0
50.323734,35.78475,Точка тріангуляції «Лютівка»,236.0
49.92427,35.6994,ДГМ Хворостове(2) M362431800,212.0
49.812935,35.567802,Incorrigibilis meretrix,173.0
