latitude,longitude,name,elevation
39.90756,68.53465,Рамазан,956.5
40.35671,69.14408,Сыиртепа курган,295.7
40.497456,69.45686,Каттакола,935.6
40.29473,69.43863,Большой Спо,1277.1
39.601418,68.57015,Токаличука,3809.0
39.931244,68.85127,Олмур,961.0
39.539326,69.34377,Пирьях,4681.0
39.59747,68.51679,Oqtoshtov,3401.0
39.599545,68.88492,Курганак,4057.0
