latitude,longitude,name,elevation
9.149416,46.385944,Tuur Ciinle,1072.0
8.535556,46.356945,Qaydar Urkurus,814.0
8.771082,46.3178,Dheri Yalay,880.0
8.810937,46.433968,Salmaha,798.0
9.224217,46.415802,Gadh Gumareed,1042.0
8.894566,46.357002,Abaarcanale,830.0
9.016743,46.178802,Gogolmadoone,1020.0
9.168392,46.32083,Daba Dheryood,1113.0
8.847097,46.20132,Horkac,922.0
9.09647,46.24296,Laba Garday,1111.0
8.539302,46.446712,Sale Galoolay,843.0
