latitude,longitude,name,elevation
-15.122507,28.033398,Nkanda Hill,1324.0
-15.10963,28.004368,Shamatutu Hill,1273.0
-15.102455,28.088179,Kanuswa Hill,1207.0
-15.026619,28.034845,Mulembwe Hill,1158.0
-15.110762,27.975954,Tundwe,1337.0
-14.902986,28.202354,Nkongolo Hill,1254.0
-14.588523,28.405113,Kangomba Hill,1274.0
