latitude,longitude,name,elevation
23.781221,115.94817,鸿图嶂,1277.4
24.394197,116.41393,阴那山,1298.0
23.53138,115.786674,獨山,789.0
24.175318,116.35036,铜鼓嶂,1559.5
24.35214,115.80428,铁山嶂,833.0
24.232605,115.508644,霍山,550.0
