latitude,longitude,name,elevation
-26.956057,29.211193,Standerkop,1645.0
-26.8442,28.6625,Rooikoppe,1820.9
-27.3942,29.2775,Perdekop,2084.8
-26.67,28.7217,Vancollerskop,1846.8
-26.6558,28.5167,Vaalkop,1839.8
