latitude,longitude,name,elevation
40.613194,-82.50834,Schweitzer Hill,400.0
40.779503,-82.636566,Ralston Knob,430.0
41.314217,-82.60156,North Milan Hill,201.0
40.595337,-82.991295,Graveyard Hill,302.0
40.727264,-82.61687,Noblet Benchmark,462.0
