latitude,longitude,name,elevation
69.30666,19.785555,Biel'lugai'si,1510.0
69.338165,19.731585,Durmalstinden - Spiidnegáisá,1264.0
69.46921,19.878729,Jiehkkevárri,1834.0
69.268585,19.601177,Lagofjellet,1090.0
69.367516,19.763151,Langdalstindane - Guhkesgáisi,1571.0
69.20033,20.032822,Mannfjellet,1552.0
69.16029,20.151468,Markusfjellet,1541.0
69.403915,19.846968,Nállangáisi,1595.0
69.21613,19.934418,Otertind,1354.0
69.101364,20.156399,Bárrás,1419.0
69.049446,19.640556,Rostafjellet,1525.0
69.49037,20.079914,Runfjellet,1413.0
69.13413,19.56258,Lille Russetind,1527.0
69.11907,19.63086,Blåbaertinden,1425.0
69.18783,19.877428,Sorfjellet,1480.0
69.15848,19.765343,Stallufjellet,1230.0
69.4279,20.05125,Daltinden,1520.0
69.334045,20.141148,Reppifjellet,1349.0
69.350975,20.103199,Svartberget,337.0
69.34593,20.099691,Forkleberget,516.0
69.349815,20.084982,Reahpenriidi,201.5
69.04561,20.300714,Gáhppoaivi,900.0
68.674225,20.326876,Pednatjårro,1103.0
69.00843,20.221928,Pältsan,1442.0
68.54039,20.332428,Sinnukkavaara,770.0
69.10656,20.345741,Varrelatjnja,1028.0
69.12614,20.308857,Markos-Malla,1314.0
69.21631,20.14299,Moskkogáisi,1176.0
69.05905,20.430674,Gåldahaugen,699.0
69.43095,19.874641,Bálggesvárri,1627.0
69.4702,19.796528,Holmbukttinden,1666.0
69.28209,19.642208,Piggtinden - Vuoggočohkka,1505.0
69.26303,19.639843,Storvasstinden,1370.0
69.366066,20.176771,Falsnestinden,1059.0
69.49017,19.501657,Store Rieppefjell - Riehppečorru,1295.0
69.496864,19.535408,Litle Rieppetinden,1109.0
69.49691,19.567675,Berteustinden - Bielločohkka,916.0
69.47816,19.625406,Skarvhaugen,334.0
69.47891,19.641436,Skognesåsen - Čeađenjárvárri,317.5
69.474945,19.604149,Rundhaugen,281.5
69.475464,19.583239,Storhaugen,272.5
69.46299,19.592209,Njoskefjellet - Njoaskevárri,756.0
69.47024,19.62123,Skarvhaugen,412.0
69.38755,19.574017,Skulvatindane - Skulvagáissát,988.0
69.383385,19.568464,Skulvatindane - Skulvagáissát,1062.0
69.37933,19.56547,Skulvatindane - Skulvagáissát,1047.0
69.36143,19.528193,Rasmustinden,1224.0
69.322624,19.656467,Vardtinden,1151.0
69.30183,19.742828,Biellogáisá,1356.0
69.30051,19.659079,Durmålstinden - Gurgalangáisi,1342.0
69.292694,19.668762,Tverrfjellet,1242.0
69.337296,19.66308,Rypedalaksla - Rievssatoalgi,787.0
69.35188,19.644045,Mellaberget - Gaskabákti,244.0
69.36174,19.64944,Forramohaugen - Vállasváráš,172.0
69.356926,19.652393,Snåtti - Snohtti,178.0
69.36437,19.808575,Langdalstindane - Guhkesgáisi,1308.0
69.362885,19.785051,Langdalstindane - Guhkesgáisi,1487.0
69.3672,19.768158,Langdalstindane - Guhkesgáisi,1580.0
69.35759,19.78865,Langdalstindane - Guhkesgáisi,1214.0
69.35747,19.7711,Langdalstindane - Guhkesgáisi,1404.0
69.36084,19.751934,Langdalstindane - Guhkesgáisi,1381.0
69.3647,19.724524,Langdalstindane - Guhkesgáisi,1302.0
69.38425,19.870583,Imagáisi,1416.0
69.380646,19.777061,Ellendaltinden - Ganešgáisi,1345.0
69.42464,19.811043,Bálggesvárri,1523.0
69.40855,19.754477,Goverdalstinden,1429.0
69.40356,19.75388,Imbodentinden,1565.0
69.40485,19.777359,Østre Lakselvtinden,1281.0
69.40124,19.890144,Nállančohkka,1328.0
69.43561,19.867428,Bálggesvárri,1564.0
69.47327,19.712767,Brentberget,63.5
69.47072,19.71651,Brendtbergan,84.0
69.45352,19.697237,Ruskeliåsen,311.0
69.42581,19.73587,Titinden - Áillisčohkka,1329.0
69.43691,19.680698,Hompan,370.0
69.438484,19.67825,Lakselvnesåsen - Njunnásoalgi,357.0
69.41412,19.598635,Njunnásčohkka,734.0
69.41994,19.591496,Rundhaugen,363.0
69.422874,19.609705,Njunnás,473.0
69.4284,19.591719,Váráš,65.0
69.41301,19.734331,Platåtoppen,1561.0
69.41566,19.733332,Anderstinden,1525.0
69.405266,19.733562,Store Lakselvtinden,1616.0
69.400696,19.72154,Tomastinden,1554.0
69.40179,19.67045,Skoggårdváráš,198.5
69.38874,19.684261,Rødaksla - Ruksesoalgi,904.0
69.37076,19.661251,Ganešoalgi,284.0
69.37062,19.667433,Ganešoalgi,350.0
69.39447,19.580748,Piggtinden - Sággečohkka,1032.0
69.4074,19.592108,Lakselvnesåsen,704.0
69.38419,19.624994,Stuorasuotnjobákti,28.0
69.37854,19.655695,Juppaváráš,221.5
69.10587,19.782257,Tamokfjellet,1341.0
69.13375,19.8531,Lemetfjellet,1435.0
69.14574,19.934109,Istinden,1399.0
69.14444,20.105642,Váráš,875.0
69.298836,19.590244,Middagsfjellet,1069.0
69.23421,19.526192,Perstinden,917.0
69.19879,19.857445,Vidjit,1275.0
69.172966,19.884968,Postdalstinden,1350.0
69.045746,19.563553,Rostakulen,1270.0
69.10794,19.501427,Likjefjell,1350.0
69.103775,19.534178,Sjufjellet,1078.0
69.14084,19.710752,Kjemptinden,1100.0
69.15034,19.751823,Nordtinden,1250.0
69.16594,19.778088,Grevolanasen,1025.0
69.16825,19.647665,Stortinden,1150.0
69.20765,19.687971,Smorpundfjellet,825.0
69.22671,19.74542,Giillavarri,1075.0
69.10016,19.955925,Vassdalfjellet,1587.0
69.01054,20.30591,Lássávárri,767.0
68.88535,20.392685,Duolljevárri,890.0
68.86104,20.406075,Bearraloaivi,977.0
