latitude,longitude,name,elevation
19.550753,-99.52028,Cerro Catedral,3790.0
19.559992,-99.50553,Cerro Las Palomas,3750.0
19.540176,-99.506134,Cerro Las Navajas,3794.0
20.308903,-99.52182,Hualtepec,3040.0
19.634258,-99.55364,La Bufa,3490.0
20.28935,-99.61005,Hualtepec,3033.0
20.392525,-99.92474,Cerro Gordo,2290.0
20.397371,-99.9237,Cerro Banthi,2270.0
