latitude,longitude,name,elevation
59.909023,-127.67715,Hizaza Hill,1056.0
59.948837,-128.49898,Moffatt Hill,647.0
59.68397,-127.78281,Tatisno Mountain,1267.0
59.658188,-128.1154,Mount Earle,947.0
59.66378,-128.37257,Mount Monckton,1174.0
