latitude,longitude,name,elevation
53.44846,25.458317,Карадзюкова,230.0
53.420906,25.443636,Тарасаўцы,282.0
53.456154,24.803793,Сашалёва,125.0
53.246,24.873152,Высокая,190.7
53.157898,24.64116,Мадзейкаўская,239.2
52.780556,25.060278,Жамайцякі,203.0
53.011566,25.331322,Сасновы,160.0
