latitude,longitude,name,elevation
25.49085,9.893753,Telout,980.0
25.25784,10.245719,جبل إدينين Idinen,1130.0
24.529165,9.621878,Tagment,1750.0
24.567831,10.093625,Tebdehda,1219.0
25.049362,10.323041,جبال أكاكوس,1428.0
