latitude,longitude,name,elevation
64.44781,-173.2249,Вихрь,650.0
64.43076,-173.2362,Портовая,431.0
64.29868,-173.24384,Поселковая,438.0
64.29779,-173.079,Среднеозерная,564.0
64.348,-173.21388,Ближняя,461.0
64.36289,-173.30841,Беклемишева,644.0
64.32122,-173.31859,г.Ступикан,473.0
64.47986,-173.30449,г.Острог,706.0
64.42547,-173.12607,Эмма,626.0
64.385216,-173.03192,г.Пика,828.0
64.421104,-172.94768,г.Хаос,750.0
