latitude,longitude,name,elevation
-26.765371,19.967686,Schanzkotte,958.0
-26.835497,19.828907,Hannahpan,992.0
-26.857594,19.949646,Witkrans,949.0
-27.07693,19.98632,Leeukop,903.0
-27.126444,19.525541,Kooker New,935.0
-27.284784,19.542315,Sambokberg,985.0
-27.322124,19.882948,Vaalkop,911.0
