latitude,longitude,name,elevation
31.3999,-93.28378,Eagle Hill,114.0
31.336567,-92.809875,Dough Hills,71.0
31.436285,-92.89071,Sunk Hill,74.0
31.49295,-92.85265,McAlpine Hill,66.0
31.40434,-92.97294,Negro Foot Hill,120.0
31.291847,-92.6707,McNutt Hill,56.0
31.490728,-93.08822,Bedstead Hill,101.0
