latitude,longitude,name,elevation
-3.167423,35.37237,Mount Lemakarot,3133.0
-3.2024667,35.4631,Oloroklukonya,2664.0
-3.19505,35.411785,Satiman Elgon,2879.0
-2.9148,35.3814,Engilusui Hill,1637.0
-3.3152332,35.4392,Makomba Peak,2967.0
-3.2713168,35.442883,Mount Oldeani,3206.0
