latitude,longitude,name,elevation
69.27745,-144.9103,Mount Chamberlin,2749.0
69.18014,-144.8907,Mount Pangnik,2605.0
69.4271,-144.6314,Kikiktat Mountain,1712.0
69.33461,-145.15297,Mount Mary,1649.0
69.429504,-145.13814,Okiotak Peak,1651.0
