latitude,longitude,name,elevation
29.483772,-114.5514,Cerro el Coyote,950.0
29.38898,-114.78741,Mesa la Gloria,594.0
29.456976,-114.920815,Cerro las Palomitas,594.0
29.21188,-114.56289,Mesa el Gacho,360.0
29.22307,-114.50038,Mesa el Rincón,540.0
29.493725,-114.60438,Cerro el Platón,1048.0
