latitude,longitude,name,elevation
-16.37055,128.2207,Dunham Hill,346.0
-15.69404,128.04222,Mount Cockburn North,486.0
-15.865052,128.15721,Mount Cockburn South,525.0
-15.83492,128.28513,Mount Harrison,341.0
-15.8544,128.24947,Mount Rob,324.0
-16.17885,127.78842,Neal Knob,425.0
-16.05659,128.45995,Sugarloaf Hill,201.0
