latitude,longitude,name,elevation
6.042555,116.11947,Universiti Malaysia Sabah Peak,190.0
6.0952854,116.48275,Gunung Nungkok,1652.0
5.946699,116.11536,Bukit Padang,145.0
5.9447675,116.06255,Kopungit,108.0
6.0009937,116.20361,Kokol Hill,830.0
