latitude,longitude,name,elevation
40.49833,75.032936,Zeus,4747.0
40.48355,75.095505,Snow King,4590.0
40.446438,75.05949,Shumkar,4925.0
40.44952,75.087425,Mystyr,5108.0
40.436935,75.099594,Mur Samir,5035.0
40.491226,75.08701,Middle Sister,4341.0
40.495075,75.0911,Little Sister,4206.0
40.45317,75.0426,Kumay,4830.0
40.463398,75.08847,Karyshkyr,4836.0
40.461723,75.06759,Helen,4710.0
40.485764,75.08931,Big Sister,4492.0
40.44379,75.05204,Bars,4800.0
