latitude,longitude,name,elevation
27.296436,-82.26343,Caloosa Indian Mound,6.0
26.80618,-82.179535,Cash Mound,4.0
26.628963,-82.227036,Faulkner Mound,3.0
26.703403,-82.15148,Howard Mound,4.0
26.797567,-82.17093,John Quiet Mound,2.0
