latitude,longitude,name,elevation
48.520023,-105.10803,Chris Hill,817.0
48.513077,-105.22248,Square Butte,783.0
48.95086,-105.22415,Long Butte,882.0
48.92975,-105.25054,Square Butte,881.0
48.718914,-104.735794,Kisler Butte,806.0
48.531693,-104.73635,Flagstaff Hill,769.0
