latitude,longitude,name,elevation
2.5100217,103.284996,Gunung Pertawai,840.0
2.9586296,103.16336,Bukit Gayong,339.0
3.2815707,102.66087,Bukit Bertangga,472.0
3.1708698,102.80845,Bukit Cemingat,524.0
2.516723,103.38992,Gunung Janing Barat,543.0
3.180875,103.01325,Bukit Pemandang,566.0
3.3757133,102.85859,Bukit Chini,641.0
2.5145733,103.41453,Gunung Janing,655.0
2.6603365,103.191895,Gunung Hulu Kemapan,854.0
2.6414769,103.243225,Gunung Ulu Tiang,675.0
2.5777514,103.290016,Gunung Beremban,839.0
2.6747782,102.76026,Bukit Ganjis,139.0
2.644451,102.78585,Bukit Sepang Loi,249.0
2.8036401,102.794334,Bukit Perlah,269.0
2.5259705,103.138275,Gunung Pukin,967.0
2.519934,103.14788,Gunung Besar,1036.0
2.6220782,103.16196,Bukit Hulu Malun,771.0
2.5166743,103.21521,Bukit Payong,407.0
2.6709576,103.271545,Bukit Jiwang,496.0
2.7321029,103.28414,Gunung Lesong,654.0
2.6433606,103.32141,Bukit Peradong,424.0
2.6688194,103.33064,Bukit Pontian,306.0
2.557838,103.415665,Bukit Peta,552.0
2.5920606,103.35375,Gunung Keriung,439.0
2.7407084,103.253525,Bukit Paniang,531.0
2.533754,103.49241,Bukit Klering,341.0
2.526337,103.47304,Bukit Kendok,430.0
