latitude,longitude,name,elevation
51.307648,105.2471,Сохор,2316.0
51.386425,104.64593,Шапка Мономаха,685.0
51.39187,104.65104,Верблюжья,656.0
51.350487,104.58957,пик Тальцинский,1806.0
51.341152,104.56904,г.Валунная,1808.0
51.387424,104.80733,Мамай,1540.0
51.380764,104.83799,Мамай Восточный,1580.0
51.387676,104.83879,Три березы,1250.0
51.36312,104.86194,Поляна,1756.0
51.302597,104.82481,гора Обручева,2175.0
51.399273,104.852036,Сторожевая,1441.0
51.395626,104.81558,Кедровая,1290.0
