latitude,longitude,name,elevation
-31.033,123.06974,Coonana Hill,413.0
-31.01982,122.63668,Erayinia Hill,419.0
-30.89364,122.71963,Jumnania Hill,386.0
-30.58318,122.54357,Mount Quin,397.0
-30.83451,122.55536,Quartz Peak,397.0
