latitude,longitude,name,elevation
50.58625,91.650024,Дурут-Ула,1491.0
50.5619,91.52454,Ынды-Турук,1958.0
50.640118,91.66145,Шарнут,1764.0
50.73379,91.85507,Уоту-Солчур,2079.0
50.720387,91.79938,Орта-Солчур,2197.0
50.698944,91.750336,Кыды-Солчур,2034.0
50.71352,91.91826,Хуху-Сайран-Хуту,1865.0
50.719135,91.964935,Хоройн-Орой-Ула,1714.0
50.73312,92.15508,Мерге,1289.0
50.75701,92.273186,Баян-Хайран-Ула,1611.0
50.884422,92.360794,Аргалык-Кожагар,2612.0
