latitude,longitude,name,elevation
-61.249268,-55.248608,Mount Pendragon,973.0
-61.107018,-55.103775,Monte Houlder,746.0
-61.139492,-54.768032,Colina Horn,338.0
-61.079857,-55.349236,Hammer Hill,500.0
-61.213314,-55.224438,Mount Elder,940.0
