latitude,longitude,name,elevation
-24.32535,116.84216,Mount Augustus,1105.0
-24.40979,116.98217,Mount Genoa,594.0
-24.36023,116.51015,Mount Phillips,780.0
-24.38095,116.56546,Mount Samuel,742.0
-23.536938,117.27268,Prismoid Hill,260.0
-23.64563,117.46361,Table Hill,280.0
-23.90941,116.61168,Wanna Hill,520.0
