latitude,longitude,name,elevation
39.040936,113.661514,东台,2795.0
39.049038,113.52837,中台顶,2893.0
39.079853,113.56713,北台顶,3061.0
38.71181,113.70328,老虎头顶,2017.0
38.92448,113.53428,南台,2485.0
38.758152,113.82423,南坨,2281.0
