latitude,longitude,name,elevation
4.416667,102.21667,Bukit Ulu Ketir,436.0
4.3819,102.3433,Bukit Guling Gendang,569.0
3.8231778,102.093956,Gunung Benom,2107.0
4.39867,102.40817,Bukit Teresek,334.0
3.5766835,101.80722,Bukit Hulu Bakau,1347.0
3.5737298,101.760185,Bukit Kunong,925.0
3.5352974,101.727684,Bukit Kutu South,975.0
3.7116766,101.710396,Gunung Akar,1280.0
3.7373815,101.65132,Gunung Semangkok,1824.0
3.7080197,101.69217,Twin Peak,1435.0
3.8024876,101.59193,Gunung Liang East,1933.0
3.5593731,101.67857,Bukit Batu Pahat,426.0
3.5624232,101.819725,Bukit Pelasung,1333.0
3.6029854,101.81595,Bukit Hulu Telang,1377.0
3.718171,101.752106,Bukit Peninjau,1325.0
3.7105038,101.69664,Pine Tree Hill,1456.0
3.7262897,101.723206,Bukit Jeriau,1256.0
3.7331235,101.69873,Bukit Hulu Sempam,1320.0
3.6888504,101.607544,Bukit Irdom,1104.0
3.6814113,101.76805,Gunung Ulu Semangkok,1394.0
3.6851144,101.75471,Gunung Gap,1183.0
3.662377,101.72385,Bukit Chorocho,1106.0
3.5496337,101.8058,Gunung Rajah,1683.0
4.4807644,101.89199,Bkt Panjang,497.0
4.4359403,102.0233,Bukit Sembilan,723.0
4.4118147,102.01188,Bukit Tujoh,868.0
3.6812987,101.763855,Gunung Ulu Tranum,1323.0
3.8020463,101.590996,Gunung Liang West,1933.0
3.6802764,101.50712,Bukit Asa,266.0
3.7105567,102.43417,Gunung Senyum,486.0
4.053097,102.2625,Bukit Jenderus,520.0
3.9302068,101.77082,Gunung Jua,830.0
4.2331676,102.25587,Bukit Agung,562.0
3.9726567,102.06213,Bukit Tajam,877.0
3.8655548,102.24371,Gunung Tungku,928.0
3.8830025,102.24051,Bukit Bongkok,897.0
3.6743858,101.5731,Bukit Hulu Sekamat,671.0
3.6642084,101.58637,Bukit Kalumpang,768.0
3.643088,101.600746,Bukit Kubah,533.0
3.6208656,102.28648,Bukit Berdut,203.0
3.550119,102.02269,Bukit Kaling,384.0
3.8243475,102.04005,Gunung Pallas,1527.0
3.6071064,102.164474,Bukit Rangit,617.0
3.6209023,102.18876,Gunung Tapah,777.0
3.5940003,102.27723,Bukit Kiab,218.0
3.7409687,101.55427,Bukit Perangin,456.0
3.5387046,101.613045,Bukit Perabong,357.0
3.8306055,101.59389,Gunung Tumang Batak,2082.0
3.859068,101.59842,Gunung Chondong Geliting,1829.0
3.6399138,101.86179,Bukit Jinjong,483.0
3.686275,101.85002,Bukit Batu Ketung,628.0
3.9854202,101.69793,Bukit Selayer,800.0
3.915059,101.68583,Bukit Tikoh,1008.0
3.8758583,101.6547,Bukit Chandan,1521.0
3.8749523,101.834435,Bukit Kajang,451.0
3.9153776,101.737,Bukit Reman Jala,1194.0
3.640674,101.673615,Gunung Hulu Lenik,1150.0
3.8012044,101.8229,Bukit Tungkup,504.0
3.7976918,101.83794,Bukit Kolam,522.0
3.8696496,101.817986,Bukit Batu Tujuh,281.0
3.7708647,101.58222,Gunung Behrang,1500.0
3.8980906,101.57958,Bukit Hulu Lipis,1292.0
3.8598077,101.52881,Bukit Hulu Piong,775.0
3.5838966,102.29791,Bukit Penau,98.0
3.7715611,101.62688,Gunung Tiga Negeri,1226.0
3.7629633,101.62612,Bukit Hulu Bernam,1525.0
3.9825866,101.522804,Bukit Kilap,721.0
3.934109,101.52413,Bukit Kesang,376.0
3.70914,101.54356,Changkat Lembah,284.0
3.8165796,101.51804,Gunung Chondong,707.0
4.143565,101.50343,Gunung Nam Nam,1481.0
3.9765568,101.540054,Gunung Gedong,1234.0
3.9841673,101.511116,Bukit Raju,424.0
4.1179004,101.570694,Bukit Luhey,1537.0
4.0875754,101.57855,Bukit Getam,1571.0
4.131642,101.50628,Gunung Sanggul,1673.0
4.1151423,101.51042,Gunung Kerjol,1467.0
4.2579813,101.57574,Bukit Dungun,967.0
4.28611,101.58497,Bukit Pinang,813.0
4.26361,101.51439,Bukit Yanyar,1039.0
4.236339,101.5337,Bukit Sungkai,981.0
3.5403316,101.55843,Bukit Syed Mashor,188.0
3.516789,101.60962,Bukit Rasa,285.0
