latitude,longitude,name,elevation
-14.186939,-42.975338,Morro Grande,749.0
-14.16741,-42.972218,Morro do Pau-de-Colher,845.0
-14.182144,-42.982143,Morro do Paga-tempo,695.0
-14.200144,-42.958588,Morro do Amaldiçoado,712.0
-14.230869,-42.883785,Morro Aroeiras,668.0
-14.249912,-42.808426,Morro Chico Fernandes,692.0
-14.258229,-42.824215,Morro Pelado,699.0
-14.265295,-42.7278,Morro,713.0
-14.175434,-42.782387,Morro do Canguru,739.0
-14.417822,-42.626686,Morro do Mosquito,989.0
-14.402261,-42.6965,Morro do Tanque,759.0
-13.769148,-42.52353,Morro Fundo,937.0
-14.43468,-42.691196,Morro do Boqueirão,918.0
-14.418429,-42.68536,Morro do Canafístula,829.0
-14.111874,-42.771824,Morro do Anjo,659.0
-14.07744,-42.847855,Morro da Inácia,869.0
-14.045129,-42.833275,Morro da Inácia III,749.0
-14.050401,-42.883392,Morro do Caldeirão,695.0
-14.295935,-42.75824,Morro do Babalu,749.0
-14.312,-42.74709,Morro do Suruá,898.0
-14.175404,-42.5971,Serra do Ouro,1122.0
-14.183716,-42.592377,Serra do Ouro,1141.0
-14.127759,-42.95426,Serrote do Pajeú,676.0
-14.10243,-42.936928,Morro do Sonho,532.0
-14.06621,-42.93606,Morro do Agreste,602.0
-14.024035,-42.96187,Morro da Sambaíba,799.0
-13.827921,-42.843765,Morro do Furado,748.0
-13.811556,-42.85606,Morro do Fundão,890.0
-13.957821,-42.563885,Serra dos Morrinhos,1110.0
-13.971433,-42.64139,Serra das Gurungas,1130.0
-13.845851,-43.056572,Morro do Caldeirão,625.0
-13.781388,-43.00803,Morro da Pedra Redonda,675.0
-13.775057,-43.00975,Morro da Boa Vista,670.0
-13.768494,-43.03669,Morro Pelado,561.0
-13.7606945,-43.06093,Pé do Morro,640.0
-13.726527,-43.045044,Morro da Pedra do Milagre,697.0
-13.746961,-42.94979,Morro da Manga,860.0
-13.794899,-42.905636,Morro da Santa Maria,875.0
-13.894253,-43.00639,Morro da Cabeça de Frade,530.0
-14.399434,-42.502457,Serra do Patinho,1130.0
-13.57533,-42.787716,Serra dos Porcos,970.0
-14.325597,-42.712257,Morro,807.0
-14.3175335,-42.724598,Morro,896.0
-14.29654,-42.750904,Morro,896.0
-14.160503,-42.78909,Morro da Quixaba,591.0
-14.275779,-42.76349,Morro do Carmo,666.0
-14.183014,-42.7042,Morro,724.0
-14.169367,-42.73926,Morro,617.0
-14.200572,-42.732567,Morro,652.0
-14.303476,-42.678066,Morro,912.0
-14.304475,-42.655834,Morro,921.0
-14.306408,-42.737633,Morro,861.0
-14.319736,-42.75939,Morro,721.0
-14.239468,-42.67724,Morro,905.0
-14.243378,-42.680855,Morro,838.0
-14.241548,-42.66946,Morro,953.0
-14.248869,-42.687206,Morro,922.0
-14.2245865,-42.6768,Morro,829.0
-14.2639675,-42.696907,Morro,765.0
-14.258622,-42.69476,Morro,825.0
-14.266587,-42.682335,Morro,754.0
-14.276506,-42.686413,Morro,905.0
-14.287674,-42.74173,Morro,869.0
-14.277526,-42.745594,Morro,657.0
-14.262522,-42.75998,Morro,605.0
-14.26143,-42.731987,Morro,525.0
-14.273159,-42.720078,Morro,708.0
-14.234976,-42.69654,Morro,667.0
-14.412206,-42.791317,Morro do Mosquito,667.0
-14.307157,-42.830265,Morro,756.0
-14.329029,-42.839836,Morro,865.0
-14.341066,-42.845863,Morro,776.0
-14.275405,-42.517284,Morro,1029.0
-14.304932,-42.530136,Morro,1011.0
-13.986273,-42.757385,Morro do Zé Mulato,907.0
-13.504192,-43.112026,Morro Barreiro,826.0
-13.514583,-43.125114,Morro Vira-Saia,797.0
-13.520095,-42.96878,Morro do Solteiro,743.0
