latitude,longitude,name,elevation
57.81565,56.05164,Иван-Гора,323.0
57.650867,55.80512,Калиновая,351.0
57.60967,55.562202,Шишка,255.0
57.57035,55.554,Полчеха,210.0
57.65854,55.58312,Епихина,203.0
57.812836,56.04003,Городище,327.0
57.806286,56.03158,Рябиновая гарь,322.0
57.80339,56.00242,Собачья,314.0
57.706013,56.108883,Благодать,380.0
57.684105,55.73256,Березовая,258.0
57.68188,56.040554,Волкова,308.0
57.6132,56.08477,Гляден,351.0
58.005795,56.475952,13 Бугор,250.0
