latitude,longitude,name,elevation
9.730837,100.02627,เขาไม้งาม,413.0
9.761736,100.02133,เขาหรา,627.0
9.764428,99.99692,เขาตาหลวง,478.0
9.792255,100.02232,เขากินนอน,435.0
9.786081,100.042076,เขาบ้านไฟไหม้,236.0
9.75947,100.05669,เขาลาดไม้แก้ว,378.0
9.72622,99.98733,เขาหินนก,148.0
