latitude,longitude,name,elevation
47.109028,24.441107,Vârful Corhanei,537.0
46.77516,23.57928,Dealul Cetățuia,401.0
46.569996,23.680466,Dealu Sândului,758.0
46.555874,23.669184,Mănăstirea,793.0
46.53232,23.595657,Dealul Ursului,852.0
46.59656,23.532309,Dealul Agrișului,800.0
47.336193,24.082201,Măgura,869.0
46.707115,23.605492,Dâmbul Mare,754.0
47.499046,24.236984,Oușor,1495.0
46.675884,23.539892,Măgura,827.0
46.69049,23.556984,Peana,832.0
46.518845,23.544245,Dealul Hâșu,1006.0
46.68776,23.506863,Recea,759.0
46.733982,23.519735,Dealul Gârbăului,570.0
46.82292,23.549871,Lomb,682.0
46.714203,23.512815,Dealul Lazului,590.0
46.752663,23.65225,Dealul Soporului,458.0
46.768433,23.537054,Dealul Hoia,507.0
46.542854,23.573257,Dealul Satului,774.0
46.547176,23.552053,Dealu Citeri,653.0
46.534935,23.613745,Borzești,725.0
46.529694,23.63575,Piatra Mare,712.0
46.569695,23.639772,Dealu Pietrii,645.0
46.544106,23.621733,Dealu Crucii,700.0
46.53916,23.618822,Ciungi,682.0
46.591686,23.596523,Muncelu,630.0
46.557945,23.59957,Dosului,801.0
46.573196,23.568901,Coasta Mare,632.0
46.545097,23.598284,Magura,762.0
46.537964,23.649323,Dumbrava,785.0
46.531578,23.656332,Domocașu,741.0
46.53521,23.684317,Sardău,549.0
46.55513,23.694668,Dealu Lupului,574.0
46.5251,23.642305,Măgura Jigăului,682.0
46.516533,23.61501,Coltu Sas,733.0
46.525185,23.56418,Colțu Văratec,865.0
46.52085,23.560991,Curmatoare,889.0
46.514153,23.580318,Colțu Boilor,789.0
46.52165,23.523909,Ciuha,913.0
46.870796,23.555357,Dealu Nucului,667.0
46.88388,23.528713,Dealu Șebide,596.0
46.860035,23.620049,Dealu Ciup,632.0
46.895077,23.616495,Curmătură,531.0
46.89252,23.577507,Dâmbul Măcicașului,510.0
46.901173,23.549656,Dealul Porcului,549.0
46.61297,23.719007,Dealul Cheia,579.5
46.754894,23.818611,Lepșa,460.0
46.771564,23.726362,Ciuha,451.0
46.75314,24.459007,Dealu Feței,539.0
46.78667,24.060312,Căpuș,470.0
46.777916,24.09318,Năoiu,493.0
46.562458,23.63535,Dealu Neciu,606.0
46.550346,23.605648,La Șipote,751.0
46.695667,23.500303,Coasta Dumbrăvilor,653.5
46.669083,23.5552,Arini,808.0
46.62254,23.52937,Bucium,617.05
46.6166,23.516918,Domnihaica,644.0
47.0054,23.964834,Cetate,560.0
47.011322,23.94955,Dealu Mănăstirii,485.0
46.996967,23.973864,Chicera,567.0
46.989925,23.945518,Bucutir,563.0
47.25762,23.952503,Măgura,753.0
47.233013,23.973711,Dealu Făget,563.0
47.268764,23.9374,Spânzul,781.0
46.731415,23.503193,Cetatea Fetei,558.0
47.41089,24.068676,Dealul Șpanului,728.0
47.48394,24.412245,Chicerii,1056.0
47.468243,24.403599,Trestiei,881.0
47.44589,24.405132,Dealul Staniștei,711.0
47.47808,24.414051,Zăpodiilor,992.0
47.397266,24.446613,Galben,1112.0
47.492836,24.45492,Cini,995.0
47.47959,24.453497,Plopilor,1003.0
47.46232,24.433538,Secături,758.0
47.421165,24.45295,Măgurii,1194.0
47.360817,24.434761,Dealul Scredei,794.0
47.498745,24.381805,Fața Fiadului,778.0
47.385563,24.406773,Dealul Tebeleș,767.0
47.48733,24.27576,Tăului,1462.0
46.799835,23.787436,Zăpodia,474.0
47.108,23.88084,Capu Dealului,419.01
47.12313,23.673416,Dealul Mălaiului,454.4
46.518925,23.567822,Bursucului,858.0
46.583866,23.514465,Citera,753.0
46.516525,23.5351,Fagetu,973.0
46.50371,23.588192,Pleșu,655.0
47.006702,23.562946,Vulturu,614.0
46.99387,23.57603,Pădurea Seleșului,619.0
46.54613,23.926552,Viişoara,400.0
46.59247,23.69703,Dealul Petridului,669.0
46.60291,23.72,Dealul Turului,530.0
46.839676,23.535423,Dealul Clujului,666.0
46.803463,23.522022,Dealul Viilor,502.0
46.86381,23.7138,Dealul Cheșeia,503.0
46.83596,23.598488,Techintău,633.0
46.734673,23.540754,Sinitău,536.0
46.827488,23.609812,Dealul Râpos,579.0
46.729706,23.566923,Capu Dealului,573.0
46.689148,23.592646,Dealul Socului,790.0
46.80488,23.582375,Steluța,555.0
46.69369,23.735918,Cioltul Mare,718.0
46.713966,23.645897,Feleac,753.0
47.14228,23.936903,Dealul Acăstăilor,329.0
46.82702,23.87164,Dealul Netedu,465.0
46.617302,23.536114,Dealu Baia,610.8
46.59587,23.507973,Dealul Furcilor,738.0
46.72111,23.77089,Dealul Jejunii,470.0
46.822216,23.808386,Dealul Șohintău,409.0
46.77316,23.712364,Dealul Fântânele,422.0
46.834335,23.819027,Dealul Techeneu,420.0
46.617275,23.690266,Dealul lui Gáspár,580.0
46.61928,23.674961,Baba Halma,627.0
46.74693,23.655502,Dealul Borhanci,470.0
46.9087,23.837366,Dealul Bologa,413.0
46.877518,23.832487,Dealul Orieș,389.0
46.8231,23.72321,Dealul Tarcea,453.0
47.148293,24.469454,Dealul Rujei,469.0
47.131886,24.45596,Dealul Soarelui,460.0
46.811115,23.644829,Fânațele Satului,513.0
46.64309,23.69832,Dealul Rojaș,610.0
46.629303,23.71697,Dealul Bărnățoiu,555.0
46.622456,23.715223,Nyerges,558.0
46.63544,23.655313,Dealul Prunișoru,670.0
46.670116,23.62253,Dealul Șpanului,764.0
46.69765,23.703953,Dealul Sălașului,726.0
46.741703,23.549978,Gălcer,503.0
46.72778,23.50305,Dealul Spoială,526.0
46.70675,23.825274,Straja Mare,520.0
46.695515,23.788582,Straja Mică,570.0
46.73537,23.752913,Bodrog,481.0
46.73994,23.746944,Pietrișului,488.0
46.7356,23.7155,Cireșii,460.0
46.86472,23.517572,Greța,566.0
46.93226,23.854353,Țanălu,522.0
46.91095,23.865831,Richet,480.0
46.809563,23.89537,Dealu Șoma,492.0
46.818413,23.91304,Dealul Lucoș,487.0
47.105034,23.963688,Dealul Ciuha,412.0
47.090916,23.94364,Dealul Ciungilor,371.0
47.126377,23.842901,Dealul Rompaș,420.0
46.890865,23.761148,Dealul Prunilor,436.0
47.001167,23.733423,Țigla,497.0
47.19033,23.759893,Măgura,530.0
46.60749,23.832758,Porțile de Fier,443.0
