latitude,longitude,name,elevation
58.443584,-155.73695,Mount Kelez,991.0
57.543915,-156.07916,Mount Becharof,996.0
58.044468,-156.34206,Whale Mountain,585.0
57.61479,-156.31975,Mount Ugashik,687.0
57.575737,-155.76321,Jute Peak,617.0
57.698685,-156.18607,Mount Simeon,468.0
57.657158,-156.25342,Mount Lee,795.0
