latitude,longitude,name,elevation
45.351665,97.41226,цэг /Индэртийн эх/,3668.0
44.83431,97.0271,Дундын хүрэн овоо,1409.8
44.74309,96.98932,цэг,1528.0
44.54879,96.95363,Бөөрийн хар,1873.0
45.45583,97.04688,Зэвт уул,3150.0
