latitude,longitude,name,elevation
65.74537,-163.18855,Asses Ears,608.0
65.76088,-163.24268,Black Butte,622.0
65.589264,-163.01,Kettle Dome,473.0
65.5959,-163.41237,Hoodoo Hill,468.0
65.717125,-163.149,Virginia Butte,542.0
65.71893,-163.28683,Skeleton Butte,555.0
65.89726,-163.3484,Mount Foster,395.0
