latitude,longitude,name,elevation
-32.608273,-54.5707,Cerro Grande,190.0
-32.568317,-54.57774,Cerro de Herrera,185.0
-32.56045,-54.599464,Cerro de los Capones,172.0
-33.248917,-55.124115,Cerro Mulero,306.0
-33.18483,-54.638905,Cerro del Olimar,180.0
-33.209183,-54.651802,Cerro de la Bolsa,170.0
-33.224033,-54.659847,Cerro de la Laguna,120.0
