latitude,longitude,name,elevation
9.577915,125.547806,Double Peak,930.0
9.852991,125.60597,Mount Conico,300.0
10.139444,125.64056,Mount Tristan,625.0
10.390278,125.64445,Mount Kanbinlio,850.0
10.202482,125.63813,Mount Palhi,730.0
10.351667,125.64306,Mount Redondo,939.0
9.880854,125.68445,Mount Gabo,220.0
