latitude,longitude,name,elevation
32.729298,-96.288315,Breezy Hill,165.0
33.172062,-96.390816,Hays Hills,180.0
32.55347,-95.84997,Red Hill,171.0
32.531525,-96.47166,Sand Hill,117.0
33.29761,-95.63995,Harpers Hill,145.0
33.488995,-96.17581,Snow Hill,208.0
