latitude,longitude,name,elevation
61.96316,143.016,гора Друза,2746.0
61.938877,142.78656,Улахан-Чистай,2470.3
61.7816,143.22398,Бравая гора,2126.0
61.84729,143.27118,Туманная гора,2503.0
61.61019,143.09798,гора Каньон,2236.0
61.7449,143.37169,гора Нядбаки,2369.0
61.71868,143.13274,гора Хетандя,2244.0
61.849876,142.80287,гора Теряк,2136.0
61.600746,142.83623,гора Хакандя,2615.0
