latitude,longitude,name,elevation
-30.76723,134.64401,Beacon Hill,211.0
-30.86105,134.66982,Black Camp Hill,195.0
-30.96525,134.81802,Bulpara Hill,244.0
-31.18219,135.09708,Cooritta Hill,140.0
-30.96249,135.34834,Kingoonya Hill,176.0
-30.70707,135.19835,Mount Eba,228.0
-31.00358,134.98006,New Year Hill,181.0
-30.75091,135.42033,Rocky Hill,178.0
-31.0628,135.37813,Stony Top Hill,165.0
