latitude,longitude,name,elevation
13.896334,38.169147,Indabamerk'Wars Korebta,1474.0
14.351486,37.767498,Monte Aiculita,1084.0
13.810544,38.191074,Tekezē Terara,1426.0
13.572699,37.917336,Angher,1442.0
14.272718,38.056038,Mokada,1530.0
13.80325,38.099785,Chessad Afoton,1331.0
13.903999,38.128437,Gedam Nek'a YeTerara Ch'af,1639.0
14.424685,38.40932,እምባ ታብር,1929.0
13.523455,38.370712,Amba Abier,3731.0
13.943522,38.107475,Mihira'I Sheyt'An Terara,1525.0
14.458742,37.97811,Medri,1467.0
