latitude,longitude,name,elevation
58.552193,-155.48436,Mount La Gorce,970.0
59.39026,-155.227,Big Mountain,658.0
59.013958,-154.94785,Pfaff Peak,971.0
58.94021,-155.00883,Oakley Peak,1403.0
59.1711,-154.62636,Pilot Knob,565.0
59.393322,-155.1098,Peters Plug,371.0
59.49505,-154.61832,Lookout Mountain,153.0
