latitude,longitude,name,elevation
47.384235,-61.916912,Butte du Vent,150.0
47.405823,-61.777634,Buttes Pelées,90.0
47.394512,-61.7753,Butte Ronde,80.0
47.228638,-61.972977,La Montagne,130.0
47.27934,-61.694466,Big Hill,174.0
47.23805,-61.855824,Butte des Demoiselles,60.0
47.4093,-61.82326,Butte à Mounette,40.0
