latitude,longitude,name,elevation
35.788788,129.22282,경주남산(금오봉),468.0
35.815853,128.56546,대덕산,540.0
35.801773,129.34521,토함산,745.0
35.573837,129.03629,배내봉,963.8
35.55215,129.04012,간월산,1069.0
35.539413,129.0541,신불산,1209.0
36.284176,129.2234,유리산,785.0
35.620285,129.00293,가지산,1240.9
35.63574,129.02052,상운산,1114.0
35.52128,129.409,염포산,203.0
35.59675,129.38672,동화산,235.6
35.57596,129.31392,함월산,200.4
35.57855,129.30603,태봉산,167.1
36.163,128.72122,거북산,262.2
36.198845,128.62029,집산,400.0
36.278675,129.2899,내연산(삼지봉),711.3
35.516014,129.05275,영축산,1081.0
35.76756,129.2253,고위봉,495.1
35.54715,128.5317,화왕산,757.7
35.85617,128.66277,모봉,150.0
35.85321,129.05124,오봉산,688.0
36.389355,129.16238,주왕산 주봉,721.0
36.01655,128.69533,팔공산비로봉,1193.0
35.81425,128.67268,대덕산,600.0
36.01614,128.56386,삼봉,550.2
36.011833,128.5663,지마산,571.0
35.936817,128.74084,환성산,820.0
35.934807,128.61577,학봉,278.0
35.926144,128.58539,망일봉,201.0
36.223015,129.22948,괘령산,840.0
36.184917,129.02722,베틀봉,934.0
36.177433,129.04076,곰바위산,835.0
35.617756,128.70201,남산,852.0
35.59328,128.69159,화악산,930.0
36.077835,129.1108,운주산,806.0
36.02517,129.14012,도덕산,702.0
36.041115,129.11763,천장산,694.0
35.83562,128.97067,구룡산,675.0
35.80139,128.9547,발백산,675.0
35.84591,129.01324,사룡산,685.0
35.824123,129.02711,만봉산,774.0
35.740486,128.68848,상원산,673.0
35.868885,128.51079,와룡산,300.0
35.943947,128.66911,문암산,431.0
35.97134,128.63869,응해산,509.0
35.963036,128.64912,응봉,450.0
35.990025,128.51945,건령산,522.0
36.069088,128.6275,준산,655.0
35.56305,128.93214,구천산,880.0
35.67609,129.03413,문복산,1014.0
35.677284,129.07272,불송골봉,740.0
35.626698,128.53596,수복산,593.0
35.639416,128.53647,마령산,611.0
36.03751,128.58318,가산,902.0
36.05817,128.56607,갈정산,742.0
35.55793,128.9722,천황산,1189.0
35.61551,128.95966,운문산,1195.1
35.760185,129.22597,천왕지봉,428.0
35.932964,129.13496,어림산,510.0
35.92005,129.10216,인내산,536.0
35.64879,128.79672,대남바위산,720.0
36.17976,129.0007,안봉산,1074.0
36.142105,128.85661,방가산,756.0
36.15552,128.86008,아미산,737.0
36.137493,128.8132,새가산,389.0
36.12869,128.81123,너치레산,454.0
36.086014,128.789,화산,828.0
36.07517,128.779,용암산,559.2
35.698486,128.76665,용각산,697.0
36.335358,128.60272,무명산,315.0
36.05564,129.15773,봉좌산,626.0
36.00962,129.25243,설창산,163.0
35.794525,129.089,단석산,826.0
35.641396,129.08469,고헌산,1034.0
35.593914,128.98471,백운산,885.0
36.263462,129.25858,향로봉,932.3
35.715595,128.52318,비슬산,1083.0
35.539715,128.55356,관룡산,754.0
35.53705,128.55984,구룡산,730.1
35.51078,129.03821,함박등,1051.9
35.51213,128.95976,향로산,976.0
35.61901,128.90276,북암산,806.0
35.626595,128.91257,사자봉,925.1
35.54478,128.8243,중산,649.1
35.550266,128.80681,낙화산,626.0
35.53704,128.86475,승학산,540.0
35.57525,128.91187,미륵봉,756.8
35.584763,128.92226,실혜산,828.0
35.58149,128.93228,정승봉,803.0
35.57853,128.70332,윗화악산,839.0
35.5782,128.7153,아래화악산,757.0
35.884983,129.13596,구미산,594.0
35.86761,129.13675,용림산,525.0
35.521248,128.81502,꾀꼬리봉,538.1
35.507977,128.8213,평전산,216.0
35.52158,128.8386,용암산,430.8
35.51794,128.78458,비학산,317.0
35.69389,128.5352,조화봉,1059.0
35.69737,128.52568,대견봉,1035.0
35.601185,128.56749,묘봉산,514.0
35.585594,128.59369,천왕산,619.0
35.705914,128.63826,삼성산,668.4
35.71913,128.67102,봉화산,473.5
35.74556,128.83536,대왕산,615.7
35.808384,128.71745,성암산,382.0
35.78731,128.68175,병풍산,567.7
35.816933,128.57631,앞산,658.7
35.786854,128.74817,백자산,487.0
35.75659,128.69632,동학산,602.7
35.769527,128.68877,두루봉,599.5
35.770836,128.61319,주암산,855.0
35.762722,128.60062,최정산,905.0
35.785442,128.57048,청룡산,794.0
35.733223,128.6469,삼정산,566.0
35.717106,128.62138,우미산,747.0
35.7346,128.61662,청산,802.3
35.81684,128.62262,법이산,334.0
35.81557,128.62575,법니산,349.0
35.802124,128.64326,애기봉,556.01
35.84826,128.71863,고산,95.3
35.8484,128.7037,우산,123.8
35.852978,128.66823,연호산,129.5
35.917805,128.66512,향산,160.1
35.925476,128.67683,용암산,382.2
35.946766,128.6413,왕산,246.8
35.93751,128.62492,화담산,204.4
35.924744,128.57074,함지산,288.0
36.32179,128.72882,수룸재,174.1
35.504925,128.94644,백마산,772.0
35.72692,128.77335,선의산,756.0
35.54781,128.90411,정각산,860.0
35.930183,129.0615,관산,394.0
35.765408,128.79015,삼성산,554.0
35.891388,128.94359,채약산,499.0
35.713253,129.02116,방매산,551.0
36.179127,128.9973,면봉산,1113.0
36.142353,128.5656,삼각점,400.0
36.147545,129.2341,무제등,426.0
36.214985,128.58772,마정산,402.0
35.53719,128.57735,무명산,662.0
35.632683,128.90083,인재,555.0
36.28208,128.652,오동산,345.0
35.671936,129.10338,백운산,892.0
36.36201,128.60416,천등산,349.0
35.634365,128.93108,억산,944.0
35.989365,128.60304,도덕산,660.0
35.842693,128.87259,아방산,432.0
35.713493,128.86575,학일산,695.0
35.955585,129.19028,무릉산,459.0
35.693348,129.00533,옹강산,832.0
36.22421,128.92274,고모산,763.0
35.770325,128.86288,용산,435.0
36.267803,128.74411,비봉산,671.0
36.152718,129.22704,비학산,762.0
35.656277,128.98445,삼계봉,807.0
36.23522,129.24419,매봉,833.0
36.16259,128.60431,매봉산,480.0
35.80331,128.64975,용지봉,634.0
36.180454,128.97478,삼각점,920.0
35.89868,128.97264,예향산,447.0
36.211132,128.85493,매봉,799.0
35.980137,128.83656,봉화산,291.0
35.546955,128.80125,보담산,562.0
36.179123,128.55882,적라산,353.0
35.917137,129.11522,남사봉,458.0
35.62581,128.88039,구만산,785.0
36.173252,128.89606,석심산,751.0
35.843624,129.33794,동대봉산,680.0
35.545425,128.98062,재약산,1119.0
35.97605,128.62047,응해산,581.0
35.68902,128.85295,통내산,677.0
36.39059,128.99875,노래산,796.0
36.025448,129.175,어래산,572.0
36.218494,129.22784,마북산,869.0
35.963963,128.89946,봉화산,277.0
35.60758,128.79518,오례산,626.0
35.575867,128.73143,철마산,634.0
35.91125,129.33401,시루봉,501.2
35.92868,129.35031,운제산,480.0
36.164677,128.9767,보현산,1126.0
35.808823,128.58968,산성산,650.0
35.795914,128.52084,천수봉,205.0
35.82708,128.60509,용두산,186.5
35.82391,128.57935,비파산,490.0
35.81124,128.58011,성불봉,589.0
35.793106,128.67738,감태봉,580.0
35.804596,128.72108,옥실봉,461.0
35.820446,128.69621,유건산,453.0
35.781567,128.7713,현성산,475.0
35.780167,128.76593,기필봉,484.0
35.534233,129.21545,문수산,600.0
35.811752,128.69014,망월산,517.6
35.81019,128.6977,안산,471.4
35.799915,128.72404,경일봉,380.9
35.770485,128.671,척령산,413.0
35.804924,128.61244,사방산,331.7
35.807316,128.585,월배산,589.9
36.207195,128.80461,매봉산,613.0
36.196354,128.78668,선암산,879.0
36.182476,128.82939,두리봉,570.0
36.26243,128.70929,금성산,531.0
36.15612,128.83098,삼각점,550.0
36.33701,128.95369,연점산,868.0
36.325912,128.94469,산지봉,816.0
36.330666,128.88855,금봉산,832.0
35.666824,128.76941,매봉,367.0
35.64503,128.58136,삼각점,416.0
35.630226,128.50978,연화봉,434.0
35.592884,129.04263,오두산,825.0
35.676643,128.93729,호거산,615.0
36.399933,129.19655,가마봉,882.7
36.40724,129.13846,장군봉,685.0
35.519283,129.32216,신선산,108.9
35.710144,128.937,까치산,615.0
35.73365,128.82549,큰골산,644.0
35.777924,129.03806,매봉,585.0
36.122265,128.85147,경림산,680.0
35.557266,129.10236,봉화산,350.0
35.71577,129.1754,삼각점,367.0
35.69436,129.16441,삼각점,400.0
35.63229,129.20569,연화산,532.0
35.853134,129.18152,옥녀봉,276.0
35.834095,129.17511,선도산,390.0
35.52291,128.6943,삼각점,320.0
35.576313,129.05588,밝얼산,738.0
35.61593,129.00761,중봉,1167.0
35.605026,128.73523,오산,514.6
35.546337,128.7404,옥교봉,538.3
35.691162,129.36513,삼태봉,629.0
36.219173,129.26727,삿갓봉,715.6
36.30615,129.292,동대산,792.4
36.267933,129.30801,문수봉,622.0
36.248,129.3281,뒷산,283.5
36.24414,129.28249,천령산,774.8
36.15855,129.23665,오봉,635.0
36.16708,129.28995,고주산,347.8
35.768974,128.50781,함박산,432.3
35.763786,128.52481,용문산,604.5
35.75863,128.52599,닭지봉,671.0
35.75315,128.53487,닭지만당산,671.0
35.77296,128.5542,황룡산,673.0
35.760975,128.55075,무명봉,643.0
36.48914,128.74707,갈라산,547.0
36.47354,128.79303,기룡산,555.4
36.495827,128.90456,약산,582.5
36.453865,128.91716,봉알산,373.2
36.4975,128.9346,와룡산,487.3
36.375862,128.87936,황학산,779.8
36.447308,128.57225,삼표당,443.6
36.3846,128.50917,해망산,401.1
36.46416,128.57976,수운산,404.5
36.446888,128.65746,향로봉,327.1
36.443855,128.64209,갈매봉,268.5
36.42175,128.6578,달봉산,318.0
36.412956,128.64594,행거봉,284.0
36.384254,128.71703,푯대산,358.0
36.390644,128.7114,매봉산,261.0
36.37113,128.71373,원당산,317.9
36.34519,128.84265,황학산,678.8
36.44591,129.06258,방광산,518.7
36.418842,129.16235,금은광이,812.3
36.423985,129.17313,두수람,927.2
36.42621,129.18793,먹구동,846.2
36.407906,129.24646,돌시산,398.4
36.40169,129.28241,시루봉,393.4
36.372467,129.26772,덕갈산,445.8
36.345222,129.25822,팔각산,632.7
36.30629,129.33647,문봉산,293.8
36.33327,129.2853,바데산,645.8
36.34105,129.172,무포산,717.5
36.321865,129.10873,매봉산,643.5
36.388676,128.95103,화부산,625.7
36.413948,128.935,계명산,530.5
36.468002,128.99878,천마산,484.9
36.451828,128.97874,사일산,644.2
35.990704,129.48761,백산황산,188.0
35.840637,128.6457,두리봉,212.8
35.861477,128.65596,형제봉,192.5
35.83615,128.63573,무학산,199.9
35.683292,128.53195,석검봉,989.0
35.682995,128.76572,팔치산,278.0
35.69096,129.32347,먹뫼산,144.0
35.70116,128.86987,소바위되배기산,558.0
35.702374,128.95572,방음앞산,407.0
35.704185,128.53355,월광봉,1003.0
35.707302,128.97746,범숲상봉,393.0
35.70801,128.89769,방지산,383.0
35.730465,128.74672,등잔산,447.0
35.731503,129.04689,살미등,615.0
36.00973,128.65587,파계봉,991.0
36.010548,128.64072,삼갈래봉,833.0
36.010727,128.8431,대원산,230.0
36.011604,129.14429,자옥산,570.0
36.012962,128.66591,상여바위봉,1019.0
36.023937,128.59868,치이봉,700.0
36.023746,129.29836,약물산,148.0
36.02597,128.60349,치키봉,761.0
36.025806,128.62128,부계봉,784.0
36.026424,128.73209,청석배기,831.0
36.02738,128.8336,새끼등산,164.0
36.03343,128.70778,얼음덤,827.0
36.03386,128.65453,오재봉,666.0
36.03579,128.80414,심우산,150.0
36.035934,129.10376,박박봉,593.0
36.036934,129.25693,초감봉,122.0
36.039326,128.68916,설봉,803.0
36.03869,128.80179,하마봉,163.0
36.04091,128.80956,두루산,168.0
36.043125,129.20776,범박지미,410.0
36.04295,129.21703,뒤번디기,263.0
36.04433,128.8107,제공산,169.0
36.04355,129.22029,앞번뒤기,287.0
36.045647,128.82445,이마산,200.0
36.045765,129.284,매봉지,206.0
36.047092,128.77649,치산,168.0
36.046696,129.25774,문중산,146.0
36.04778,128.54053,오계산,466.0
36.05709,128.56226,바깥조리봉,682.0
36.059914,129.03072,회룡,456.0
36.0623,129.17328,대화산,303.0
36.064003,128.50954,793고지,793.0
36.064972,129.01996,관방,372.0
36.065285,129.26788,아기봉산,229.0
36.066963,128.75848,화남리산,317.0
36.071014,128.76642,무암산,228.0
36.074078,128.76852,화암산,297.0
36.091137,129.24799,안태봉,137.0
36.112423,128.91896,자심봉,234.0
36.117622,129.39983,구곡산,119.0
36.118656,128.50925,장천면산,219.0
36.118877,128.51118,덕무봉,222.0
36.120796,128.7378,조림산,637.8
36.123344,129.3938,방목산,138.0
36.15082,128.55043,응봉산,334.1
36.132,128.53659,정각산,267.3
36.152225,128.52153,금정산,313.8
36.315186,128.72415,오토산 HL/GB-328,475.0
35.692635,129.03757,서담골봉,837.0
35.693836,129.45494,오발산,160.0
35.696968,128.90047,간서랑산,257.0
35.696648,128.9535,와호산,493.0
35.697697,128.57762,뒤맷산,313.0
35.700165,128.8734,어분산,490.0
35.710987,129.1851,활천산,239.0
35.711563,129.35712,백일산,564.0
35.71152,129.39056,두의봉,367.0
35.713345,129.39197,월천앞산,411.0
35.714993,129.43716,붕금산,276.0
35.71563,128.89975,납다갓산,332.0
35.716553,128.63998,우록당산,438.0
35.71823,129.13947,복안산,552.0
35.718563,128.65717,대바우봉,582.0
35.71843,128.65802,자양산,582.0
35.72031,128.89209,점삐알산,355.0
35.71958,129.1866,준주봉,356.0
35.722004,128.715,대적산,484.0
35.724377,128.6633,자라바위봉,481.0
35.724957,128.87704,하일봉,236.0
35.726166,128.57576,불개산,436.0
35.73257,128.95361,서지산,554.0
35.73547,128.79251,소붓골산,448.0
35.735947,128.53838,정대봉,876.0
35.735577,128.93207,개산,317.0
35.736954,128.89395,함박등,499.0
35.737297,128.91388,개양달봉,384.0
35.738644,128.7762,신방산,546.0
35.73848,128.82709,삼인봉,644.0
35.737553,128.92207,총산,308.0
35.73909,128.58014,신뱅이산,688.0
35.738865,129.13438,자래봉,457.0
35.739983,128.87881,굴띠산,412.0
35.743458,128.86647,골곡봉,197.0
35.743473,129.36743,조양산,569.0
35.749344,128.69307,대청봉,686.0
35.750607,128.87358,곡란봉,327.0
35.752865,128.71208,돌구산,446.0
35.753216,129.25885,마석산,353.0
35.75475,129.17964,무재당산,158.0
35.755783,129.27002,뒷비알산,153.0
35.757412,129.1902,새미산,114.0
35.757797,129.14561,수무산,392.0
35.75986,129.46756,한불봉,184.0
35.762173,128.81148,새치궁산,308.0
35.762638,129.0054,부엉이산,340.0
35.762897,129.03914,달등이산,405.0
35.76343,129.17464,탈바꿈산,235.0
35.763264,129.25624,작은마석산,344.0
35.764137,128.73505,연죽산,293.0
35.76405,128.77116,다랑골산,422.0
35.7667,129.23521,봉화대봉,473.0
35.768414,129.2161,황발봉,362.0
35.769417,128.84396,소룡산,243.0
35.666237,129.1331,용암산,588.8
35.676815,129.14944,아미산,603.6
35.5882,129.21007,무학산,344.0
35.611538,129.26044,옥녀봉,416.3
36.01077,128.84314,대원산,230.0
35.507416,128.57689,영취산,738.8
35.50648,128.9056,단장봉,558.0
35.506687,128.8025,화지산,177.3
35.50649,128.53302,석대산,566.0
35.505177,128.66339,점토봉,162.0
35.50404,128.61176,진등산,469.2
35.503452,129.03339,죽바우등,1064.0
35.50309,128.771,추화산,242.4
35.50397,128.68877,아북산,204.0
35.50212,129.40594,화정산,147.0
35.50289,128.9012,취경산,576.0
35.50229,128.84567,계령산,389.7
35.527817,128.73921,화산,192.0
35.52504,128.63293,HL-GN-226,375.0
35.524506,128.7891,신성바위,298.0
35.52303,128.67662,낙수봉,315.6
35.53962,128.63765,인목봉,159.0
35.53666,128.97563,관음봉,903.3
35.54274,128.95503,필봉,662.0
35.538544,128.62708,건절미산,348.0
35.52222,128.98875,재약산,953.5
35.52289,128.74985,춘례봉,383.0
35.52044,128.94804,아우봉,822.0
35.51998,128.9499,형님봉,834.0
35.51946,128.8984,세천봉,432.6
35.515656,129.44351,둘안산,41.2
35.5153,128.9006,명필봉,542.0
35.514267,129.08278,방기뒷산,258.0
35.514244,128.85278,경주산,212.6
35.514416,128.81013,다원동산,203.2
35.513,129.21744,남암산,544.4
35.51307,128.83708,단산,139.5
35.5134,128.74461,장자산,106.7
35.512142,129.24345,큰비알산,211.3
35.512936,128.53273,구현산,579.0
35.511044,128.51901,쌍교산,469.5
35.51031,129.31699,함월산,138.1
35.51037,128.73615,똑뫼산,102.0
35.529568,128.64348,의봉산,372.0
35.539093,128.74084,옥교봉(옥교산),538.4
35.536274,129.23671,영취산,352.1
35.538124,129.36127,돋질산,89.2
35.530598,129.08574,고장산,320.9
35.53528,128.6992,가산,91.2
35.53283,128.99588,코끼리봉,898.0
35.54114,128.59488,열왕산,663.3
35.52981,128.6285,메산,303.0
35.5399,128.6922,동산,134.4
35.53184,128.72163,똥미산,68.0
35.54042,128.78575,낙화덤,291.0
35.53718,128.61029,개박달산,299.9
35.54106,129.27252,삼호산,125.7
35.53869,128.9773,문수봉,952.7
35.55879,129.41656,마골산,298.8
35.56046,129.08824,산성산,295.9
35.56116,129.27429,다운산,99.0
35.54661,129.0963,319봉,319.3
35.54463,128.71252,병산,123.0
35.54531,128.65941,천마봉,220.2
35.55874,128.76967,봉수대,266.9
35.54513,129.44298,봉대산,189.8
35.54637,128.61223,등강산,199.0
35.56329,129.00713,주계바위,779.0
35.55783,128.6344,죽바위산,421.5
35.56421,128.65793,덕산,211.4
35.54306,129.30087,은월봉,116.0
35.55908,128.62146,두곡봉,192.0
35.54418,128.86024,장자산,135.2
35.554,128.80592,문방우산,528.0
35.56446,129.40196,갈미봉,329.8
35.55175,128.84187,백암봉,681.2
35.59076,129.39743,무룡산,450.7
35.59054,129.32985,황방산,143.2
35.587498,129.10182,작약봉,241.2
35.58646,129.079,동메산,161.7
35.58372,129.01839,능동산,983.1
35.582,128.5544,삼각점,549.0
35.58132,129.42027,작은물용산,261.4
35.580826,129.28122,입화산,142.7
35.581543,128.59958,배바위산,608.2
35.580326,129.10152,청룡산,142.7
35.58039,129.0088,능동2봉,969.0
35.58085,128.75978,오리산,352.0
35.580475,128.64061,호암산,611.2
35.57684,129.0485,가메봉,760.3
35.57453,129.11256,화장산,271.7
35.57421,128.65262,안장산,323.0
35.574436,128.53131,박월산,384.9
35.5729,129.2803,입화산,197.8
35.572815,128.88716,건지봉,340.3
35.572655,128.82304,소천봉,631.9
35.57116,129.26132,삼동산,135.0
35.570984,129.41983,새바지산,260.9
35.56974,129.09377,안산,254.5
35.569595,128.68361,형제봉,556.7
35.569412,128.60799,가곡봉,320.0
35.569576,128.50484,고연정,99.1
35.568886,129.25749,장구산,133.0
35.56815,128.66559,미리동산,386.0
35.56766,128.99841,토끼봉,1017.0
35.567543,128.84161,용암봉,684.7
35.59742,128.8337,종지봉,537.2
35.60916,129.05057,송곳산,478.7
35.59261,128.78313,대운봉,501.0
35.59712,129.08698,뱀사등,15.1
35.59589,129.08728,개구리봉,140.1
35.593918,128.64526,호법봉,438.0
35.59798,128.61761,대산,353.8
35.607906,128.98607,자살바위,1080.0
35.592506,128.59323,족금당,551.2
35.60599,128.85802,고추봉,655.0
35.60926,129.17583,동매산,121.8
35.59635,129.45125,우가산,173.2
35.592846,128.89476,곤지봉,362.0
35.60006,129.28473,입화산,246.9
35.60887,129.0577,매봉산,470.5
35.60299,129.44344,옥녀봉,167.4
35.605385,128.50702,왕령산,428.6
35.63051,128.7783,송원봉,593.0
35.6225,128.73314,대포산,693.5
35.62316,128.75706,범바위봉,327.8
35.61584,129.37683,동대산,213.0
35.62729,128.92793,흰바위봉,852.0
35.620346,129.42052,탕근산,188.5
35.62661,128.71585,은왕봉,644.0
35.61919,128.78423,거연봉,593.0
35.63037,129.153,봉화산,245.7
35.61764,128.91692,수리봉,765.7
35.6309,128.87395,흰덤봉,668.2
35.61555,128.81512,성두산,315.5
35.62841,128.83025,응봉,277.2
35.63073,128.94495,억산,962.0
35.623844,129.09184,고운산,760.8
35.62991,128.62794,산성,259.5
35.613712,128.85689,육화산,674.1
35.61211,128.62225,신방산,297.9
35.61909,128.84203,고깔봉,453.0
35.65008,128.81119,용당산,595.6
35.64912,129.00926,쌍두봉,928.6
35.648193,128.60649,낙수산,183.4
35.64527,128.84448,자미산,247.0
35.64541,128.77995,원정산,522.0
35.644962,128.6149,붕어산,144.1
35.64304,129.13115,우덕산,523.0
35.64375,129.08093,고헌서봉,1034.0
35.64106,128.86728,부처산,515.9
35.64155,128.67538,무학봉,134.7
35.640583,128.67896,무학산,169.7
35.64011,128.64436,똥뫼산,103.6
35.639496,129.13776,마병산,510.9
35.63831,128.91566,복정산,842.0
35.63727,129.37929,동대산,446.7
35.637104,129.29828,상아산,226.5
35.63661,128.61267,승마산,181.4
35.63555,128.87817,구들삐산,668.0
35.63283,128.94118,삼지봉,904.3
35.631054,129.24342,국수봉,603.2
35.63147,128.65831,가례산,272.0
35.65385,128.86293,호화동산,354.0
35.66111,128.80617,시루봉,680.7
35.658615,129.32118,순금산,294.0
35.665142,128.83315,호랑산,582.4
35.654324,128.60889,와우산,188.3
35.65182,129.30344,천마산,296.0
35.650654,129.32878,순금산,119.0
35.662212,128.62718,나부산,303.0
35.653652,128.59592,풀산,261.0
35.656197,128.58685,제비동산,186.0
35.659428,128.64932,중칭산,220.6
35.66249,129.43837,안산,120.0
35.65363,129.00282,황등산,671.0
35.65657,128.9275,귀천봉,578.0
35.66187,128.82243,비룡산,456.7
35.65066,129.32878,순금산,119.0
35.65167,128.693,질매봉,190.5
35.663017,128.59093,뒷산,248.0
35.65787,129.0402,학대산,963.0
35.65723,128.75487,봉마루,256.8
35.66246,128.84251,뒷메산,272.0
35.68221,128.6554,장군봉,168.5
35.675037,128.85236,수청산,294.0
35.683018,128.76576,팔치산,278.4
35.6814,128.99834,용둔봉,643.0
35.67057,129.12016,선재봉,585.0
35.67463,128.50296,고둥덤,877.0
35.669712,128.81218,비룡산,685.7
35.67215,129.45181,범실산,83.0
35.68482,129.46178,오바산,77.0
35.68379,128.87926,어성산,369.8
35.67209,128.50739,벼락덤,916.3
35.6809,128.71954,호복곡,232.1
35.6784,128.94344,방음산,582.0
35.67949,128.73917,덕암봉,254.0
35.67404,128.6139,대밭골산,364.7
35.67765,128.80621,중산봉,582.0
35.68342,128.63336,태봉산,400.7
35.66997,128.9456,호거대(장군봉),515.8
35.677746,128.51764,관기봉,933.0
35.668686,128.97456,지룡산,666.1
35.66915,128.72754,나산,215.0
35.68453,128.52078,금수암,869.0
35.683792,128.85216,토한산,629.7
35.66957,129.46056,삼삼봉,49.0
35.66821,129.36017,삼태봉,407.6
35.67958,128.67638,고철산,180.0
35.67728,128.65273,양계봉,192.0
35.67362,128.58853,노인봉,367.5
35.683674,129.25873,묵장산,781.2
35.6728,128.70107,봉난봉,157.0
35.70865,128.67503,자양산,308.1
35.70621,129.43114,갈골산,321.0
35.70501,129.38745,용두산,351.3
35.7055,129.3656,삼각점,631.0
35.701515,129.4527,구만봉,153.52
35.70073,129.04675,조래봉,839.1
35.7007,128.89201,안산,283.8
35.69879,129.46167,오족산,92.0
35.697712,128.57768,뒤맷산,313.4
35.69678,129.34517,봉서산,360.8
35.694344,129.13843,천마산,613.3
35.693844,129.45491,오발산,160.1
35.693123,128.79353,태봉,346.3
35.69228,128.66959,삼당봉,273.0
35.691956,129.17592,삼봉,361.0
35.69065,129.03033,까끌바위봉,769.0
35.68908,128.64511,문수봉,280.5
35.6887,128.87665,갓등산,426.7
35.68828,128.78926,공재봉,372.0
35.688725,128.61226,홍두깨산,606.5
35.68756,128.98106,소진봉,380.0
35.686565,128.57817,서림미산,439.6
35.71498,129.43715,붕금산,276.0
35.723373,128.92375,호산,313.9
35.72531,128.61017,지봉,695.662
35.72616,128.57574,불개산,436.0
35.718296,129.13948,복안산,552.4
35.70913,128.88054,양달산,406.4
35.71957,129.1866,준주봉,355.7
35.72247,128.9109,종지봉,367.013
35.71235,129.30768,아기봉,233.0
35.72343,129.13661,역산,530.8
35.718464,128.7342,안산,501.7
35.7241,129.119,삼각점,560.0
35.720604,128.82344,천주산,516.9
35.72626,129.1805,거북산,292.2
35.71095,129.1851,활천산,239.0
35.74153,129.16469,왕산,288.2
35.73631,129.13297,선도산,501.6
35.73581,129.14455,화산,238.1
35.748795,128.51207,태봉산,364.5
35.738228,129.26256,마석산,531.0
35.74971,129.44368,형제봉,176.1
35.75165,128.95062,가리봉,362.698
35.743896,129.4119,우산,385.1
35.73591,128.53833,정대봉,876.0
35.732254,128.98053,매곡,606.8
35.7435,128.6814,상원산,673.0
35.7439,129.4119,우산,385.1
35.74349,129.36739,조양산,569.0
35.74854,129.3542,진전산,411.8
35.73484,128.52278,용두봉,716.6
35.73628,128.56425,조리봉,673.627
35.737114,128.71992,원동산,567.0
35.757782,129.14557,수무산,392.0
35.76032,128.69136,동학산,571.2
35.755318,128.74953,태봉산,208.0
35.75957,129.15337,수무산,253.0
35.771626,129.26984,얄미봉,164.8
35.76144,128.50468,기산,276.6
35.77245,129.46576,관음봉,211.5
35.75328,128.77034,황새봉,256.8
35.762875,129.03911,달등이산,404.6
35.7694,128.84395,소룡산,243.1
35.75784,128.5451,갑산,677.178
35.76177,129.25604,마석산,343.8
35.76804,128.54942,인산,597.101
35.76262,129.00539,부엉이산,340.4
35.754753,129.17961,무재당산,158.1
35.76555,129.13503,매봉,529.8
35.770287,129.17322,성부산,321.6
35.75741,129.19017,새미산,113.5
35.76852,129.04173,창수산,407.4
35.756626,129.38066,조항산,596.2
35.76341,129.1747,탈바꿈산,235.1
35.772263,128.8381,갈지산,150.1
35.761444,128.50468,기산,276.6
35.76296,128.839,종남산,182.3
35.75445,128.79742,삼성산,533.6
35.766804,129.39429,형제산,530.5
35.755833,128.73006,갈미봉,288.2
35.762184,129.1959,석갓산,87.9
35.75441,128.53137,삼형제봉,677.682
35.79332,129.21584,삿갓봉,285.0
35.79298,129.25473,작봉,146.0
35.79118,128.85472,구경봉,111.0
35.79096,129.366,진듸백이봉,307.8
35.79017,129.22643,사자봉,428.6
35.78988,129.46768,삿갓봉,186.6
35.7898,128.68239,병풍산,523.7
35.78837,128.87262,모정산,98.0
35.78884,128.54097,이필봉,421.0
35.78782,128.52998,일필봉,273.0
35.7863,129.2535,안산,148.0
35.78626,128.85211,안산,112.5
35.78678,128.5342,약산골산,314.0
35.78548,128.71878,하당산,94.0
35.7858,128.71584,상당산,96.7
35.78507,128.66528,인학산,283.9
35.785507,128.54588,삼필봉,465.2
35.78348,128.82285,관절미산,180.2
35.78287,128.72932,안산,162.6
35.7815,129.19366,강정산,109.2
35.78119,129.1754,금실산,183.8
35.781246,128.7248,기름산,157.8
35.78134,128.66164,창산,261.5
35.78134,128.54858,범두골산,481.0
35.77955,129.281,솔매산,94.7
35.77952,128.7997,반곡봉,183.0
35.7796,128.7844,삼성산,305.8
35.77942,128.51372,까치봉,297.9
35.777946,128.99635,장육산,686.0
35.7771,129.47778,연대산,213.7
35.777004,128.81155,밤골산,235.5
35.77592,129.22403,바깥태봉,354.0
35.775867,129.18568,보갓산,226.1
35.775063,129.14561,호암산,432.4
35.775585,129.06924,조래봉,654.1
35.774,129.136,삼각점,531.0
35.77485,128.93927,반룡산,631.3
35.77301,129.47208,연대산(무일봉),248.0
35.77319,129.28526,뒷산,146.7
35.77371,128.52168,까치봉,418.1
35.80015,129.22554,능비봉,270.0
35.80321,128.67184,깃대봉,554.4
35.808662,129.23073,남산성,255.9
35.802032,128.61745,사방산,267.1
35.810604,128.85265,삼락산,305.1
35.794266,129.18709,망산,232.3
35.807377,129.37538,백두산,449.1
35.80397,129.40178,절뒤산,268.0
35.79412,128.71333,금성산,431.1
35.80824,128.50543,뱀산,75.7
35.80775,128.77888,오목산,101.4
35.809002,129.27777,형제봉,290.3
35.80734,128.88985,덕곡산,264.5
35.79914,128.59335,월배봉,622.0
35.79489,128.77512,대각산,218.129
35.81292,128.90553,용성산,408.0
35.8017,128.8819,새터봉,230.6
35.880527,129.24307,섯갓산,271.2
35.869926,129.17851,큰갓산,234.8
35.89489,129.17726,질메산,93.0
35.882362,128.56836,날뫼산,62.3
35.880093,128.50479,와룡산용두봉,262.5
35.89232,129.41826,만리봉,426.9
35.892334,129.47813,동악산,251.8
35.87908,128.51929,할아버지봉,287.0
35.8895,129.19553,달래백이산,138.0
35.88728,128.71487,각산,115.7
35.86741,128.84467,용호산,123.0
35.892536,129.18658,퇴박골산,112.6
35.87284,128.9165,송청산,308.9
35.87299,129.35474,무장산,624.5
35.89288,129.24367,바가지산,62.0
35.87486,128.92001,송청산,395.0
35.80249,129.2743,형제산,243.5
35.80656,129.1597,벽도산,437.2
35.79733,129.17303,여우봉,246.4
35.80401,129.00479,정족산,698.1
35.8214,129.0592,삼각점,651.0
35.81965,129.1814,갯보산,216.6
35.83291,128.94804,석장산,466.0
35.82093,129.25389,석당산,75.5
35.81748,128.93549,이암산,487.0
35.829407,128.5378,학산,139.8
35.818478,129.18907,장산,114.5
35.81605,128.77728,신천산,104.4
35.82931,129.10675,말암산,142.0
35.82354,129.1218,자라등,78.0
35.81377,129.29836,대덕산,320.1
35.83346,128.92444,영구산,515.0
35.8274,128.70169,갈비동산,152.2
35.83088,128.9414,큰석장산,505.0
35.81858,129.27638,영세곡산,281.0
35.831257,129.2654,힌등산,268.7
35.82274,129.24875,보갓산,87.0
35.81798,128.92552,장재봉,490.0
35.838974,128.83086,도천산,261.3
35.82048,128.90865,내곡산,455.0
35.818336,128.78795,높은등산,93.0
35.81733,128.54817,장지산,80.8
35.81574,129.1039,마산댕미산,215.5
35.8286,128.62701,묵넘어,106.5
35.82663,128.84009,북신봉,190.0
35.819126,129.2242,장산,137.0
35.835377,128.64616,무학산,206.36
35.817677,129.32295,만호봉,522.2
35.82287,128.8559,금학산,307.6
35.81736,128.83298,달불산,134.6
35.82346,129.2179,도당산,101.0
35.82638,129.0839,장군봉,457.8
35.82104,128.7909,비산등산,76.8
35.82761,128.79153,빈주산,67.8
35.8239,129.2424,낭산,99.5
35.83075,129.23958,낭산,113.0
35.86464,128.63281,계룡산,116.31
35.8642,128.59216,아미산,52.6
35.863113,129.06667,소산,184.6
35.862316,129.2319,무지기산,148.7
35.860123,129.23203,소금강산,176.7
35.8608,128.59692,연귀산,58.0
35.85581,129.05882,소산,512.2
35.85427,129.39311,함월산,466.0
35.854362,129.23352,동산,133.3
35.85468,128.59685,수도산,75.5
35.851738,129.25114,약산,272.2
35.851086,128.69417,천을산,150.0
35.84999,128.6327,범어산,137.0
35.849,129.3746,함월산,584.0
35.847755,129.04497,주사산,565.8
35.84506,128.51782,공동묘지산,95.0
35.84314,129.25822,명활산,161.5
35.84254,128.56554,장등산,101.64
35.84166,128.50423,갈산,85.5
35.84066,128.89366,조봉,372.3
35.83926,129.25722,명활산,204.0
35.83958,129.04263,부산,731.2
35.83875,129.10738,옥산,96.7
35.88292,128.74402,조로봉,196.6
35.88011,128.6963,돈지봉,131.6
35.87088,129.33934,은산,494.0
35.896988,129.24123,우복산,91.9
35.8724,128.52094,상리봉,255.0
35.882515,128.517,용미봉,255.0
35.87486,128.85979,자라등산,115.6
35.90364,128.98816,금오산,411.8
35.91208,129.038,만불산,275.4
35.900112,129.17616,안산,98.4
35.914104,128.7881,장군산,312.0
35.91047,128.73624,매여,494.0
35.913113,128.92407,사말등,150.8
35.90626,128.80823,시산,89.16
35.903736,128.94923,밤무골산,193.4
35.90374,128.94923,밤무골산,193.4
35.91297,128.70325,요령봉,493.0
35.91071,129.2604,비봉산,145.4
35.900272,128.5385,수리봉,130.6
35.90871,129.24376,수정산,103.6
35.91957,128.68852,대암봉,464.0
35.91358,129.42955,묘봉산,363.0
35.90131,129.27937,동산,100.7
35.91082,128.62816,검단산,85.3
35.90674,128.84758,비호동산,62.0
35.91292,129.25484,비봉산,101.7
35.89759,128.53085,잠산,198.5
35.917088,128.93454,속골산,153.2
35.903522,129.19482,안태봉,337.9
35.9156,129.3597,삼각점,420.0
35.90057,128.66951,둔산,114.9
35.897255,128.58708,침산,121.4
35.91281,129.2065,두지봉,289.2
35.905067,128.61476,대불산,81.0
35.9172,129.21875,도통산,198.4
35.91113,128.51534,사북산,237.0
35.90364,128.98816,금오산,411.8
35.90108,128.94278,뫼봉동,213.1
35.91668,128.52228,가정산,205.0
35.914337,128.74225,초례봉,648.6
35.907227,128.96295,못산,151.2
35.900105,128.59933,연암산,134.5
35.89766,128.5139,수매산,35.0
35.904957,128.70695,능천산,368.9
35.94505,129.03706,평용산,323.9
35.94552,128.87395,갈강산,121.0
35.94563,128.63412,왕산,161.5
35.943115,129.24815,별봉,44.0
35.94289,128.70645,돼지코,334.0
35.941307,129.45581,성적산,250.9
35.94161,128.78618,무학산,588.5
35.9419,128.71915,시량이봉,492.0
35.94,128.55217,구수산,75.6
35.936073,128.65732,감태봉,337.0
35.93535,128.54695,가산,66.2
35.934406,129.27953,서산,265.8
35.933815,129.43457,삼봉산,290.5
35.93201,129.16922,금곡산,521.0
35.93035,129.33704,동자봉,453.0
35.929317,129.26086,황학산,194.6
35.92811,129.41684,월미산(용봉),325.0
35.9281,128.71922,마사토봉,464.0
35.92469,129.21626,황수등산,305.3
35.92483,129.17938,금욕산,477.0
35.924763,128.53462,태복산,194.2
35.922176,129.45679,망해산,195.6
35.922024,129.25894,골산,141.4
35.922577,128.74397,낙타봉,658.3
35.92298,128.64438,단산,56.9
35.92176,129.33319,망뫼봉,445.0
35.92065,129.02278,방산,328.4
35.920704,128.95885,금산,118.7
36.02362,128.69926,공산성봉,1190.0
36.03168,128.72908,투구봉,824.6
36.023064,128.50572,백운산,713.3
36.02873,128.89575,모산,160.6
36.01739,129.25868,텃골산,93.0
36.02496,128.69464,청운대,1119.0
36.03966,128.89665,백학산,226.2
36.023785,129.29832,약물산,147.6
36.02038,129.27478,매봉,226.6
36.01618,128.98544,부래산,104.1
36.03416,129.29594,조산,104.1
36.039764,128.52596,실봉산,457.5
36.02187,129.31137,지곡산,95.0
36.01858,128.51857,매봉산,628.0
36.0252,129.22441,남산,55.5
36.02743,128.83365,새끼등산,164.0
36.03206,128.52182,인공침이,482.0
35.97117,128.7516,장군바위봉,629.0
35.96737,128.97153,진등,149.5
35.960247,129.19948,매봉산,220.9
35.972836,129.31944,옥녀봉,224.9
35.949932,128.63243,왕산,191.2
35.95882,128.95927,학조산,155.3
35.95716,128.60033,완전봉,349.55
35.972958,128.90524,삼모산,254.2
35.953682,128.54274,말산,164.74
35.97147,128.66837,삼마산,347.6
35.949688,128.5493,말산,89.7
35.96876,128.77301,명마산,500.1
35.96588,128.62367,명밭봉 상봉,370.2
35.973797,128.52777,명봉산,402.1
35.972027,129.21658,마미산,157.9
35.96474,128.6036,응애산,369.0
35.95282,128.57512,학익산,127.6
35.96227,128.84163,환지봉,235.6
35.95849,128.62648,용두산,362.764
35.97264,128.7503,명마산,654.9
35.96415,128.96729,막등,125.0
35.952766,128.65524,공산,351.0
35.96151,128.53127,안양봉,282.0
35.94958,129.22308,곤제봉,289.3
35.950535,128.91315,유봉산,245.2
35.95737,129.262,산발봉,223.2
35.95254,128.55077,말산,92.2
35.97473,129.25165,복호산,152.9
35.996834,129.13222,성산,244.4
35.98484,128.7806,풀갓봉,425.0
35.978973,128.71169,인봉,579.0
35.99154,129.19894,보갓이산,60.2
35.98524,128.72086,인봉,692.8
35.97508,128.60172,도덕봉,313.3
35.97966,129.22559,갑산,40.2
35.977818,129.48914,운장산,234.0
35.99563,128.5713,금암봉,371.0
35.977654,128.99503,밤말산,188.3
35.98244,128.71552,노족봉,648.0
35.98186,129.20198,근계산,196.0
35.98575,128.73166,남방아덤,888.0
35.99286,128.73514,은해봉,891.0
35.98281,128.73293,제1초소봉,854.0
35.98304,128.77202,천성산,560.0
35.979797,128.55363,대봉산,132.6
35.988224,129.29474,형산,257.1
35.977203,129.47453,조항산,245.6
35.99553,128.54636,나티미기산,226.0
35.99067,128.7132,한봉,606.7
35.983547,128.66104,거저산,511.3
35.97419,129.1007,무학산,442.6
35.97697,128.73811,용주봉,745.7
36.01412,128.66803,가마바위봉,1054.0
36.013405,128.8263,봉화산,163.7
36.013382,128.69698,동봉,1167.0
36.013935,128.68713,서봉,1150.2
36.012054,129.31737,노적봉,109.5
36.011333,128.70041,염불봉,1087.0
36.010773,128.84314,대원산,230.0
36.00864,129.29395,제산,181.7
36.00864,129.29395,제산,181.7
36.007847,129.12126,삼성산,591.5
36.007576,128.68736,성인봉,903.5
36.00721,128.63116,도각봉,806.0
36.006004,129.47382,오묵도산,57.0
36.00678,129.30788,딴봉,12.6
36.00691,129.26752,대미산,124.3
36.006012,128.72351,신령봉,996.0
36.00565,129.2768,잔디미산,48.6
36.0017,129.26648,대미산,130.4
36.001698,129.26648,대미산,130.4
36.0016,128.6943,신림봉,816.0
36.000526,128.83627,대왕산,174.8
36.00091,128.63963,호산등,496.0
36.000732,128.63397,해일봉,657.0
35.99879,128.77052,태실봉,462.9
35.99803,128.72878,삿갓봉,931.3
35.9982,128.65018,물불산,754.0
35.99749,129.49443,금오산,230.1
35.99702,128.73227,운부봉,876.0
35.99714,128.71362,삿일봉,755.0
36.241882,129.36255,천마산,169.5
36.23301,129.35834,어유산,125.0
36.24627,129.31458,견지봉,203.5
36.23531,128.79547,아지산,301.8
36.23155,128.86937,문봉산(갈비봉),677.5
36.24312,128.99323,개일봉,661.0
36.23607,129.37953,봉화산,107.7
36.24302,129.30873,견지봉,332.0
36.23543,129.36476,바미갓산,57.6
36.249302,128.58704,오가지산,333.0
36.24674,128.61131,꿀밤산,249.9
36.236073,129.37953,봉화산,107.7
36.03579,128.80411,심우산,150.0
36.045685,128.82446,이마산,198.5
36.05565,129.2621,낙산,90.0
36.04879,128.79915,동듬,190.1
36.047127,128.77649,치산,168.0
36.041466,128.70229,시루봉,726.0
36.061264,129.17383,생비리봉,297.0
36.05387,128.78757,성황산,199.8
36.04963,129.24812,내서뒷산,56.3
36.04153,128.8075,두루산,153.3
36.0565,129.0621,삼각점,518.0
36.05991,129.03072,회룡,456.0
36.048363,129.35597,수도산,78.0
36.04438,128.81075,제공산,169.0
36.05283,129.1126,장산,266.1
36.04838,128.67944,송골봉,759.0
36.06069,128.515,674고지,673.0
36.07101,128.76643,무암산,228.0
36.067207,128.80751,위지지,530.2
36.07069,129.39598,철미산,40.5
36.074944,129.41333,정지밑등,62.0
36.085743,129.20778,두봉산,241.9
36.076584,129.278,도음산,382.7
36.07317,129.23587,용산,307.1
36.067387,128.82385,노고산,557.0
36.07136,129.38408,용두산,54.1
36.07986,128.56754,연화바위산,503.0
36.07403,128.56575,568고지,566.0
36.084015,129.41063,등금산,39.8
36.06701,128.75847,화남리산,317.0
36.06585,128.5041,유학산,836.0
36.08026,129.3527,도음산,61.0
36.064987,129.01996,관방,372.0
36.08377,128.65245,매봉산,391.6
36.07181,129.1711,마봉산,209.3
36.06561,129.00575,토곡,386.0
36.082703,128.89114,태봉,212.3
36.10501,129.40974,모산,59.4
36.100506,129.00038,낙대봉,523.0
36.11087,129.40681,불등산,32.8
36.096233,129.01797,꼬깔산,736.3
36.107235,129.35287,망천산,41.6
36.0957,128.86897,능산,298.9
36.101257,129.41592,봉화산,77.9
36.098473,129.39551,천마산,88.3
36.09699,128.5664,374고지,374.0
36.112457,128.91895,자심봉,234.0
36.10581,129.3376,봉안산,55.0
36.110912,128.9727,시루봉,654.2
36.089375,129.36485,삿갓봉,93.1
36.117184,129.3811,서원산,116.1
36.1468,129.09831,봉화봉,637.7
36.14392,129.0594,일광봉,751.0
36.1434,128.89157,질매봉,748.0
36.143536,128.6051,자봉산,174.0
36.14321,128.59207,음지금산,102.0
36.1413,128.565,삼각점,400.0
36.14,129.1389,태화산,660.0
36.140995,129.07523,진늪산,505.8
36.13843,128.89795,봉림산,698.1
36.13734,128.7632,옥녀봉,562.1
36.134693,129.39159,곤륜산,176.9
36.133434,128.9078,방가산,694.1
36.13043,128.78395,동산번지,338.0
36.1263,129.0632,삼각점,520.0
36.12541,129.3928,방목산,138.7
36.12302,129.37941,낙수봉,92.6
36.12337,128.7859,병풍암,186.0
36.12036,129.38863,남산,85.8
36.12062,129.01202,기룡산,965.5
36.120922,128.78111,절뒷산,369.8
36.17295,129.33757,고지산,85.2
36.159286,129.14807,침곡산,725.8
36.169228,128.84523,아미산,402.4
36.172626,129.35344,용산,203.6
36.16204,129.37834,만팅골산,113.4
36.14919,129.05402,수석봉,822.0
36.16953,129.3238,양창골산,103.5
36.16618,129.39383,묵은봉,126.4
36.158276,129.37415,미끌산,40.7
36.15484,128.95369,부약산,791.0
36.163795,128.85925,무시봉,667.4
36.1648,129.31174,매봉산,193.8
36.15593,129.04446,숫돌봉,812.7
36.158947,128.6182,박태산,451.6
36.16507,128.67947,승목산,253.0
36.15206,129.39174,오봉산,177.8
36.15929,129.14807,침곡산,726.0
36.16602,129.38586,금단봉,146.0
36.1649,128.55247,내리봉,267.0
36.164543,129.05762,애미산,605.6
36.150333,129.00806,갈미봉,786.5
36.1601,129.0206,보현산,838.9
36.168304,129.3293,하방뒤산,85.5
36.20029,129.00089,월매남봉,886.0
36.186295,129.35246,땅골산,126.5
36.18255,128.87425,지내지봉,556.0
36.2025,128.5148,물부리산,354.0
36.19999,128.85495,선아봉,728.0
36.18959,128.61789,둔태산,251.0
36.18495,128.71904,에뚜산,279.0
36.2011,128.63977,국통산,338.8
36.18158,129.30641,고주산,244.0
36.189396,129.36478,용산,190.1
36.186287,128.58368,성재산,343.0
36.189156,128.59799,향기산,279.8
36.201134,128.93246,대정산,714.9
36.19481,128.79053,중봉,859.5
36.185207,128.90765,방각산,605.3
36.19284,128.79716,뱀산,837.7
36.17948,129.32072,상대산,102.9
36.227005,128.53488,물부리산,353.1
36.22485,128.78424,북두산,553.6
36.22301,128.66035,민둥산,262.4
36.22251,128.79274,복두산,511.8
36.222507,128.79274,복두산,511.8
36.221016,129.32704,까끔산,154.5
36.221474,128.7733,북두산,598.0
36.22147,128.7733,북두산,598.0
36.22173,128.57521,간주막산,279.0
36.221443,128.53564,진등산,333.0
36.22004,128.65573,왕산(왕제산),319.9
36.21886,128.61621,음지산,325.1
36.216267,128.63173,손두산,330.1
36.21532,128.99248,월매봉,882.0
36.2132,128.89598,어봉산,634.2
36.21146,129.3698,월현산,107.4
36.21193,128.57022,앞산,183.1
36.21037,128.62303,뒷산,215.3
36.2088,128.63661,편달산,324.1
36.205242,128.53886,매바위산,302.6
36.236744,128.53548,갓재실산,215.4
36.23809,128.6183,버리산,224.9
36.233948,129.37447,봉화산,90.7
36.23599,128.87907,산두봉 HL/GB-160,719.0
36.22834,128.73347,상가산,152.0
36.240486,129.14656,구암산,807.7
36.23477,129.28578,호학봉,552.0
36.2346,129.31618,건지봉,345.1
36.2624,129.3664,삼각점,220.0
36.27309,129.37094,남산,203.0
36.2518,129.2331,삼각점,600.0
36.258648,128.80022,늑두산 HL/GB-160,567.9
36.26122,128.84695,구무산 HL/GB-186,674.7
36.26559,129.36243,말머리산,136.4
36.25061,128.58325,성대산,351.6
36.253597,128.97763,천마산,569.0
36.25898,128.58246,뒷집넘어산,328.0
36.2623,129.05246,자초산,764.7
36.262012,128.59465,선방산,436.9
36.26596,128.72652,노적봉,378.0
36.29839,128.59074,갈뫼봉,230.0
36.29764,128.88354,솟봉,585.0
36.29513,129.36852,자부랑산,113.0
36.291336,129.09488,황학산,660.0
36.2839,129.2235,삼각점,785.0
36.282215,128.78261,숲실산,308.0
36.48719,129.43045,무등산,97.4
36.4909,129.0746,삼각점,667.0
36.489017,129.22432,여정봉,631.0
36.4957,129.39705,고래산,291.3
36.49824,129.44434,말미산,116.0
36.300476,128.78143,도칙산,257.8
36.30843,129.22519,해월봉,607.0
36.31957,129.17242,평두산,625.0
36.31194,128.64091,앞산,236.6
36.32778,129.28957,곰바위봉,483.0
36.30306,128.60628,삼보산,180.0
36.321022,128.66013,안산,154.0
36.330994,128.53001,삼봉산,234.0
36.315796,129.36096,봉황산,271.7
36.34496,129.26578,팔각산 3봉,516.0
36.332756,129.22107,무장산,642.5
36.33069,129.36407,외봉,44.0
36.34595,129.26329,팔각산 5봉,560.0
36.35513,129.37611,나부산,98.5
36.348988,129.37569,천제봉,77.0
36.34652,128.70667,동산,185.9
36.33596,128.73743,베틀바위,204.0
36.3446,128.8763,삼각점,820.0
36.33044,128.79343,절봉,371.0
36.34548,129.26382,팔각산 4봉,541.0
36.33532,129.33641,정족산,306.0
36.34366,129.26636,팔각산 2봉,454.0
36.35563,128.85635,탑들봉,555.0
36.35454,129.30304,매티곡봉,307.0
36.341618,128.69002,구봉산,173.0
36.33998,129.26729,팔각산1봉,353.0
36.353863,128.63475,행봉산,288.6
36.3525,129.31744,홍기봉,395.0
36.335957,129.33353,솥발산,311.3
36.35705,128.70587,답산,188.0
36.36846,128.85417,형제봉(제봉),650.0
36.362446,128.65297,산치봉,284.8
36.36796,129.34775,두리봉,115.9
36.36563,129.28165,주방산,327.0
36.35607,129.29666,매현봉,283.0
36.37524,128.65767,수문산,281.0
36.36741,128.52847,화장산,368.0
36.36101,128.93535,천지갑산,461.0
36.36614,128.856,형제봉(형봉),660.0
36.37777,128.65157,두리봉산,249.9
36.36919,129.29599,달막봉,302.0
36.35729,129.3767,나비산,85.0
36.37426,129.39362,봉화산,141.0
36.367546,128.82535,추기봉,465.1
36.361095,129.20985,별바위,746.0
36.39417,129.31859,진등재봉,319.0
36.39319,128.9441,지령산,588.7
36.393646,128.74458,대산지산,334.6
36.392597,128.66774,성황당산,276.8
36.39155,128.67969,계란산,219.0
36.39011,129.23582,신선봉,561.4
36.38912,129.39134,민봉,182.4
36.38917,129.31744,윗산,271.0
36.38904,128.51811,작은해망산,371.0
36.3882,128.67943,재랫봉,216.0
36.38625,129.28233,못산,313.0
36.386093,129.26625,삼각점,460.0
36.386204,128.89995,임봉산,682.0
36.38677,128.82195,수봉실산,400.4
36.38572,129.23753,연꽃봉,514.0
36.38527,129.05551,보광산,435.1
36.38555,128.73721,청애산,393.0
36.38461,129.3731,들온산,49.2
36.38232,128.65327,신제봉,315.0
36.3806,129.29767,매일봉,218.0
36.37967,129.30879,봉오산,223.0
36.397434,128.65317,안들산,270.4
36.40413,129.34752,상직봉,185.0
36.4018,128.74162,큰등산,336.0
36.4,129.16246,시루봉,352.4
36.40449,128.74214,큰등산 북봉,383.0
36.403145,128.58218,매봉산,388.7
36.409874,129.14682,월미기,579.0
36.40208,129.3834,숭덕봉,207.0
36.40778,129.20787,왕거암,908.0
36.41398,129.31947,삿갓봉,321.4
36.39826,129.16008,급수대주상절리,416.2
36.40435,129.18896,산지당,840.0
36.39684,129.27934,바구미산,392.0
36.40839,129.38458,고불봉,233.0
36.39507,128.70203,신기송산,209.0
36.39786,128.67094,큰간말랭이산,279.0
36.40445,128.51843,생태산,433.0
36.39631,128.93996,문살바위,469.3
36.40248,128.97948,아홉살이봉,665.0
36.40111,129.41162,하저봉,138.0
36.40759,128.72841,건마산 HL/GB-367,396.0
36.39725,129.39255,해맞이봉,195.7
36.39623,129.1619,관음봉,546.0
36.408,129.31718,배신봉,353.0
36.395733,128.69461,앞산,203.7
36.43362,128.75806,매봉산,318.9
36.41615,128.66747,달봉산제2봉,290.0
36.41513,128.65813,달봉산제4봉,301.0
36.42466,129.37384,무지산,86.9
36.41708,128.6562,달봉산제6봉,295.0
36.41672,128.73692,건마산,395.0
36.428177,129.41226,달봉산,175.0
36.41592,128.66197,달봉산제3봉,310.0
36.4158,128.51663,시루바위봉,422.0
36.4264,128.5317,삼각점,440.0
36.4186,129.3503,무릉산,225.0
36.4241,129.40233,천지산,173.9
36.41704,128.67004,달봉산제1봉,291.0
36.4156,128.65675,달봉산제5봉,302.0
36.41874,129.39378,덕곡봉,186.0
36.42492,128.59734,안평산,366.0
36.42334,128.66312,달봉산제9봉,230.0
36.42174,128.73294,성재,369.6
36.41963,128.65591,달봉산제7봉,301.0
36.414623,129.41411,삿갓봉,206.2
36.41886,128.6814,갓이마산,220.0
36.42586,129.34843,매봉산,212.4
36.41979,129.27278,복곡산,242.0
36.4277,129.0926,삼각점,500.0
36.44571,129.2984,눌곡봉,175.0
36.43849,129.11684,낫테산,361.9
36.442917,128.77621,생해봉,431.0
36.43915,129.26595,막고산,397.0
36.438583,129.2803,마고산,399.5
36.45515,129.13173,태행산,933.1
36.45401,128.96928,덕수벤데기,555.0
36.449047,129.36522,화림산,348.2
36.45256,128.75084,작은등운산,436.0
36.45324,129.16008,대돈산,900.1
36.48101,128.94197,말구리봉,414.0
36.480877,129.32397,국사봉,516.4
36.47937,128.60641,중들산,282.9
36.47841,128.86678,용달산,384.0
36.477364,129.42542,문등산,134.8
36.4776,129.1417,삼각점,662.0
36.4747,129.1006,삼각점,660.0
36.4696,128.7593,등운산,524.0
36.4689,129.2473,삼각점,659.0
36.46605,128.76604,장기매기,443.0
36.463898,129.09085,중태산,706.6
36.46225,128.95364,시루봉,457.8
36.4577,129.11595,댕이봉,603.0
36.224693,129.25241,매봉,833.2
35.535927,128.9329,감밭산,567.0
35.614548,128.95767,함화산,1107.0
36.02656,128.70065,보현봉,1096.0
35.91199,128.69551,감덕봉,411.0
36.17083,129.25558,제비등,369.0
36.142754,129.22577,두륙봉,622.0
35.885773,128.76575,까치산,131.0
36.026943,128.6796,태장봉,727.7
35.990673,128.75069,묘봉암,776.0
35.97514,128.73415,칼등,641.0
36.010727,128.68419,장군봉,1003.0
35.674545,128.50903,비들산 (비실산),928.0
35.790577,128.5093,원등,172.0
35.90134,128.53662,매봉,140.5
35.919586,128.53662,대백산,207.0
35.77589,128.61708,단암산,821.0
35.741943,128.62996,대곡산,746.0
35.802895,128.63959,선미봉,498.0
36.029972,128.70424,문수봉,937.0
35.86607,128.50648,사령봉,186.0
35.654053,128.50302,뒷매산,750.0
35.985043,128.73131,노적봉,890.7
35.87611,128.52058,손자봉,260.0
36.311047,128.64996,탸봉산,216.1
35.54316,129.29868,은월봉,119.8
36.071842,129.3867,철미산,54.4
36.04533,129.3612,수도산,77.3
35.83849,128.86172,선암산,417.1
35.521748,129.32706,신선산,79.7
35.691746,129.26265,작은묵장산,701.0
35.688118,128.51004,시목봉,620.0
36.438293,129.03087,별동산,275.9
36.069138,128.54494,소홀산,363.0
36.067104,128.56721,금곡봉,713.0
36.017338,128.68204,관음봉,1028.0
35.992485,128.743,시루봉(은해사뒤),856.0
36.009186,129.25247,설창산,163.3
35.66916,129.06921,불솜골봉,726.8
35.906067,129.26053,너불떼봉,136.8
36.21342,128.62518,모밀산,222.3
35.853497,129.05008,오봉산,632.8
