latitude,longitude,name,elevation
-18.46837,124.13202,Boundary Hills,159.0
-17.80245,124.31627,Done Hill,129.0
-17.85428,124.35988,Erskine Point,132.0
-18.22104,123.63246,Frome Rocks,121.0
-17.63378,124.3983,Janpam Hill,101.0
-18.4439,124.03976,Moulamen Hill,193.0
-18.01706,123.92634,Mount Anderson,306.0
-18.48381,124.19954,Mount Arthur,178.0
-18.08014,124.42895,Mount Hamer,105.0
-18.09827,124.46087,Mount Wynne,148.0
-17.95559,124.31767,Rice Hill,86.0
-17.58558,124.4228,The Sisters,99.0
