latitude,longitude,name,elevation
58.68102,-124.69315,Mount St. Paul,2120.0
58.790997,-124.76769,Stone Mountain,2104.0
58.67936,-125.45741,Mount Aristotle,2256.0
58.731827,-125.42098,Mount Plato,2374.0
58.72951,-125.4432,Mount Socrates,2293.0
58.51408,-125.435165,Miners Peak,2475.0
58.540966,-125.33422,Yedhe Mountain,2717.0
58.608715,-124.725006,Mount St. George,2244.0
59.083393,-125.327286,Ewe Mountain,2030.0
59.061825,-125.44028,Mount McLearn,1987.0
58.890488,-125.18034,Toad Mountain,1489.0
