latitude,longitude,name,elevation
29.620132,82.55838,Syānāṭh,5912.0
29.672081,83.00834,Danphe Shail,6103.0
29.682648,83.00797,巴穷哈姆,6529.0
29.766224,82.75002,卡却岗日,6859.0
29.719011,82.79851,章地,6623.0
29.859436,82.70573,绒来岗日,6647.0
29.928331,82.57101,Khāpṭāṅ,5965.0
