latitude,longitude,name,elevation
33.943462,-82.03873,Boles Mountain,194.0
34.083454,-82.36318,Parsons Mountain,249.0
34.025677,-82.33207,Laurel Hill,134.0
33.563747,-82.01345,Poverty Hill,130.0
33.67124,-82.10928,Carey Hill,120.0
33.618744,-82.218735,Burks Mountain,142.0
33.60569,-82.41263,Mount Carmel,156.0
33.965065,-81.98853,Faulkner Mountain,195.0
33.989937,-81.97908,Trisha Mountain,194.0
