latitude,longitude,name,elevation
68.58051,37.68153,Правобережная,265.0
68.611534,37.72065,Греховодная,193.0
68.64554,37.522,Воятка,210.0
68.5059,37.97548,Корабельный Пахк,271.0
68.54226,37.94175,Белая,209.0
