latitude,longitude,name,elevation
-30.921124,146.80112,Buckeroo Mountain,208.0
-30.57059,146.69775,Lord Carrington Hill,213.0
-30.73174,146.80013,Sunday Morning Hill,173.0
-31.004068,146.82445,Coolabah,241.0
-31.38837,146.71397,Triton,285.0
