latitude,longitude,name,elevation
50.752922,15.792164,Skalny Stół / Tabule,1284.0
50.75523,15.812911,Czoło / Čelo,1270.0
50.75388,15.509748,Lysá hora,1344.0
50.742153,15.689656,Stříbrné návrší,1434.0
50.769558,15.597584,Ptačí kámen,1310.0
50.609383,16.182081,Val,591.7
50.62682,16.178572,Buková hora,638.0
50.510418,16.143764,Malý Turov,560.3
50.510353,16.148571,Turov,603.0
50.727108,15.70586,Studničná hora,1555.0
50.72777,15.682756,Luční hora,1555.6
50.75251,15.529475,Kotel,1435.0
50.780445,15.545643,Łabski Szczyt / Violík,1472.0
50.652832,15.741844,Černá hora,1300.0
50.75447,15.538328,Harrachovy kameny,1421.0
50.780277,15.578333,Śmielec,1424.0
50.77688,15.591103,Czeskie Kamienie / Mužské kameny,1416.0
50.77681,15.601756,Śląskie Kamienie / Dívčí kameny,1413.5
50.75918,15.648631,Mały Szyszak / Malý Šišák,1439.4
50.693066,15.688543,Liščí hora,1363.0
50.72098,15.738944,Růžová hora,1393.1
50.65828,15.772201,Světlá,1244.5
50.66696,15.860151,Mravenečník,1006.0
50.681248,15.761198,Vlašský vrch,1037.0
50.738083,15.627466,Železný vrch,1321.0
50.742638,15.769642,Czarna Kopa / Svorová hora,1411.0
50.711933,15.667885,Zadní Planina,1423.0
50.701363,15.784357,Pěnkavčí vrch,1105.0
50.718468,15.804611,Kraví hora,1072.0
50.698887,15.81533,Dlouhý hřeben,1085.0
50.727577,15.570124,Mechovinec,1081.0
50.65822,15.572332,Přední Žalý,1018.0
50.656044,15.697091,Jelení vrch,1025.0
50.651264,15.702494,Špičák,1001.0
50.6723,15.734743,Slatinná stráň,1153.0
50.946053,15.732567,Srebrna,486.0
50.77955,16.210974,Chełmiec,851.0
50.838696,16.27655,Borowiec Mały,411.7
50.846546,16.27435,Zwierzyniec,412.7
50.840492,16.286196,Skiba,433.0
50.846375,16.300072,Wilk,408.5
50.83859,16.318764,Straconka,419.6
50.839638,16.339195,Paluch,395.1
50.524952,16.100044,Kryštofovy kameny,585.4
50.865707,16.286148,Sosnówka,402.2
50.685295,15.6700325,Kotel,944.0
50.70621,15.620927,Přední Planina,1197.5
50.718002,15.649617,Stoh,1319.0
50.707527,15.712051,Lesní hora,1129.0
50.677013,15.608685,Herlíkovický Žalý,958.3
50.665188,15.568482,Zadní Žalý,1036.0
50.684452,15.751029,Javor,1002.0
50.70217,15.66053,Světlý vrch,1316.0
50.68028,16.485556,Wielka Sowa,1015.0
50.833828,15.644062,Chojnik,612.0
50.682507,16.46528,Mała Sowa,971.9
50.7133,15.514832,Preislerův kopec,1035.0
50.723885,15.506945,Vlčí hřeben,1119.0
50.73265,15.509677,Vlčí hřeben,1140.2
50.6793,15.565638,Jánský vrch,924.9
50.696552,15.563719,Šeřín,1035.0
50.708805,15.565767,Černá skála,1042.0
50.69143,15.599579,Struhadlo,1007.0
50.721024,15.535048,Vídeňská skála,968.0
50.791477,15.514065,Szrenica,1361.3
50.764168,15.628375,Ptasi Kamień / Čihadlo,1216.0
50.72039,15.780842,Jelení hora,1173.0
50.649128,15.863351,Dvorský les,1035.0
50.725323,15.830149,Łysocina / Lysečinská hora,1190.0
50.7533,15.604392,Pevnost,1014.0
50.755833,15.675555,Smogornia / Stříbrný hřbet,1490.0
50.72725,15.506481,Vlčí hřeben,1124.0
50.750305,15.554212,Zlaté návrší,1411.0
50.74166,15.581909,Medvědín,1234.8
50.662655,16.455517,Sokół,862.3
50.55258,16.052101,Žaltman,739.0
50.824596,15.651069,Rudzianki,591.0
50.838024,15.935441,Wołek,877.6
50.555077,15.581593,Červený kopec,484.0
50.56231,15.55705,Stráž,630.4
50.687473,16.424328,Moszna,771.4
50.69542,16.410234,Włodarz,811.0
50.707764,16.328865,Jedliniec,735.1
51.055996,15.763269,Ostrzyca Proboszczowicka,501.0
51.03772,16.028725,Czartowska Skała,462.7
50.737026,16.30628,Mały Wołowiec,718.0
50.997337,16.12918,Radogost,395.0
51.05639,16.075277,Górzec,442.0
50.80848,15.900058,Skalnik,945.0
50.5025,16.412222,Farna Góra,397.2
50.505833,16.488056,Ciernina,463.0
50.540413,16.446182,Nowa Kopa,548.0
50.520832,16.465555,Ścinawka,536.0
50.50639,16.4775,Mała Kopka,435.0
50.53081,16.437561,Kamionka,497.0
50.545,16.491945,Chłopska Góra,463.3
50.514168,16.446945,Ptak,453.0
50.536945,16.408611,Przepiórka,490.6
50.511307,16.392658,Kowalik,453.5
50.656666,16.492777,Grabina,945.5
50.677273,16.419641,Osówka,715.7
51.45889,16.223612,Grzybno,203.0
51.471092,16.246014,Kropelka,180.0
51.4825,16.15,Ostrzyca,223.2
50.869785,15.869877,Sokolik,643.6
50.872646,15.568084,Ciemniak,705.0
50.870277,15.509444,Gaik,781.0
50.874535,15.517114,Kopań,757.0
50.87159,15.53939,Kozia Szyja,747.9
50.895557,15.553611,Popiel,532.0
50.88639,15.515555,Smolnik,623.9
50.890556,15.5419445,Trzciniak,559.0
50.889168,15.556111,Wiśniowa,550.0
50.88778,15.573334,Zaroślak,552.0
50.90239,15.507032,Świerczek,595.0
51.453674,16.296661,Kargul,182.0
51.450714,16.319105,Pawlak,171.0
51.48017,16.249165,Wenus,175.0
51.35427,16.110678,Świbnik,178.0
51.39757,16.097122,Góra Wędrowca,203.0
51.321472,16.145021,Piotruś,172.0
51.394352,16.103518,Dębiak,192.6
51.46722,16.251112,Dłużec,182.0
51.47226,16.26277,Sośnisko,180.8
51.450974,16.266703,Młyńska,170.0
51.46722,16.283333,Dłusko,183.0
51.467083,16.290535,Sylwunia,190.0
51.44569,16.281698,Łysica,164.0
51.468334,16.184723,Czartowiec,202.0
51.47707,16.12527,Zwierzyniec,222.0
51.473583,16.345232,Łysa Góra,131.6
51.414722,16.108889,Sienna,185.8
51.28611,16.301111,Brodowa Góra,126.6
51.35889,16.39611,Skowrończe,124.4
51.32068,16.302557,Łysoń,145.5
51.360554,16.348612,Machaczki,129.0
51.354145,16.343534,Góra Popiełuszki,126.0
51.313217,16.217915,Sosenka,153.0
51.3075,16.200556,Żwirowiec,155.0
51.398838,16.35681,Piaseczna,106.0
51.327778,16.103333,Głogowiec,166.1
51.338734,16.293936,Wzgórze Miłości,133.0
51.300556,16.313055,Stróża,141.3
51.34,16.386944,Młynica,125.8
51.340557,16.040277,Poręby,180.0
51.350414,16.07088,Wrzosy,181.2
51.35392,16.207476,Żytnik,156.5
51.292778,16.285,Łysa Góra,133.0
51.312805,16.26443,Łysina,147.0
50.84667,15.513889,Czarna Góra,964.4
50.62435,16.126453,Křížový vrch,667.0
50.740036,16.020088,Anielska Góra,651.2
50.75611,16.037222,Długosz,589.6
50.736565,15.994549,Skowroniec,581.0
50.739723,15.980556,Sołtys,611.6
50.753334,16.411388,Choina,450.5
50.62559,16.433681,Włodzicka Góra,755.0
50.75081,15.942555,Świerczyna,719.8
50.736034,15.739607,Śnieżka / Sněžka,1603.3
50.781578,15.769946,Księża Góra,610.0
51.069443,15.554722,Lipień,393.0
50.64263,15.569894,Sovinec,765.0
50.761665,15.658333,Tępy Szczyt,1387.5
50.585686,15.590898,Fejfarův vrch,494.0
50.602757,15.528273,Branský kopec,507.0
51.073612,15.551945,Wieżysko,381.9
51.06222,15.568611,Wywóz,383.0
51.081944,15.542778,Mogiła,344.3
51.090557,15.517222,Pleban,340.8
51.100277,15.620556,Leśnica,270.0
51.099148,15.600389,Bukowica,271.0
51.091667,15.618611,Złoty Widok,264.2
51.094444,15.631667,Winna Góra,270.0
51.105278,15.587778,Szpitalna,266.0
51.10304,15.589405,Panieńskie Skały,260.0
50.774445,15.6625,Ptasiak,1046.0
50.777664,15.647185,Sucha Góra,1100.7
50.790104,15.677883,Susz,708.0
50.77028,15.7080555,Suszyca,1061.5
50.764412,15.716052,Turek,1003.5
50.791725,15.705693,Wilczek,707.0
50.780693,15.708651,Czarna Góra,905.0
50.80564,15.641575,Rudawka,625.0
50.789715,15.7257805,Czoło,873.8
50.771957,15.63115,Garb,1087.0
50.8075,15.637777,Niedźwiednik,626.0
50.729065,15.8448105,Borowa Góra,1056.0
50.75602,15.773539,Buława,890.0
50.74084,15.841477,Dzwonkówka,1004.4
50.89888,15.94765,Ołowiana,657.9
50.901794,15.927709,Różanka,625.0
50.892227,15.968356,Turzec,683.5
50.90441,15.953376,Czerniak,557.0
50.91062,15.948103,Góra Bandurskiego,534.1
50.913628,15.930384,Gaik,560.0
50.900074,15.983164,Góra Czaszek,534.8
50.908092,15.989427,Ostnik,545.0
50.91667,15.987462,Lubrza,665.6
50.921272,15.980336,Grodzik,615.4
50.923595,16.004618,Niedźwiedzie Skały,657.0
50.932037,15.9643545,Osełka,580.8
50.940212,15.9611025,Owczarek,494.2
50.94639,15.975278,Żeleźniak,663.5
50.948177,15.993275,Bukowinka,621.0
50.953278,16.001959,Jodłowa,490.0
50.89266,16.022173,Popiel,631.5
50.897087,16.024387,Długotka,669.59
50.90453,16.01773,Wilcza Góra,665.0
50.91995,16.021221,Lisianki,585.2
50.90422,16.19791,Gółka,441.0
50.857895,16.10716,Łysica,665.8
50.87588,16.123281,Bukowa,535.0
50.87345,16.10642,Młynarka,589.0
50.87296,16.085794,Truskolas,612.6
50.88684,16.124771,Długa Góra,448.2
50.888863,16.118181,Palica,452.0
50.89396,16.105518,Dąbrówka,437.0
50.89738,16.126652,Kaczorek,426.0
50.91491,16.11998,Wolbromka,355.0
50.911125,16.107243,Miejska Góra,385.0
50.920143,16.200218,Twardota,381.0
50.91961,16.09519,Góra Bekera,372.0
50.92035,16.083212,Chmieliniec,402.4
50.92489,16.109201,Wzgórze Ryszarda,363.1
50.927036,16.113087,Góra Ryszarda,359.4
50.939373,16.073254,Zapiecek,457.9
50.950104,16.0865,Skowronia,454.0
50.9531,16.117453,Swarna,389.4
50.944942,16.129292,Łomna,391.2
50.944477,16.140009,Świerczek,367.0
50.947567,16.154158,Okrąglak,334.0
50.89168,16.05448,Kamienna,570.0
50.913525,16.046116,Wilkoń,552.0
50.92687,16.017643,Skiba,600.0
50.986973,16.039383,Nowowiejska Góra,411.7
50.98071,16.055258,Lipska Góra,385.2
50.978073,16.066307,Żarnowiec,375.0
50.959843,16.029852,Góra Grudna,423.1
50.95892,16.037672,Góra Bukowa,429.1
50.95418,16.046967,Wysoka,465.0
50.95234,16.040194,Wapniki,508.9
50.943134,16.009682,Głogowiec,534.9
50.94556,16.022682,Czerwone Wzgórze,480.3
50.945366,16.028872,Księża Góra,462.0
50.95544,16.01793,Owcza,450.5
50.93976,16.060781,Wrzosowiska,438.3
50.936035,16.026358,Rakarnia,548.1
50.696163,16.197533,Ostrosz,799.1
51.10025,15.602742,Wzgórze Kombatantów,244.0
50.889797,15.9469185,Brożyna,567.0
50.884575,15.971951,Ciechanówka,579.8
50.971943,15.650833,Czyżyk,428.0
50.95264,15.705297,Wapienna,507.4
50.964115,15.703473,Skowron,472.4
50.954475,15.740679,Stromiec,550.7
50.94162,15.75164,Szybowisko,541.3
50.981968,15.75633,Góra Ptasia,625.7
50.977707,15.763996,Lastek,638.0
50.986744,15.742327,Czernicka Góra,517.4
50.961082,15.796026,Łysa Góra,711.0
50.959167,15.82,Widok,616.8
50.94519,15.811124,Ulina,561.7
50.94597,15.833687,Kobyła,626.2
50.94749,15.851471,Ogier (Góra pod Księżycem),645.5
50.94619,15.869984,Maślak,715.2
50.940903,15.884438,Baraniec,720.3
50.917324,15.909299,Dudziarz,651.7
50.939346,15.910302,Połom,660.0
50.8449,15.905357,Lwia Góra,718.0
50.939075,15.895604,Chróstnik,622.0
50.943928,15.902965,Meszna,590.3
50.939827,15.931825,Młyniec,562.9
50.959015,15.937491,Polanka,546.6
50.953957,15.945567,Chmielarz,585.0
50.95676,15.976742,Marciniec,623.6
50.891506,16.041035,Poręba,675.0
50.93684,15.93759,Cisowa,596.4
50.936104,15.942843,Wroniec,568.8
50.980736,15.817942,Okole,722.0
50.987476,15.801682,Leśniak,677.3
51.01443,15.713901,Tarczynka,421.8
51.005222,15.760012,Skała,485.0
50.973022,15.854164,Gackowa,549.1
50.95864,15.842848,Krzyżowa,567.0
50.966076,15.879116,Radostka,531.9
50.96259,15.905537,Młynica,456.6
51.02541,15.6706,Dudek,351.0
51.028236,15.690307,Grodzina,371.3
51.03604,15.723951,Księża Góra,445.0
51.036613,15.7437725,Sołtysia Czuba,460.0
51.024437,15.757316,Mieszek,465.1
51.032845,15.793026,Rawka,427.0
51.0289,15.835106,Skąpa,395.7
51.02743,15.822299,Barania Czuba,366.2
51.015553,15.833656,Bucze Małe,474.3
51.018227,15.821289,Bucze Wielkie,472.6
51.00503,15.86155,Piaskowa Góra,320.0
50.998734,15.838834,Chmieleń,424.0
50.986565,15.889541,Lisia Górka,345.5
51.042744,15.847855,Rakarz,381.3
51.048004,15.863163,Wołek,380.4
51.054398,15.851068,Wygorzel,334.2
51.048992,15.845798,Owczarnia,358.4
51.06909,15.829425,Buczynka,295.0
51.052402,15.798234,Niedziałek,326.3
51.064445,15.7508335,Capek,350.0
51.076668,15.732439,Chmielec,320.2
51.07503,15.714769,Gil,330.0
51.067463,15.708758,Kokotek,349.0
51.094196,15.67218,Skiba,272.0
51.104168,15.644167,Gładka,275.0
51.110046,15.621717,Skałka,299.6
51.1225,15.603333,Susznia,292.8
51.13889,15.5875,Brunowskie Wzgórza,228.2
51.136665,15.605833,Chmielewska Kopa,232.5
51.12501,15.620709,Jaglarz,300.0
51.105556,15.705556,Góra Czerwiec,318.7
51.049164,15.629353,Kątnica,378.0
51.055557,15.639167,Włócznik,386.5
51.058056,15.649445,Łopata,366.2
50.825832,15.533611,Skalnica,679.8
50.828888,15.550834,Szklarz,592.8
51.101906,15.735889,Świątek,330.9
51.111275,15.745262,Skrzynka,288.0
51.118507,15.744985,Wójcik Wielki,329.2
51.121525,15.74866,Wójcik Mały,310.0
51.111404,15.772743,Obora,295.1
51.090553,15.770901,Skowronek,275.0
51.085526,15.768446,Jedlnia,269.6
51.104958,15.829269,Kamienna Góra,330.0
51.094078,15.865547,Jeziorna,285.0
51.132248,15.880755,Gruchacz,306.1
51.129276,15.846418,Pustak,285.3
51.12321,15.8418865,Leszczyna,265.0
51.143612,15.778611,Cienista,265.0
51.14111,15.754723,Kopka,343.4
51.151943,15.708333,Sośnica,335.5
51.15139,15.6877775,Karczmisko,303.1
51.155834,15.668889,Leśna,328.1
51.229496,15.533904,Wydmuch,221.8
51.238716,15.517265,Szypuła,215.8
51.24375,15.533382,Borowik,207.8
51.17934,15.684841,Trawnik,262.0
51.167778,15.814167,Mnisza Górka,310.4
51.176388,15.800555,Niwy,250.2
51.18139,15.778611,Czyżyca,255.0
50.967102,15.925203,Zadora,434.8
50.977623,15.935659,Lipna,435.0
50.98264,15.919285,Garb,403.8
50.989624,15.990247,Piaseczna,408.5
50.982876,16.077656,Biesówka,367.6
50.986618,16.125277,Grabowa,391.2
50.991665,16.119957,Karczmarz,392.8
50.990276,16.139723,Brzeźna,356.9
50.99292,16.14524,Młynna,303.0
51.005642,15.945032,Mochowskie Wzgórze,365.0
51.01783,15.955032,Dworska Góra,397.2
51.026215,15.972143,Oścień,409.4
51.024357,15.931029,Pasternik,351.3
51.039024,15.931837,Pustelnik,438.5
51.044727,15.937139,Jastrzębna,468.4
51.045197,15.924893,Międzydroże,462.0
51.05734,15.867976,Dłużyca,325.0
51.090908,15.878953,Czerwony Kamień,325.0
51.056946,15.976944,Ziębnik,386.4
51.075386,15.959166,Średnia Góra,426.8
51.07418,15.929663,Diablak,390.0
51.104687,15.9122095,Wilkołak,360.0
51.111645,15.933719,Kostrza,312.8
51.129166,15.934444,Górka Mieszczańska,230.0
51.109444,15.961111,Dębina,312.0
51.11146,15.978674,Kopczyna,257.8
51.084164,15.960766,Prusicka Góra,401.7
51.090435,16.023758,Sichowskie Wzgórza,380.0
51.09113,16.043009,Krzyżowa Góra,257.9
51.072674,16.001074,Rosocha,464.2
51.075554,16.014444,Dębna,410.0
51.065556,16.029722,Chełmek,442.0
51.053055,16.07,Dębnica,466.2
51.052113,16.092953,Zamczysko,305.3
51.031822,16.039083,Owczarek,447.6
51.03158,16.080492,Młynik,400.1
51.031162,16.107466,Garbiec,347.9
51.015766,16.058521,Obłoga,441.8
51.009476,16.084873,Tarnawa,387.0
51.021503,16.125185,Rataj,350.0
51.013344,16.133041,Bazaltowa Góra,367.1
51.108334,15.62466,Piaszczysta,295.0
51.083332,15.633333,Stachówka,236.3
51.09861,15.519167,Ruda Góra,255.0
50.606983,15.582049,Principálek,532.0
50.61136,15.580826,Malý Principálek,522.0
50.618237,15.5707655,Malý Kozinec,571.0
50.63353,15.557572,Pilousek,707.0
50.627254,15.547547,Zuzanek,617.0
50.610806,15.558491,Na Vrších,537.0
51.119167,16.434723,Jeżyca,155.0
51.105278,16.4,Lisowa,158.0
51.09009,16.402382,Garncarz,158.0
51.075,16.39889,Kalica,205.2
51.065556,16.374722,Jenkówek,193.8
51.08684,16.365747,Niwnica,184.8
51.138992,16.382717,Krzewie,152.8
51.143055,16.37,Okrąglica,146.0
51.134796,16.363379,Jętna,156.0
51.105186,16.343077,Stożnik,166.5
51.083782,16.347025,Ostra,181.8
51.039722,16.282223,Mściwojowska Góra,213.9
51.070557,16.33,Kościelna,224.5
51.068054,16.31639,Marcinowicka Góra,219.1
51.076946,16.305,Skalica,199.1
51.091152,16.325039,Zamkowa Góra,183.5
51.09222,16.272778,Wzgórze Pogańskie,192.0
51.038334,16.27,Kierzna,209.2
51.010124,16.197523,Czernicka Góra,227.0
50.590694,15.583827,Mezy Klokočí,463.0
50.633953,15.546397,Skalka,687.0
50.58997,15.627169,Hůrka,494.0
50.614307,15.538233,Bohdanka,550.0
50.636856,15.586591,Kněžický vrch,709.0
50.616238,15.537027,Žlábek,556.0
51.085,16.125555,Żarecka Góra,205.0
51.0059,15.923704,Kraśnickie Wzgórze,343.0
51.01387,15.974213,Jedliniak,367.0
51.039917,15.984417,Kondratowskie Wzgórze,370.2
51.03733,16.078403,Kowalska Czuba,345.2
51.04211,16.091782,Zamkowa,330.8
51.02424,16.094452,Wysoka,382.0
51.026943,16.078056,Góra Diany,402.0
50.988796,16.062965,Storczykowa,370.8
50.994755,16.072523,Siedmicka Góra,360.2
50.99965,16.08041,Mężyk,385.0
51.00061,16.091772,Dębowa,374.5
50.988888,16.087223,Nad Groblą,350.2
50.97564,16.113546,Zagroda,358.2
50.977135,16.100983,Szubieniczna,319.4
50.979214,15.954171,Kapliczna,408.0
50.969345,15.968414,Szeroka,453.4
50.97661,15.971367,Popielnik,407.0
51.00261,15.9647,Dział,372.0
50.956886,15.964115,Rogacz,615.0
50.956734,15.955991,Dłużec,591.9
50.954018,16.09203,Młyniczna,395.2
50.954113,16.097977,Dębnik,365.8
51.042267,16.067318,Jeżyca,397.9
51.071217,16.015339,Łaskotka,402.0
50.599777,15.584829,Franzpaurak,453.0
50.687572,16.011635,Krucza Skała,685.0
50.80738,15.894061,Ostra Mała,945.0
50.74664,15.730315,Kopa,1377.4
50.724045,16.205654,Dzikowiec,836.1
51.2125,16.095,Sikornik,177.0
51.218334,16.030834,Smolna,161.3
51.14722,16.009445,Wysoka,210.6
51.22362,16.019243,Lisina,167.6
51.129166,15.893888,Twarda,262.0
51.1261,15.879658,Gajowe Góry,309.0
50.657528,15.9885645,Královecký Špičák,880.6
51.318333,16.245,Baraniec,140.0
51.15653,16.347826,Czubatka,163.0
51.171112,16.280277,Czyżyk,163.1
51.173332,16.312222,Długogóra,151.4
51.165302,16.40435,Gawronek,142.8
51.213055,16.243334,Glinki,135.0
51.160557,16.194445,Gniewomierskie Wzgórze,140.0
51.305,16.325277,Gogołowska Góra,138.0
51.16028,16.305,Grzmiąca,167.0
51.306667,16.259167,Jagodne,128.0
51.280277,16.172777,Kochlickie Wzgórze,135.0
51.130882,16.292582,Krzaczasta,179.1
51.33389,16.207222,Kępa,140.5
51.161457,16.33843,Osobitka,160.2
51.11972,16.342222,Ostróżka,183.0
51.16528,16.240833,Psarska Góra,164.0
51.288334,16.306389,Pusta,132.0
51.197224,16.376389,Pustak,128.8
51.18028,16.348612,Rogoźnickie,135.1
51.133335,16.3825,Rolne,149.6
51.1375,16.272223,Rudnik,182.2
51.127224,16.40639,Skałka,160.0
51.13639,16.256945,Sosnowica,172.0
51.140556,16.189444,Strażnik,152.0
51.31268,16.227053,Winnica,156.0
51.163612,16.225277,Wiśnica,164.0
51.182217,16.397057,Wrębiec,138.8
51.364723,16.428888,Zaborowska Góra,121.6
51.127777,16.2525,Zajęcznik,146.0
51.171883,16.263819,Zameczna,151.8
51.19361,16.334723,Zielonki,130.6
51.159443,16.253056,Świniarka,166.0
51.07718,16.03769,Diablik,368.0
51.074722,16.046389,Diabelska Góra,387.8
51.086624,16.10672,Kopista,260.0
51.10202,16.031633,Mszana,222.2
51.080063,16.089638,Męcinecka Góra,251.1
51.07028,16.031666,Jaworska Góra,403.0
51.09069,16.030142,Stawisko,268.1
51.094723,16.114166,Srebrnik,200.0
50.629303,15.847726,Bártův les,734.0
50.660538,15.849768,Kutná,1002.0
50.635056,16.418121,Świerkowa Kopa,608.5
50.601864,16.137896,Koňský hřbet,646.9
50.564007,16.27608,Supí hnízdo,704.0
50.812756,16.163662,Trójgarb,778.4
50.636555,16.379684,Leszczyniec,720.0
51.10278,15.576944,Okrąg,280.0
50.94386,15.872971,Folwarczna,722.8
50.94636,15.867691,Góra Okopowa,711.0
51.074768,16.064228,Bogaczowski Grzbiet,284.1
51.040554,15.718758,Buczyniec,405.0
51.133488,15.631389,Bukowiec,257.8
51.043053,15.728528,Czaple Gniazdo,375.3
51.05831,16.08854,Makowica,289.2
51.043705,15.891817,Czerwona,374.4
51.044506,15.853789,Czerwony Las,362.7
51.045753,15.85811,Czeska Góra,377.0
51.0768,15.776583,Czubek,295.0
51.07285,15.724785,Dębnik,325.0
51.112156,15.821934,Długota,262.0
51.124134,15.759827,Długotka,290.4
51.071777,15.745103,Dłuska Góra,325.0
51.09613,15.985999,Duży Młynik,303.0
51.0614,15.713555,Dzida,331.3
51.046814,15.710117,Dziób,342.4
51.041634,15.683594,Góra Folwarczna,347.0
51.051346,15.894614,Gaj,405.0
51.038548,15.767184,Gajowa,393.8
51.01902,16.112082,Golica,320.0
51.02555,15.699405,Gościradka,332.2
51.048332,15.928333,Gozdnica,455.0
51.128334,15.921667,Góra Mikołajska,220.0
51.12667,15.911849,Góra Zamkowa,220.0
51.030464,15.808238,Grodowa,385.7
51.03371,15.886914,Grodzkie Pole,329.0
51.02035,15.67469,Grzębska Góra,285.0
51.108376,15.779828,Kamiennik,285.3
51.119034,15.712004,Kapliczna Góra,325.0
50.98722,16.135555,Kłonicka Góra,391.1
50.952198,16.174213,Kocisko,319.4
51.06713,16.009693,Kościelna,421.3
51.05584,15.873565,Krowia,335.0
50.723675,16.429916,Babi Kamień,669.9
50.828617,16.168457,Jagodnik,619.1
50.624798,15.782511,Janská hora,729.0
51.047806,15.729399,Skalica,355.0
51.048504,15.722292,Zameczna,332.0
51.021694,15.83224,Sokołowa Góra,450.0
50.985752,16.12121,Bociania Góra,345.0
50.981388,16.14139,Kwietnicka Góra,321.0
51.070065,15.71613,Księżnik,325.0
51.053333,15.724167,Płócznik,345.3
51.03908,15.723582,Golica,430.0
51.030758,15.73499,Szklarka,427.8
51.026855,15.751458,Szeroka,462.0
50.80309,16.156897,Gawron,630.5
50.81395,16.18911,Modrzewiec,602.1
50.816563,16.202597,Węgielnik,620.9
50.764107,16.18068,Mniszek,703.6
50.694187,16.258589,Bukowiec,898.0
50.67637,16.263344,Czarnek,862.2
50.7309,16.265121,Gliniczek,653.0
50.713585,16.264568,Kierznik,648.0
50.679886,16.260334,Kostrzyna,905.5
50.731472,16.303701,Kozioł,774.1
50.689915,16.258892,Krzywucha,791.2
50.753635,16.305628,Niedźwiadki,629.2
50.693768,16.226307,Stożek Mały,749.6
50.702404,16.227415,Stożek Wielki,840.3
50.68071,16.265594,Suchawa,928.5
50.733944,16.306395,Wołowiec,776.3
50.67626,16.228872,Garbatka,796.1
50.67915,16.255653,Włostowa,903.5
50.709385,16.32453,Jałowiec,750.9
50.696964,16.319849,Jeleniec Mały,741.5
50.69055,16.311457,Jeleniec,901.8
50.72118,16.318241,Kątna,673.0
50.726345,16.31136,Sucha,775.5
50.71528,16.320278,Tarnica,615.2
50.708595,16.338251,Wawrzyniak,668.0
50.818615,16.127913,Pasternik,565.8
50.841106,15.72286,Góra Bukowa,458.2
50.81282,15.691196,Bukowna,540.0
50.853317,15.704577,Chmielnik,422.2
50.846546,15.700869,Czubek,380.0
50.835533,15.723644,Grodna,504.1
50.817482,15.693763,Lisiura,525.0
50.794823,15.697053,Młynarz,667.0
50.82075,15.690202,Podgórzynka,485.0
50.798264,15.708518,Skiba,748.5
50.804394,15.693072,Warzelnia,647.0
50.801968,15.69039,Wierzchnica,647.0
50.8163,15.649661,Kopa,665.1
50.817642,15.636188,Kopista,680.9
50.821102,15.665993,Kucznik,575.0
50.814438,15.6574545,Przesiecka Góra,610.0
50.825996,15.670744,Studnik,505.0
50.814777,15.632424,Szerzawa,706.2
50.770073,15.749498,Garb,705.0
50.801537,15.737578,Grabowiec,784.3
50.810085,15.73739,Głaśnica,615.0
50.781517,15.733162,Husycka Góra,767.0
50.7775,15.7491665,Karpatka,726.8
50.750305,15.877386,Koszuta,826.8
50.771584,15.755715,Pohulanka,715.0
50.67355,16.097944,Róg,715.0
50.774445,15.742222,Sosnowiec,726.6
50.692703,16.032154,Góra Sołtysia,640.0
50.787563,15.745057,Strzelec,750.6
50.75054,15.854277,Sulica,946.0
50.739857,15.932481,Chełmczyk,765.8
50.698032,16.034782,Świstak,675.0
50.702736,16.012985,Święta Góra,701.0
50.76228,16.20764,Boguszówka,650.0
50.775574,16.202852,Chełmiec Mały,776.0
50.771385,16.213694,Cichawa,751.0
50.64723,16.364565,Czarnoch,733.0
50.734528,16.185469,Dzikowiec Mały,695.5
50.78913,16.199194,Długa,655.5
50.686832,16.321798,Gomólnik Mały,809.0
50.684887,16.293669,Gomólnik,826.1
50.670784,16.258474,Garniec,763.0
50.668888,16.286667,Granicznik,801.0
50.67509,16.208609,Jatki,652.0
50.691833,16.284744,Klin,868.0
50.668285,16.262308,Kopica,802.8
50.664482,16.312088,Kościelec,801.6
50.651924,16.349754,Kopiniec,707.0
50.703197,16.20212,Lesista Mała,790.4
50.748314,16.15153,Mielnik,622.3
50.672623,16.223942,Miłosz,707.4
50.744717,16.172176,Nieroda,640.0
50.67001,16.342428,Ostoja,752.9
50.72433,16.17503,Pusta,632.0
50.6633,16.346478,Raróg,750.0
50.720013,16.201967,Sokółka,800.6
50.712868,16.199028,Stachonik,687.0
50.66619,16.320158,Słodna,790.0
50.688347,16.297495,Turzyna,894.9
50.680824,16.278088,Waligóra,933.9
50.684227,16.31035,Warzecha,793.8
50.719166,16.185688,Wysoka,808.3
50.648335,16.373056,Góra Źródlana,681.4
50.72382,16.49112,Biesek,562.0
50.74553,16.399603,Brożek,470.0
50.700672,16.449432,Brzeźnik,624.1
50.743332,16.46139,Cerekwica,567.0
50.829002,16.379871,Chłodnik,369.6
50.617702,16.406551,Czernina,727.0
50.77908,16.386755,Czarna,467.4
50.793438,16.296402,Czarnota,525.7
50.828934,16.35107,Czepiec,415.0
50.818016,16.242352,Czerwone Wzgórze,445.0
50.853634,16.250147,Czyżowa,411.0
50.761406,16.475773,Dębniak,455.0
50.630466,16.480507,Gruntowa,683.0
50.728867,16.49692,Gołogóra,532.0
50.76455,16.454706,Gołogóra,518.1
50.81171,16.395283,Gołuch,445.0
50.742554,16.479292,Graba,450.0
50.701447,16.49568,Góra Marii,695.2
50.6925,16.398333,Jagodziniec,702.0
50.73122,16.395678,Jarząbek,492.0
50.71029,16.444727,Góra Jasia,611.9
50.702564,16.393543,Jedlińska Kopa,744.0
50.84222,16.253334,Kamienisko,400.3
50.659527,16.407516,Kobylica,592.0
50.709034,16.49072,Kokot,755.6
50.74763,16.456985,Kurasz,547.9
50.75839,16.44434,Lipiec,511.0
50.812435,16.380585,Lipina,461.5
50.844814,16.325909,Lisek,398.6
50.7836,16.305979,Lisi Kamień,602.6
50.810936,16.392115,Mrowina,460.0
50.706253,16.483389,Ostrzew,715.5
50.7843,16.428255,Popek,450.0
50.75497,16.45121,Przygrodna,496.5
50.78706,16.302029,Ptasia Kopa,590.0
50.83928,16.35043,Radoń,422.4
50.827976,16.219711,Rudówka,461.0
50.814255,16.225897,Sas,515.4
50.688362,16.405323,Soboń,715.7
50.824467,16.38159,Sowina,365.0
50.79866,16.267477,Stróżek,517.0
50.707195,16.384016,Stróżowa Góra,648.5
50.61889,16.402033,Słoneczna Kopa,705.0
50.763264,16.461271,Wawrzyn,505.0
50.787285,16.441893,Widna Góra,425.5
50.822227,16.34955,Witosz,458.5
50.79392,16.270624,Wzgórze Gedymina,532.0
50.820805,16.235462,Wzgórze Ułańskie,465.6
50.72843,16.472263,Góra Zabójcza,581.6
50.774284,16.3938,Zamkowa Góra,480.0
50.7661,16.412434,Zawadka,470.0
50.66655,16.40661,Niedźwiedzi Zakątek,636.5
50.6708,16.436571,Wzgórze Henryka,757.0
50.77362,16.461697,Łysa Góra,432.0
50.65683,16.388678,Światowid,644.8
50.735302,16.489548,Grzybina,572.0
50.734768,16.49776,Góra Zamarła,507.0
50.546013,16.298695,Čertova tchyně,686.0
50.679714,16.293703,Kręsko,721.6
50.70321,16.348148,Sajdak,582.0
50.718052,16.358717,Kawiniec,479.0
50.738617,16.27491,Barbarka,629.9
50.739456,16.243979,Kamienna Góra,643.0
50.745975,16.245197,Brzezinka,595.3
50.876595,16.245785,Czartki,417.0
50.87526,16.262903,Gołaźnia,441.3
50.869316,16.278868,Grabnik,425.1
50.859833,16.24956,Kruczyce,422.0
50.74598,16.23138,Kuźnicka Góra,636.4
50.867016,16.234638,Popielec,396.4
50.884785,16.245451,Sosnowica,420.7
50.87328,16.253675,Wały,445.0
50.911232,16.225298,Wieżyca,394.6
50.902107,16.250149,Dębowa Góra,325.5
50.722866,16.304464,Borowa,853.3
50.97359,16.336428,Góra Krzyżowa,352.8
50.721992,15.9596405,Zadzierna,723.7
51.02889,15.644722,Barania Góra,360.0
51.0075,15.648611,Gniazdo,444.7
51.006344,15.679382,Szubieniczna,314.7
51.017223,15.663055,Zamkowa Góra,384.0
50.833447,16.09287,Borowiec,644.6
50.84139,16.058056,Krąglak,692.3
50.91907,15.824875,Rybień,435.6
50.91139,15.8075,Popielina,410.0
50.91683,15.809031,Skowron,388.7
50.895557,15.621388,Rozłóg,533.1
50.898335,15.635834,Sroczka,542.2
50.501373,15.731598,Bradlo,519.6
50.62928,16.371792,Bobří vrch,740.0
50.630737,16.36139,Růžek,635.0
50.631855,16.377605,Červená hora,747.0
50.59952,15.904005,Zámecký vrch,635.0
50.574593,16.124123,Rozhledna na vrchu Čáp,786.0
50.831886,15.532265,Sowiniec,675.0
50.71672,16.206503,Brzozówka,764.0
50.67527,16.138885,Chochoł,671.5
50.67591,16.120638,Drogosz,681.2
50.669838,16.148058,Dziób,693.1
50.687748,16.099926,Lisiec,600.0
50.69078,16.087173,Stożek,615.8
50.69194,16.207169,Stróżysko,654.3
50.790894,16.105963,Chojniak,585.0
50.761356,16.114122,Czuba,660.0
50.721012,16.143444,Garbacz,594.6
50.730442,16.113667,Góra Ziuty,630.6
50.733795,16.092001,Góra Świętej Anny,592.6
50.75645,16.126453,Jastrzębia Góra,637.7
50.756313,16.104181,Jastrzębnik,540.0
50.82376,16.198513,Krowiniec,493.0
50.804688,16.1154,Młynarka,539.3
50.792393,16.057238,Polska Górka,538.6
50.85657,15.890848,Jańska Góra,565.0
50.859165,15.914657,Sucha Góra,610.0
50.835167,15.910792,Świnia Góra,750.0
50.808735,15.824523,Brzeźnik,557.0
50.813175,15.842374,Góra Bukowa,552.0
50.820885,15.855585,Czartowiec,551.8
50.828808,15.867633,Gruszkowska Góra,535.2
50.828648,15.849659,Dłużyna,465.3
50.843613,15.8752775,Mężykowa,542.7
50.811783,15.836175,Góra Parkowa,550.0
50.835686,15.867454,Płonica,505.0
50.81354,15.854641,Średnica,622.0
50.78894,15.872503,Kowarska Czuba,731.3
50.773018,15.867465,Rudnik,853.4
50.832283,15.564913,Bogatynia,575.6
50.820316,15.542271,Gonciarek,632.7
50.824875,15.597943,Grzybowiec,750.4
50.836113,15.516944,Hutnicza Górka,771.1
50.768703,15.79568,Izbica,855.5
50.725903,15.88263,Kluka,773.5
50.836113,15.601666,Młynik,688.5
50.838646,15.591255,Piechowickie Wzgórze,604.4
50.734394,15.883453,Piwniczna,735.0
50.823055,15.581111,Płoszczań,746.8
50.820835,15.6038885,Sośnik,650.2
50.737804,15.88974,Stankowa,821.8
50.829166,15.616944,Trzmielak,646.6
50.767624,15.816403,Wołowa Góra,1040.8
50.829723,15.640555,Żar,685.0
51.145557,16.491112,Debrnik,179.0
50.629166,16.020555,Bogoria,645.0
50.625237,16.024244,Buczak,587.0
50.67422,16.017118,Golcowa Kopa,704.0
50.68593,16.027817,Płonina,626.0
50.657223,16.015278,Owcza Głowa,757.0
50.675858,16.054846,Rudna,528.1
50.673798,16.025644,Skowrończa,707.0
50.683937,16.017962,Starzec,716.0
50.622223,16.03389,Urwista,540.0
50.671085,16.019588,Widok,711.5
50.6028,16.022785,Węglarz,567.8
50.649067,16.060392,Złota Góra,577.0
50.6133,16.04122,Bijakowa,532.8
50.634018,16.038645,Wronie Wzgórze,551.3
50.73513,16.29243,Zamkowa Góra,616.4
50.71067,16.30865,Jałowiec Mały,741.3
50.715595,16.328714,Małosz,670.5
50.748962,16.363075,Klasztorzysko,631.0
50.836666,15.617778,Sobiesz,622.0
50.84334,16.399647,Górzno,305.0
50.610435,15.645569,Nad Hájem,502.0
50.559555,15.646285,Na Lánech,471.0
50.51412,16.314392,Božanovský Špičák,781.0
50.640118,15.61916,Jankův kopec,694.0
50.521988,16.324385,Koruna,772.0
50.500004,15.816775,Smrk,584.2
50.65269,15.63781,Vápenice,791.0
50.51695,16.108353,Švédský vrch,660.1
50.70733,15.839056,Albeřický vrch,948.0
50.652287,15.992699,Kozlík,789.0
50.661434,16.280828,Ruprechtický Špičák,880.0
50.635036,15.865915,Sklenařovický vrch,920.6
50.520203,15.598278,Čistecká hůra,587.0
50.951668,15.633611,Stanek,350.0
50.95889,15.619445,Trawnica,407.0
50.85278,15.824445,Bucznik,450.0
50.83781,15.800681,Mrowiec,507.0
50.8674,15.807916,Radlica,403.0
50.888947,15.771835,Zamkowa Góra,448.9
50.87441,15.770478,Ziębiniec,447.0
50.852486,15.736308,Witosza,483.0
50.565033,16.211689,Kočičí hrad,590.0
50.86577,15.5833025,Mały Ciemniak,583.0
50.869167,15.550278,Wrzosówka,695.0
50.777008,15.524287,Sokolnik / Sokolník,1384.0
50.822544,15.511341,Danek,755.0
50.84013,15.541529,Kępa,692.0
50.695026,15.887595,Kopczyk,664.3
50.697224,15.861389,Kopina,910.0
50.70501,15.870187,Owczarka,795.6
50.711075,15.885768,Pańska Góra,755.7
50.71864,15.853487,Średniak,849.1
50.905228,15.802189,Jeleniec,417.0
50.864002,15.704048,Sołtysia,440.0
50.591923,16.146301,Lokomotiva,641.0
50.594246,16.138388,Střmen,629.7
50.864155,15.86828,Krzyżna Góra,653.9
50.702354,16.191412,Lesista Wielka,858.0
50.59258,15.846681,Pekelský vrch,583.0
50.9004,15.803164,Koziniec,462.1
51.322132,15.5348215,Skalnik,195.0
51.33649,15.512009,Kamionki,195.0
51.318687,15.541003,Leśna Góra,182.0
50.643612,16.458889,Gontowa,723.0
51.267155,15.93447,Chmielnik,165.0
50.663506,16.193872,Gwiezdne Szańce,532.8
50.540783,16.073069,Kolčarka,691.0
50.581654,16.060308,Přední Hradiště,712.0
50.93989,16.092522,Czerwona Skała,412.7
50.958134,16.117384,Popielowa,360.3
50.964157,16.16102,Psia Góra,306.4
50.957638,16.043493,Kozia Skałka,420.0
50.9224,15.971834,Księża Góra,455.0
50.931225,15.997685,Stary Wapiennik,570.0
50.93208,15.973005,Czereśniak,510.0
51.140293,16.364807,Jętno,150.1
51.067223,16.347221,Księżyckie Górki,228.1
50.690395,16.04035,Trzy Kawałki,593.0
50.70927,16.021627,Lipowiec,615.0
50.722164,16.00904,Pustelnia,682.8
50.720467,16.013176,Kierz,662.0
50.71309,16.019463,Miejska Górka,640.0
50.723595,16.021873,Czarnogóra,621.4
50.777367,16.032152,Góra Parkowa,511.0
50.773994,16.031687,Kościelna,512.0
50.773865,16.023071,Szubianka,513.1
50.76787,16.025095,Sądowa Góra,538.1
50.76389,16.017221,Kurek,547.3
50.75273,16.002312,Młynarz,573.3
50.705994,16.028034,Drążona,602.0
50.519978,16.054873,Čertův kopec,419.8
51.305557,15.866389,Zgorzel,208.2
50.610645,16.11379,Milenci,105.0
50.69341,16.314926,Rogowiec,870.0
50.81259,15.957999,Wielka Kopa,870.7
50.678272,16.009352,Bógdał,747.0
50.673496,15.993558,Szeroka,842.0
50.59035,16.430607,Homole,649.0
50.8316,15.929013,Dzicza Góra,880.8
50.8194,15.951321,Stróżnik,807.5
50.639145,16.012053,Kobyla Góra,742.0
50.683598,15.998693,Sępia Góra,742.0
50.663403,16.000553,Głazica,795.0
50.65556,16.01112,Gołota,762.0
50.653717,16.003819,Wiązowa,770.0
50.651707,16.003494,Jaworowa,786.0
50.648003,16.006021,Końska Góra,812.7
50.64448,16.001415,Mrowiniec,817.0
50.65051,16.016096,Pośrednia,770.0
50.661247,16.021423,Zajęcznik,682.0
50.66982,16.026827,Długa Góra,650.0
50.683056,16.033333,Zasieka,625.0
50.77347,16.048792,Łysina,515.0
50.78225,16.054594,Bukowina,554.0
50.722122,16.119534,Kot,582.0
50.705425,16.132353,Czerep,582.0
50.665375,16.018238,Leszczówka,721.0
50.658634,16.305109,Javorový vrch,777.0
50.65754,16.343914,Bukový kopec / Bukowa Góra,734.0
50.658894,15.629823,Mlýnský vrch,702.0
50.656315,15.616787,Strážná hůra,825.0
51.029526,15.781327,Łuczywo,408.7
50.747257,16.432467,Skaliczna,491.1
50.679337,15.995053,Polska Góra,792.0
50.824146,15.975463,Mnichy,693.5
50.7075,16.174723,Sucha Góra,777.0
50.688717,16.217691,Głazowisko,672.7
50.673798,16.237362,Pośrednia,765.5
50.66939,16.249962,Kozina,796.0
50.778015,16.050978,Góra Sanatoryjna,544.2
50.784107,16.038254,Grodzisko,472.0
50.787582,16.045921,Równa Góra,490.0
50.751152,16.155746,Gawroniec,625.0
50.735153,16.216358,Cmentarna,583.6
50.707382,16.247034,Polna,670.0
50.68658,16.270882,Graniczna,845.5
50.68012,16.285215,Czubata,770.0
50.659958,16.292944,Široký vrch / Płoniec,841.0
50.607433,16.423351,Głowy,743.0
50.601543,16.428043,Wysoka,750.3
50.595524,16.43537,Kozubiec,668.2
50.580254,16.444088,Ptačí vrch,539.0
50.563057,16.442778,Sępówka,437.9
50.555405,16.44415,Sarbin,461.5
50.55881,16.407953,Otovický vrch,426.5
50.664494,16.251854,Březový kopec,742.7
50.66339,16.25771,Malý kopec,726.2
50.66287,16.265583,Světlina,797.0
50.65644,16.31719,Jelení vrch,752.0
50.64619,16.336992,Velbloudí vrch,576.0
51.438362,16.223927,Śnieżka,174.0
50.69172,16.412868,Jaworek,781.0
50.568268,15.98138,Kozí kameny,633.0
50.56833,16.001259,Hůra,622.0
50.560337,16.01709,Zaječí kopec,624.0
50.57391,16.191097,Hejda,625.8
50.576138,15.541748,Hůra,567.2
50.556633,15.937214,Kacíř,530.2
50.570866,15.792853,Kamenná,543.3
50.551723,16.250103,Kluček,614.0
50.579933,15.84767,Křížový vrch,511.6
50.630016,15.645985,Liščí kopec,547.0
50.502285,16.173246,Na kopci,483.0
50.68439,15.933167,Na písku,590.1
50.5198,15.940935,Pláně,532.8
50.544865,15.500042,Prklín,503.2
50.593845,16.222725,Prostřední vrch,572.7
50.586945,15.800064,Skalka,550.0
50.6275,15.722265,Smrčina,688.0
50.573807,15.73312,Soví vrch,445.0
50.688427,15.953885,Valy,599.6
50.592785,15.80765,Vlčí skála,588.0
50.636955,15.899754,Vrchy,710.0
50.562187,15.7664585,Čermenský vrch,493.0
50.572647,15.747807,Červená výšina,520.0
50.627934,15.666275,Špička,614.0
50.586884,15.5995455,Červený kopec,474.0
51.11645,15.56958,Wzgórze Dwóch Dębów,261.5
51.103954,15.583581,Szkolna Górka,265.0
50.776917,15.567787,Wielki Szyszak / Vysoké kolo,1510.0
50.667194,16.182514,Góra Kościelna,535.0
51.05111,15.592222,Kalwaria,320.8
51.110554,15.560555,Szubieniczna Góra,266.0
50.67874,15.519748,Aldrov,776.0
50.689568,15.5001335,Kobyla,896.0
50.728355,15.55817,Kozlí hřbet,1034.4
50.706738,15.541156,Velký Jeřábník,894.0
50.75795,15.697397,Zielarz,1236.0
51.163807,15.565215,Huzarski Skok,235.0
50.752506,15.547594,Vrbatovo návrší,1412.0
50.611275,15.988891,Janský vrch,697.0
51.45865,15.549396,Czerniaki,158.8
51.4484,15.798671,Diablik,177.6
51.493443,15.73066,Kocioł,172.4
51.34925,15.546801,Kozica,177.0
51.48811,15.763036,Lubień,177.0
51.472164,15.804086,Pasiecznik,182.0
51.466766,15.819461,Pasternik,184.4
51.47238,15.742271,Piaskowiec,160.1
51.478012,15.806421,Piaszczysta Góra,180.0
51.397766,15.527168,Trzebieńska Góra,175.0
51.35731,15.614127,Wrzosowa,182.0
51.2225,15.7294445,Królik,245.0
51.249645,15.538744,Kuropasy,197.0
51.18,15.735,Maślacz,281.6
51.18643,15.738417,Płucznik,275.3
51.193615,15.521134,Strażnica,215.0
51.413143,15.534629,Wzgórze Prezydenckie,165.0
51.432297,15.639188,Długie Wzgórze,160.0
51.41428,15.614448,Długa Góra,163.0
51.330254,15.729588,Sarniaki,203.0
51.413746,15.557388,Dłużnik,167.0
51.415676,15.566342,Góra Piaszczysta,176.4
51.3974,15.70639,Psia Góra,151.0
51.36679,15.703323,Sośnie,160.0
51.307587,15.5807705,Łącka Góra,182.0
51.48268,15.565469,Baszta,149.9
51.490776,15.697276,Biernatowska Góra,155.0
51.259987,15.596497,Bolesławiecka Góra,242.6
51.489197,15.76896,Grodzanowicka Góra,178.8
51.484074,15.757503,Kobiela,175.0
51.418396,15.64603,Gołębia,166.4
51.462093,15.563219,Długa Góra,160.0
51.18604,15.673112,Dłużka,253.0
51.284443,15.670875,Żwirniak,188.0
51.211388,15.724444,Wzgórek,248.0
51.4494,15.66849,Wieprzec,160.0
51.426334,15.758673,Polska Góra,153.6
51.220554,15.729722,Szarak,253.0
51.41865,15.682537,Martwica,165.0
51.024193,15.722727,Pasternik,357.8
50.772022,15.820238,Łysa Góra,930.0
50.787083,16.012655,Góra Jaskiniowa,511.7
50.611023,16.1298,Bučina,604.0
50.61706,16.098873,Starozámecký vrch,680.8
50.603397,16.159248,Borek,566.0
50.63024,16.12897,Kopeček,587.0
50.579933,16.139753,Supí skály,771.0
50.61122,16.0997,Svidnická věž,661.0
50.632477,16.115078,Šibeniční vrch,631.0
50.597103,16.096504,Liščí hora,711.0
50.823334,15.534722,Warzelnia,662.0
50.893333,15.530278,Gwarczyk,561.2
50.815,15.5413885,Łysa Góra,673.1
50.829723,15.509444,Szklana Górka,745.0
50.82091,15.530985,Łysa Góra,665.0
50.774826,15.7132635,Rówienka,960.0
51.001667,15.501111,Wzniesienia Radoniowskie,390.0
50.931667,15.528611,Księżyk,415.0
50.973057,15.525833,Krzywdy,491.8
51.038055,15.516389,Skalnik,485.0
51.019165,15.520833,Sępik,388.7
51.071945,15.514722,Kozi Grzbiet,380.0
51.070557,15.516944,Chmiel,385.0
50.803333,15.5975,Leśniak,807.0
50.832584,15.582576,Drewniak,672.0
50.801945,15.606944,Góra Jelenia,843.3
50.8175,15.574722,Łagodna,675.0
50.83,15.566667,Bogatka,586.0
50.85,15.577778,Góra Piaskowa,442.0
50.825832,15.606944,Skarbczyk,698.6
50.794376,15.587224,Koralowa Góra,1039.2
50.82747,15.665623,Lawendowe Wzgórze,475.0
50.816113,15.566944,Bucznik,670.0
50.808613,15.595278,Wężówka,780.5
50.79128,15.668599,Mostowa,715.0
50.8175,15.586945,Świerczyna,662.0
50.836113,15.5475,Kamienna Górka,645.0
50.799915,15.659259,Płonik,682.0
50.839443,15.626945,Ostrosz,505.0
50.812847,15.582389,Góra Pracka,695.0
50.81861,15.610278,Tkacka Góra,585.0
50.790554,15.5627775,Ostroga,1089.9
50.82928,15.663458,Chełm,490.1
50.785114,15.612164,Kozielec,1194.0
50.908333,15.559722,Kromosz,449.4
50.934444,15.648889,Łupki,355.0
50.883335,15.591945,Kamionek,546.3
50.918888,15.63,Międlica,465.0
50.93491,15.619448,Piec,455.0
50.932777,15.543612,Golec,420.0
50.883858,15.617247,Wilcza Góra,481.7
50.880833,15.620833,Polna,472.0
50.921112,15.681389,Siedlęcinka,495.2
50.885834,15.636111,Biesy,460.5
50.905556,15.678056,Rodło,485.9
50.893055,15.657222,Komorzyca,520.0
50.921665,15.605278,Młyńska Góra,419.0
50.8825,15.557777,Bukowna,545.0
50.93876,15.632877,Buczyna,434.0
50.91528,15.635834,Rybnicka Góra,479.9
50.920834,15.637777,Grząbka,451.8
50.90095,15.639624,Mędlica,503.2
50.931015,15.588207,Siekierka,429.3
50.939167,15.660833,Cichoń,397.0
50.89748,15.669723,Skalica,501.3
50.908054,15.596666,Zbyrk,447.7
50.876522,15.595996,Brzezina,505.0
50.86611,15.6075,Ptak,440.0
50.8975,15.5625,Młyńczak,460.0
50.9675,15.590555,Koźlarki,481.3
50.96583,15.555833,Gołuń,475.0
50.948612,15.565,Bojanka,438.0
50.97078,15.620407,Zamkowa Góra,392.0
50.99437,15.572478,Rozwaliska,430.0
50.990555,15.610556,Dzwonnica,408.0
50.962223,15.580277,Koziarki,435.0
50.986946,15.628889,Wapniak,391.2
50.962776,15.61,Korzec,438.0
51.0025,15.6241665,Wietrznik,481.7
50.9825,15.607778,Dziewicza,382.0
50.95222,15.590834,Zabawa,433.8
50.98722,15.660556,Dwory,400.0
50.969166,15.610556,Góra Brożna (Drożyna),440.0
50.95139,15.653334,Kowalowe Skały,331.4
50.998425,15.621493,Wapienica,465.0
50.943054,15.571111,Gęsia Góra,440.1
50.997776,15.606944,Kaczmarka,452.0
51.022778,15.536944,Opałek,428.2
51.031425,15.654827,Stróżna,363.0
51.168056,15.530556,Czarne Wzgórze,242.0
51.02667,15.558611,Misiura,466.0
51.02028,15.540556,Zgorzelisko,445.4
51.17472,15.528055,Rzeczna,243.0
51.02833,15.550555,Polna,479.3
51.11028,15.548889,Kiełbaśnia,260.0
51.064724,15.61,Wieżyca,285.6
51.022778,15.63,Radziej,350.0
51.01472,15.566389,Mielęcicka Góra,467.2
51.159443,15.576389,Wieżyca,258.8
51.046112,15.547222,Masłowiec,438.5
51.11755,15.547503,Kamyk,255.3
51.12528,15.533889,Zadzior,285.0
51.12389,15.5627775,Popek,244.0
51.183056,15.5622225,Kościelna,230.0
51.139446,15.5575,Dłużec,225.3
51.050278,15.5325,Kołodziej,453.8
50.943928,15.8847065,Skopiec,718.6
51.420834,15.847222,Grodzik,176.0
51.32389,15.8725,Dębnik,175.0
51.323334,15.845555,Gołogóra,173.0
51.3775,15.917778,Lubań,149.7
51.3125,15.832778,Krasikoń,170.0
51.381943,15.892222,Zajączek,165.0
51.494728,15.812949,Wapienniki,190.0
51.36889,15.9377775,Winnik,172.2
51.43611,15.964167,Owczyniec,146.0
51.301945,15.889444,Golica,195.2
51.433334,15.844444,Bucznik,170.0
51.454548,15.881489,Sośnia,155.1
51.40119,15.8547735,Wzgórze Fryderyka,165.0
51.314167,15.841389,Chełmek,175.0
51.34139,15.856944,Wilcznik,159.1
51.322903,15.892268,Chełm,171.8
51.44727,15.877736,Kostrzyniec,155.0
51.360832,15.988611,Łysiec,177.8
51.314724,15.857223,Polanka,190.0
51.240276,15.763889,Zawały,263.0
51.122776,15.883611,Pieklące Wzgórza,287.6
51.24472,15.681111,Sierzelina,250.0
51.12458,15.719499,Strażnik,335.0
51.18222,15.7025,Fabryczna Góra,272.9
51.24472,15.685833,Zielonek,215.9
51.11139,15.738055,Sośnica,300.0
51.24278,15.778611,Stróża,247.0
51.47028,16.290833,Okopiska,173.0
51.48639,16.371944,Grodziec,103.0
51.466667,16.299168,Ziębiniec,173.0
51.485,16.282223,Grzybinki,147.0
51.44926,16.248058,Bucze,195.0
51.453888,16.375278,Winnogóra,107.6
51.47343,16.287521,Łuszczyn,192.0
51.47389,16.241945,Zduńsko,158.0
51.496113,16.309723,Kamionki,155.0
51.44278,16.248333,Koźlicka Góra,185.0
51.449165,16.278055,Rudna,173.0
51.195835,16.130556,Legnicka Górka,162.0
51.332207,16.18397,Glinki,147.5
51.393612,16.079721,Kalwaria,172.0
51.417072,16.405186,Działowa,107.8
51.295,16.050556,Lipnik,137.0
51.229443,16.327778,Góry,134.0
51.37611,16.238611,Sosnowa Góra,123.0
51.15222,16.01639,Goniec,201.5
51.3725,16.49,Kozówka,95.0
51.364723,16.095833,Skowroniec,173.0
51.37,16.200832,Kierzno,145.0
51.378334,16.086945,Młynik,172.0
51.252262,16.20281,Sarnik,160.3
51.294724,16.036112,Pustki,137.2
51.226387,16.424723,Kopel,120.6
51.423332,16.1125,Pagór,186.0
51.351944,16.059166,Koźlarki,179.0
51.315834,16.189167,Bucze,135.0
51.410892,16.408865,Turowska Góra,108.0
51.199444,16.13139,Sępia Góra,155.0
51.300526,16.226974,Raszowski Nasyp,124.0
51.40139,16.054722,Twarożek,148.0
51.34,16.052778,Legnickie Góry,177.0
51.203888,16.1075,Wąwelno,178.2
51.31222,16.157778,Trupień,167.0
51.235554,16.111944,Nadjeziorna,127.0
51.425888,16.322144,Maślak,113.0
51.39611,16.075832,Za Wiatrakiem,170.0
51.280277,16.283056,Chmielnik,124.0
51.396408,16.20833,Wzgórze Zamkowe,125.0
51.36222,16.231112,Osieckie Wzgórze,140.0
51.38307,16.098057,Ziębnik,175.0
51.008095,16.177082,Skałki,228.0
51.1525,16.156666,Wzgórze Anny,174.4
51.01479,16.098938,Paprotnik,348.1
50.98764,16.049953,Obserwator,407.8
51.110832,16.106112,Krzyżowa,190.0
51.001366,16.125298,Garbiec,359.1
51.120834,16.1125,Krowiarka,202.0
51.026096,16.119558,Skałki,313.0
51.100834,16.039722,Stolnica,220.5
51.054295,16.066069,Jażyca,430.0
51.09111,16.086666,Kamienna,215.1
51.00678,16.138899,Czachora,275.0
51.130135,16.227346,Młyńskie,157.0
51.02085,16.042593,Muchowskie Wzgórza,475.0
50.99389,16.124166,Bociania Góra,394.9
51.14611,16.426111,Dzierzkowickie,144.4
50.9275,16.394722,Lisia Góra,242.1
51.0025,16.276388,Krowiarka,305.3
51.070557,16.43361,Drzewica,182.9
50.996387,16.309166,Granitowa Góra,335.3
50.996944,16.242777,Granitowa,321.2
50.96389,16.339722,Młyńskie Wzgórze,255.0
51.0,16.300833,Łopuszna,260.3
51.00139,16.24361,Czeska Góra,320.5
51.17218,16.42562,Miłosz,145.0
51.02722,16.360556,Jagodne,284.0
51.1426,16.481016,Żarnik,172.6
50.993332,16.245832,Konicz,304.9
50.976387,16.295555,Żelazowska Góra,301.4
50.981388,16.394444,Łupela,275.7
51.044724,16.343056,Damianek,284.3
50.97364,16.333471,Góra Świętego Jerzego,352.0
51.07,16.465834,Jarostówek,182.0
51.1467,16.46896,Popiel,168.1
50.970833,16.3325,Góra Szeroka,320.0
50.92278,16.397223,Winniki,251.1
50.983612,16.386944,Kościelisko,269.9
50.994167,16.446945,Gliniak,206.8
50.941666,16.34389,Płaskie Wzgórza,255.0
50.980278,16.428055,Piasecznik,230.6
50.995,16.30611,Jedlice,354.3
51.16722,16.456112,Pozamcze,145.0
50.971943,16.331944,Czerwona Skałka,320.0
51.034443,16.367777,Widnogóra,270.4
50.994167,16.366112,Swarna,315.4
50.941944,16.353056,Lisiec,255.5
50.768085,16.455265,Chłopska Góra,518.0
50.760666,16.452362,Gołogórka,485.0
50.763287,16.434027,Przełęk,416.0
50.710022,16.428408,Stankowa,626.0
50.698387,16.43454,Chłopska Góra,605.5
51.1743,16.493505,Ptaszyniec,142.0
51.173573,16.48251,Kopka,141.8
50.967373,16.491297,Łazek,225.0
50.863068,16.469639,Grębosz,243.0
50.85779,16.406643,Wiatrak,275.6
50.89707,16.42373,Piaseczno,253.0
50.858402,16.437302,Pasternik,255.6
50.89171,16.34799,Cierniak,270.2
50.89661,16.49354,Wierzbnik,264.4
50.77835,16.489323,Karczmarz,285.0
51.01605,15.927869,Pustki,324.6
51.018837,15.83475,Sokołowskie Wzgórza,438.5
51.06142,15.743932,Buczek,356.1
51.08946,15.996999,Widawa,350.0
51.025833,15.915556,Łupkowa,357.0
51.087395,16.004286,Olszana,350.0
51.095833,16.01111,Sichowskie Wzgórza,276.3
51.0382,15.878789,Gajowa,372.0
50.99811,15.884644,Piekarz,323.3
51.028614,15.798108,Winna,434.2
50.99904,15.688112,Grodowa Góra,337.8
51.025932,15.7941,Łysa Góra,436.6
51.027775,15.787972,Niżna Góra,434.1
51.028057,15.748333,Pustak,467.0
51.067417,15.844898,Ruda,290.0
51.013332,15.885555,Skowroniec,318.0
51.002777,15.771389,Rogatka,487.0
51.008335,15.746972,Babiniec,495.2
51.007854,15.737106,Leśnik,486.0
50.935207,15.903886,Bożniak,615.0
50.9649,15.689641,Strzyżowa,424.1
50.931946,15.863334,Wysoczka,547.8
50.948975,15.827808,Źróbek,615.8
50.97387,15.767629,Kopy,625.9
50.96519,15.771036,Grapa,626.6
50.975784,15.824007,Pańska Wysoczka,657.9
50.92162,15.898666,Straconka,610.0
50.97687,15.786086,Skrzypczak,488.0
50.976425,15.839032,Świerki,560.9
50.946224,15.783757,Góra Polna,522.3
50.95081,15.78056,Skiba,561.3
50.931107,15.877096,Bukówka,548.7
50.95269,15.802535,Zazdrośnik,575.0
50.988377,15.779272,Wywołaniec,541.1
50.956753,15.780354,Leśnica,662.0
50.943993,15.762208,Szybowcowa Góra,560.0
50.97385,15.871669,Urwista,445.0
50.928356,15.890294,Leszczyniec,615.0
50.98501,15.857556,Księża Góra,383.8
50.95934,15.69286,Zadnia,442.0
50.940052,15.785533,Zazdrośnik,469.6
50.93369,15.888051,Ziemski Kopczyk,675.0
50.958702,15.927366,Trzciniec,484.7
50.9625,16.12111,Schody,352.4
50.932766,15.9181595,Kozi Grzbiet,473.2
50.976143,15.943788,Lipna,434.7
50.942955,16.115957,Świnka,382.9
50.936848,16.088137,Skałka,410.0
50.94951,16.159058,Okrąglak,341.0
50.926636,15.9315605,Góra Stożna,505.0
50.898224,15.746254,Wzgórze gen. Grota-Roweckiego,387.4
50.930737,15.692671,Wygon,352.0
50.922535,15.715152,Gapy,470.0
50.912033,15.705749,Siodło,463.5
50.917255,15.684912,Lipnik,494.3
50.882862,15.738834,Złomy,436.1
50.87999,16.016531,Sośniak,542.0
50.89787,15.752412,Wzgórze Partyzantów,412.0
50.9093,15.724529,Wzgórze Krzywoustego,375.0
50.91642,15.721144,Złoty Widok,395.0
50.881687,15.722706,Jarkowa Górka,402.0
50.922363,15.777468,Sośnia,420.4
50.911545,15.793301,Grodzisko,398.5
50.892193,15.759635,Wzgórze Zamkowe,407.0
50.91586,15.779265,Kotliska,392.0
50.87878,15.733033,Skalista,457.0
50.897575,15.69889,Godzisz,505.4
50.925335,15.697095,Wieżyca,367.0
50.90482,15.706296,Pastwa,424.9
50.901173,15.756317,Parkowa,382.0
50.89944,15.754362,Kamienista,385.0
50.89433,15.940935,Sakowczyk,540.0
50.88597,15.762743,Kozia Górka,396.4
50.915005,15.717726,Bezimienne Wzgórze,400.0
50.894634,15.742242,Wzgórze Kościuszki,397.0
50.89021,15.936165,Popiel,455.0
50.89264,15.750594,Wzgórze Wandy,405.0
50.8897,15.823485,Kopka,439.1
50.923134,15.724867,Rysianka,412.0
50.909557,15.72107,Góra Kapliczna,375.0
50.866997,15.749107,Garby,422.0
50.846672,15.740773,Czop,450.0
50.860237,15.743926,Gołębnik,447.0
50.870396,15.856784,Gilotyna,454.2
50.85503,15.689004,Góra Kamienna,362.0
50.84389,15.747024,Zaroślak,455.0
50.86318,15.852041,Browarówka,510.0
50.875385,15.84067,Dębek,389.2
50.876987,15.880673,Młyńska Góra,430.0
50.86626,15.85282,Rudzik,500.0
50.866917,15.736023,Staniszówka,441.3
50.848408,15.813907,Bezimienne Wzgórze,390.0
50.887283,15.883749,Wzgórze Heleny,427.7
50.85114,15.72332,Wrona,410.0
50.850555,15.678749,Winnica,352.0
50.853916,15.768609,Krzyżowa Góra,427.0
50.846207,15.723867,Skopiec,425.0
50.86928,15.924012,Garb,455.0
50.88328,15.87524,Krukier,427.0
50.862415,15.874616,Trzy Korony,525.0
50.860634,15.747679,Popiel,422.0
50.881664,15.852028,Góra Tunelowa,445.0
50.87533,15.86092,Góra Łysa,490.0
50.8847,15.848433,Trzmielak,435.0
50.84821,15.721987,Bukowiec,405.0
50.87131,15.946214,Miedziana Góra,530.0
50.858677,15.753035,Żeleźniak,427.0
50.844112,15.725649,Polska Góra,427.0
50.84,15.736986,Gęśle,470.0
50.864822,15.935992,Piaskowa,582.0
50.883,15.884186,Wzgórze Izabeli,434.2
50.86432,15.7874975,Ziębia Góra,375.9
50.834248,15.760836,Czerwoniak,426.1
50.869934,15.837996,Buczek,455.6
50.838707,15.76101,Wzgórze Schiestla,427.9
50.85219,15.72858,Gaik,460.8
50.50427,16.373125,Guzowata,492.0
50.78543,15.782058,Kozi Grzbiet,540.0
50.80661,15.809822,Radziwiłłówka,464.4
50.742764,15.780147,Średnia Kopa,1200.0
50.751915,15.837371,Średniak,945.0
50.769722,15.737223,Gozdowa,785.0
50.803455,15.773115,Straconka,471.5
50.787643,15.738693,Strzelczyk,745.0
50.787247,15.811909,Modrzak,535.0
50.757534,15.785999,Krukowa,1170.0
50.821133,15.7496605,Grzebień,435.0
50.805813,15.703976,Kazalnica,630.0
50.750454,15.695893,Kopa nad Moreną,1390.0
50.77889,15.731426,Góra Saneczkowa,789.3
50.788055,15.960834,Gądka Góra,565.0
50.79555,15.890451,Bobrzak,838.6
50.846317,15.941836,Mały Wołek,765.0
50.824444,15.928431,Bielec,871.3
50.77129,15.847105,Krowiniec,660.0
50.793713,15.959063,Kozie Górki,655.0
50.79587,15.940155,Ostra,652.7
50.827625,16.017252,Łup,662.0
50.800335,15.957887,Szubieniczna,704.0
50.78712,15.923434,Bukowa,755.3
50.79785,15.935134,Jagoda,743.0
50.809082,15.880502,Wilczysko,789.0
50.79166,15.866108,Siodlak,610.0
50.778633,15.936433,Krowia,612.0
50.777138,15.910006,Góra Ptasia,585.0
50.834778,15.98836,Owcza Góra,585.6
50.835518,15.851681,Lisiak,437.0
50.789684,15.911947,Wilkowyja,775.8
50.84605,15.996323,Marciszówek,522.0
50.819794,15.906606,Skalica,750.0
50.787186,15.933974,Jaworowa,757.7
50.81657,16.008633,Pokrzywna,638.4
50.804398,15.955394,Czubata,705.4
50.866047,16.041517,Cieciorki,517.7
50.863605,16.022226,Krzywa Góra,453.3
50.8303,15.987152,Sowia Górka,558.0
50.787766,15.947598,Szarak,605.2
50.840153,16.003904,Ostra,495.0
50.78471,15.9204855,Liściasta,755.0
50.84997,16.006502,Marciszówka,445.0
50.82248,16.016613,Bucza Góra,670.7
50.786415,15.846563,Kapliczne Wzgórze,512.0
50.800503,15.924308,Szubieniczna,755.6
50.836376,16.084135,Otok,640.0
50.81291,16.359137,Otok,442.0
50.840885,16.087263,Szyja,616.8
50.848824,16.122314,Sójka,616.6
50.858086,16.073294,Pustelnik,652.0
50.909767,16.229925,Kozia Góra,352.0
50.85486,16.085835,Kokosz,661.6
50.85208,16.35607,Górczyn,302.0
50.85087,16.33797,Stromica,337.8
50.834137,16.328392,Lisie Kąty,396.0
50.845715,16.350937,Gozdne,340.0
50.707397,15.908663,Zagórze,623.7
50.75611,15.883611,Pliszka,785.0
50.79672,16.026386,Pagórek Monarchów,460.0
50.68519,15.914969,Wyżni,662.0
50.758186,15.949007,Rudzianka,635.0
50.72765,15.912002,Stróża,710.8
50.685474,15.877375,Kalwaria,716.9
50.760494,15.880177,Bednarz,706.0
50.75722,15.91,Długata,666.5
50.747845,15.965439,Lisie Skałki,525.0
50.76217,15.93967,Łysunia,677.8
50.71325,15.920441,Przednia,608.4
50.71256,15.950615,Zameczek,595.0
50.717117,15.912924,Książęca Kostka,607.0
50.710674,15.881115,Kolebki,759.8
50.765297,15.927973,Łysek,653.2
50.73484,15.969189,Długa Góra,612.0
50.80183,16.060059,Jaczkowska Góra,493.6
50.67946,15.862486,Czepiel / Čepel,911.1
50.73,15.858889,Bielec,931.2
50.756424,15.976393,Bania,590.7
50.746113,15.913333,Nowa,725.0
50.726086,15.864866,Biała Góra,915.0
50.80404,16.080599,Jaczkówka,451.0
50.66414,16.134085,Mielna,662.2
50.682575,16.14581,Bieśnik,645.3
50.658398,16.145912,Rogal,637.5
50.711945,16.14889,Trębna,589.9
50.66568,16.147348,Chochoł,686.4
50.695,16.139315,Szańcowa,600.0
50.637775,16.06936,Skalky,677.0
50.635555,16.046667,Czerwota,565.0
50.77789,16.158733,Wzgórze Hutnicze,540.0
50.784836,16.142801,Skotnica,550.7
50.762848,16.184607,Boreczna,710.2
50.80062,16.201954,Góra Kamienista,535.0
50.8279,16.200077,Strużanka,455.0
50.761665,16.217222,Owiecznik,666.5
50.78746,16.11876,Góra Krawca,540.3
50.75096,16.184414,Biela Góra,542.0
50.84237,16.197786,Dębówka,405.0
50.76135,16.201797,Boża Góra,655.0
50.828327,16.19437,Leśnica,445.8
50.814804,16.237513,Czerwonki,465.0
50.827003,16.187439,Czernica,470.0
50.7475,16.186945,Zamek,535.0
50.76548,16.196232,Wzgórze Hutnicze,625.4
50.772034,16.166939,Wzgórze Parkowe,562.9
50.754593,16.179008,Kondeja,571.7
50.766968,16.10069,Jastrzębia Góra,612.0
50.76086,16.199196,Wzgórze Parkowe,655.0
50.83291,16.193624,Mrowica,465.0
50.766453,16.14938,Boracza,599.8
50.794544,16.138786,Góra Filara,524.2
50.81861,16.206667,Strumycka Góra,500.0
50.75037,16.248455,Długa,592.0
50.645535,16.198902,Junak,523.8
50.68911,16.199438,Ługowina,650.5
50.670025,16.246887,Kozi Róg / Homole,782.7
50.73523,16.22851,Rusztemberg,575.6
50.632175,16.212439,Sokół / Sokol,605.0
50.723347,16.24738,Ciemna,673.0
50.635277,16.211666,Lipowa,513.9
50.724213,16.341364,Gaik,507.0
50.730553,16.334602,Dłużyca,578.2
50.72891,16.35006,Rybna,547.0
50.793068,16.27406,Czarnuszka,530.0
50.732174,16.346376,Rzepisko,560.3
50.771755,16.284954,Góra Powstańców,497.0
50.73652,16.329903,Kamienna,630.8
50.774883,16.285389,Góra Parkowa,502.0
50.77036,16.285837,Leniwiec,487.0
50.7276,16.33591,Leśnik,565.0
50.746063,16.321331,Okrągła,660.4
50.78007,16.315466,Czarnuszka,562.0
50.732845,16.334675,Kobiela,587.5
50.741703,16.30863,Dłużyna,685.0
50.755226,16.429373,Kurzętnik,445.8
50.781387,16.404444,Jalina,420.0
50.713936,16.440922,Wichrowe Wzgórze,598.0
50.716793,16.484919,Osiny,674.0
50.76125,16.370533,Palczyk,588.0
50.742153,16.365076,Szerzawa,628.0
50.735287,16.44467,Lisiec,547.0
50.708057,16.395555,Strażowa Góra,670.0
50.74361,16.453056,Złote Wzgórze,525.0
50.762474,16.441,Ostrogóra,465.0
50.76544,16.375141,Sośnina,543.0
50.726074,16.455452,Boreczna,590.8
50.770172,16.383656,Sina,505.5
50.753334,16.424444,Drewnica,452.0
50.61861,16.489445,Krwawnik,552.0
50.619167,16.459444,Sławosz,612.0
50.64576,16.482452,Rafalonka,641.0
50.689724,16.464167,Borsucze Wzgórze,800.0
50.669983,16.476307,Sokolica,915.0
50.690647,16.389326,Długa Góra,615.0
50.66083,16.453056,Niczyja,858.0
50.69872,16.474018,Przygodna Kopa,762.1
50.689842,16.44223,Góra Ostra,653.5
50.6359,16.45661,Kozi Grzbiet,680.0
50.68139,16.408611,Długa,650.0
50.70111,16.4325,Wawel,580.0
50.677082,16.411263,Jasna Góra,615.0
50.676666,16.473055,Średnia Góra,880.0
50.620277,16.441668,Pisztyk,710.6
50.63654,16.493338,Góra Kamienna,566.0
50.50111,16.32,Biesna,706.2
50.503407,16.335228,Lopota,723.0
50.549793,16.429096,Kościelna Góra,455.3
50.552895,16.458359,Gaj,502.0
50.589626,16.481792,Sokoli Garb,615.2
50.56392,16.433601,Kurak,418.0
50.569168,16.49361,Krępiec,645.2
50.56139,16.460556,Gaik,505.0
50.584446,16.460833,Dróżna,573.1
50.583057,16.453056,Młynarz,537.0
50.60378,16.473661,Czerwień,610.0
50.555,16.491112,Łysa Góra,537.2
50.55435,15.56387,Horka,592.6
50.647896,15.500448,Sýkoří,677.0
50.63345,15.506887,Chmelnice,621.0
50.62846,15.52546,Bubeníkovy vrchy,588.0
51.08398,15.539687,Gradowskie Wzniesienia,366.0
51.133446,15.65199,Stróżek,248.0
51.102486,15.640867,Wzniesienia Dworkowa,290.0
51.171688,15.573348,Góra Gwarków,265.0
51.044594,15.903437,Zawodna,445.0
50.691303,16.481459,Wroniec,822.0
50.653633,15.849614,Kutná,1010.0
50.64778,15.842177,Černý vrch,953.0
50.672234,15.801016,Špičák,878.0
50.673813,15.809322,Stará hora,896.0
50.734013,15.665456,Krakonoš,1422.0
50.71249,15.601185,Hromovka,1031.2
50.575603,15.5109825,Vrchy,509.4
50.53415,15.653586,Na Bateriích,471.0
50.51658,15.655108,Krausův kopec,438.0
50.512203,15.689115,Pecen,520.5
50.501835,15.714156,Stěna,500.1
50.5775,16.258255,Panna,686.0
51.036617,15.871705,Wielisławka,372.0
51.227264,15.753035,Piaskowa Góra,275.0
50.576035,16.259457,Strážná hora,692.0
50.58902,16.251417,Honský Špičák,652.2
50.632114,16.062696,Mrtvý vrch / Martwiec,668.0
50.654617,16.499474,Koziołki,935.0
50.671703,16.23567,Średniak / Obírka,781.0
50.766388,16.216108,Kopisko,687.7
50.64059,16.09615,Dlouhý vrch,699.0
50.661045,16.100283,Strážný vrch / Zielonka,701.0
50.818935,15.82818,Bramka,500.0
50.587635,16.11026,Nad srázem,746.0
50.512768,16.355766,Červený vrch,487.5
50.510242,16.362709,Božanovský vrch,495.3
50.644207,16.170246,Mirošovské stěny,665.0
50.77877,15.557299,Vysoká pláň,1497.0
50.567345,16.237446,Nad březinou,583.0
50.58633,16.221312,Na kostele,691.0
50.66848,15.625738,Kužel,842.0
50.65718,15.687527,Sluneční vrch,1012.0
51.228073,15.559599,Górnicze kopki,243.0
51.238014,15.567763,Gwarkowa,217.0
51.238598,15.546859,Jagodzianka,212.0
51.230114,15.562629,Bolesłwiecki Las,242.0
50.62666,15.759013,Zlatá vyhlídka,808.0
50.58276,15.717453,Pastvina,502.0
50.59767,15.710121,Hřeben,496.0
50.610783,15.683445,Kovársko,535.0
50.552544,15.912066,Chmelnice,499.4
50.768486,16.207964,Paluch,706.0
50.571514,16.033909,Slavětínský kopec,658.0
50.552586,16.052174,Žaltman,741.0
50.53764,16.081669,Na bahnech,676.4
50.531525,16.091358,Kraví hora,630.0
51.39212,16.08803,Turbak,181.0
50.778694,16.262201,Lisie Wzgórze,476.0
50.53185,16.310076,Velká kupa,713.0
50.560898,16.206915,Ostaš,702.0
50.579132,16.354656,Plochý vrch,428.9
50.60598,16.203175,Mračný vrch,586.5
50.71121,16.19112,Stachoń,806.5
50.63524,16.156233,Družstevní vrch,613.4
50.62449,16.12839,Křížový vrch,666.8
50.560894,16.080837,Hradiště,684.0
50.55472,16.113617,Záhoř,609.0
50.584503,16.12828,Martinské stěny,737.0
50.58304,16.148327,Kraví hora,729.5
50.596867,16.184143,Kamenný vrch,587.3
50.53641,16.164217,Vysoký kámen,545.2
50.525097,16.12869,Pánova hora,538.6
50.51136,16.108124,Na Perném,638.7
50.51987,16.096144,Strážnice,633.2
50.508404,15.770814,Svatá Kateřina,523.5
51.118317,15.722017,Graniczna,327.0
51.122757,15.716894,Kołowa,325.0
51.121014,15.716678,Podłużna,325.0
51.121002,15.712413,Podgórna,318.0
51.188766,15.6015,Bronek,257.0
51.194237,15.595326,Janina,245.0
50.568436,16.211397,Rovný,583.7
50.62962,16.084066,Pavlovská hora,667.0
50.515995,15.510261,Staropacká hora,577.9
50.519653,15.559803,Kozinec,599.9
50.518997,15.575879,Šturmův kopec,567.2
50.613384,15.909251,Baba,673.2
50.5575,15.842868,Ovčácký kopec,444.1
50.513325,15.882003,Kamenec,531.6
50.612637,16.309761,Mlýnský vrch,521.0
50.899445,15.805792,Skiper,432.0
50.617786,16.144861,Lada,622.6
50.603695,16.274384,Písčitý vrch,487.0
50.506363,16.272892,Machovský Šefel,592.0
50.516075,16.2686,Chlum,606.0
50.549164,16.296558,Ovčín,685.8
50.5744,16.067083,Zadní Hradišrě,626.0
50.67605,15.990288,Mravenčí vrch,830.7
50.643772,15.996879,Mravenčí vrch,839.9
50.69093,16.221388,Stroma,701.0
50.518158,16.076202,Kamenice,490.9
50.525917,16.076857,Brátův kopec,527.1
50.528923,16.079945,Havlovský kopec,566.4
50.732056,15.801151,Haida,998.0
50.74734,15.668634,Čertova louka,1471.0
50.515667,16.190378,Končina,543.0
50.511906,16.287119,Chlumberk,578.3
50.509056,16.301662,Signál,712.0
50.673775,15.508553,Fučíkův vršek,783.0
50.667156,15.532462,Baba,657.0
50.55694,16.219376,Borek,542.2
50.66179,15.889263,Horní les,819.0
50.68353,15.796791,Červený vrch,962.0
50.56288,16.030184,Markoušovický kopec,705.0
50.539345,16.114334,Ostrý,587.0
50.582848,16.09473,Strážný vrch,655.0
50.982033,16.214722,Łężek,251.0
50.67818,16.22356,Wzgórze Katarzyny,713.0
50.516457,16.244059,Havlatka,522.0
50.53276,16.266005,Hora,593.0
50.892574,16.034843,Poręba,671.0
50.73515,15.641586,Kozí hřbety,1318.0
50.694454,15.725087,Skalka,888.0
50.74965,16.216967,Góra Małgorzaty,591.0
