latitude,longitude,name,elevation
47.82567,15.739558,Handlesberg,1371.0
47.688988,15.689473,Heukuppe,2007.0
47.767063,15.8045,Klosterwappen,2076.0
47.95678,15.663463,Reisalpe,1399.0
47.574196,15.789965,Stuhleck,1782.0
47.938416,15.819128,Unterberg,1342.0
48.22388,16.110058,Troppberg,542.0
47.980614,15.60801,Muckenkogel,1248.0
47.798615,15.580614,Gippel,1669.0
47.75211,15.63885,Großer Sonnleitstein,1639.0
47.703194,15.594694,Windberg,1903.0
48.32076,16.363003,Bisamberg (Elisabethhöhe),360.0
48.210827,16.246237,Wolfersberg,322.0
48.27634,16.333069,Kahlenberg,484.0
48.27819,16.345215,Leopoldsberg,425.0
48.27072,16.29456,Hermannskogel,544.0
48.267006,16.31435,Latisberg,494.0
48.17126,16.212576,Hornauskogel,504.0
48.2587,16.284298,Dreimarkstein,454.0
48.10365,16.148323,Sulzer Höhe,504.0
48.269993,16.049908,Auberg,363.0
48.05522,16.241518,Eschenkogel,653.0
48.052464,16.252268,Vierjochkogel,651.0
48.215286,16.26136,Satzberg,435.0
48.181293,16.272732,Roter Berg,262.0
48.182835,16.26732,Girzenberg,285.0
48.178658,16.260479,Gemeindeberg,321.0
48.17976,16.203743,Brandberg,419.0
48.18954,16.21803,Johannser Kogel,377.0
48.169,16.219526,Kaltbründlberg,508.0
48.162483,16.22384,Mittlerer Eichberg,372.0
48.155186,16.226492,Kleiner Eichberg,334.0
48.16075,16.20005,Bärenberg,434.0
48.152752,16.23345,Faßlberg,366.0
48.131824,16.251192,Zugberg,325.0
48.179565,16.289011,Küniglberg,262.0
48.062546,16.292564,Eichkogel,367.0
48.18524,16.266254,Trazerberg,277.0
48.20936,16.259377,Hüttelberg,326.0
47.63613,15.68273,Dürrkogel,1462.0
47.634,15.69918,Beeralplkopf,1481.0
48.22958,16.274862,Heuberg,464.0
48.219418,16.275682,Gallitzinberg,388.0
48.19559,16.187246,Rudolfshöhe,475.0
48.20159,16.184685,Georgenberg,433.0
48.19819,16.175425,Schöffelstein,425.0
48.191345,16.155525,Speichberg,487.0
48.184265,16.157198,Feuersteinberg,507.0
48.178844,16.142235,Frauenwart,474.0
48.187874,16.136053,Glaskogel,402.0
48.16684,16.14796,Roppersberg,511.0
48.160397,16.130035,Brandberg,434.0
48.151134,16.143482,Hochstöckl,473.0
48.14418,16.1557,Sperrberg,465.0
48.14267,16.17048,Hinterer Steingrabenberg,467.0
48.14351,16.17935,Hundskehlberg,458.0
48.126606,16.218363,Eichkogel,428.0
48.12044,16.228931,Parapluieberg,561.0
48.126152,16.238503,Bierhäuslberg,488.0
48.063213,16.088741,Kalkberg,471.0
48.083332,16.060883,Sagberg,551.0
48.0819,16.091196,Winkelberg,488.0
48.073483,16.09358,Priefamtannkogel,502.0
48.066643,16.101164,Hausruck,486.0
48.10723,16.089901,Vorderes Brunneck,443.0
48.09822,16.073072,Habelsberg,590.0
48.096455,16.05638,Rossgipfel,633.0
48.430065,16.28894,Michelberg,409.0
47.773384,15.809894,Kaiserstein,2061.0
48.0475,16.2459,Anninger,675.0
47.76026,15.830323,Waxriegel,1888.0
48.087738,15.914091,Schöpfl,893.0
48.25069,16.31442,Hackenberg,306.0
47.74185,15.83251,Krummbachstein,1603.0
47.835938,15.995414,Ruine Scheuchenstein,646.0
48.124268,16.423534,Johannesberg,201.0
47.62215,15.833766,Hirschenkogel,1341.0
48.359264,15.602347,Waxenberg,501.0
47.688858,15.899718,Kohlberg,718.0
48.248856,16.235123,Rosskopf,507.0
48.204742,16.20647,Mühlberg,304.0
48.21312,16.195137,Weidlingauer Eichberg,387.0
48.07878,16.246798,Kleiner Anninger,496.0
48.087067,16.266953,Kalenderberg,352.0
47.91921,15.738509,Schwarzkogel,1091.0
47.924217,15.7413025,Sonnstein,1124.0
47.84433,16.0296,Kohlmais,1005.0
47.931725,15.778202,Grünkogel,990.0
47.89855,15.89294,Schafkogel,918.0
47.900513,15.878886,Matzingtaler Höhe,946.0
47.562084,15.826192,Großer Pfaff,1555.0
47.84086,15.938878,Plattenstein,1154.0
48.00722,16.134878,Hoher Lindkogel,834.0
48.010963,16.075941,Galgenriegel,590.0
47.85509,15.911185,Großer Neukogel,1053.0
48.028282,15.742978,Lindenstein,699.0
48.254883,16.265287,Hameau,465.0
48.236816,16.247154,Steinerne Lahn,448.0
47.787445,15.92364,Himberg,948.0
47.781067,15.946244,Kienberg,1015.0
47.66578,15.586579,Rabenstein,1027.0
48.24791,16.245544,Exelberg,516.0
47.708706,15.715457,Dreimarkstein,1949.0
47.700554,15.737885,Preiner Wand,1783.0
47.738773,15.988976,Gösing,898.0
48.262974,16.270952,Simonsberg,423.0
48.132214,15.778362,Hegerberg,655.0
48.15299,16.243315,Wilder Berg,370.0
48.44847,15.546409,Hiesbergwarte,427.0
48.02387,15.558145,Lorenzi-Pechkogel,883.0
47.696915,15.584395,Karleck,1768.0
47.818153,15.857052,Schober,1213.0
47.821735,15.877827,Öhler,1184.0
48.308628,15.662885,Gerichtsberg,372.0
48.306274,15.657639,Schauerberg,383.0
47.713947,15.611061,Kleine Burgwand,1787.0
48.28361,15.661927,Hoher Kölbling,355.0
48.291023,15.658463,Großer Kölbling,345.0
48.33795,15.660157,Forerberg,432.0
47.86935,15.625702,Tettenhengst,958.0
47.970684,15.690005,Hochstaff,1305.0
48.22449,16.230581,Kolbeterberg,426.0
48.273693,16.315731,Handleinsberg,495.0
48.23254,16.213299,Greutberg,449.0
47.53034,15.913796,Hochwechsel,1743.0
47.622345,15.857452,Erzkogel,1504.0
47.89203,15.56825,Linsberg,1238.0
47.54983,15.743959,Pretul,1656.0
47.551704,15.731664,Amundsenhöhe,1666.0
48.09625,16.187635,Höllenstein,645.0
48.281868,16.148754,Tulbinger Kogel,494.0
47.921917,16.158007,Pfarrkogel,470.0
47.91766,16.127604,Größenberg,510.0
47.924995,16.100483,Neuberg,461.0
47.901527,16.107807,Buchriegel,584.0
48.07755,15.731938,Kukubauerwiese,782.0
47.882973,16.086367,Sulzberg,542.0
47.893024,16.06243,Lindkogel,872.0
47.895252,16.009027,Hohe Mandling,967.0
48.109474,16.215015,Großer-Sattel-Berg,584.0
47.9895,16.244806,Harterberg,266.0
48.00793,16.18475,Badner Lindkogel,582.0
47.6996,16.178068,Weißjackel,577.0
47.716404,15.820812,Mittagstein,1300.0
47.8228,16.107994,Schlossberg,583.0
47.83442,16.120472,Größenberg,605.0
47.82229,16.007711,Kleiner Plackles,1102.0
48.076824,16.271915,Frauenberg,353.0
47.99727,15.868425,Veiglkogel,808.0
47.972134,15.866399,Reingupf,1065.0
47.9748,16.04905,Ludwigshöhe,553.0
47.977386,16.047438,Kühberg,578.0
47.953087,15.892979,Almeskogel,1065.0
47.953056,15.905001,Geißruck,1074.0
48.02529,16.088837,Kleiner Marchberg,601.0
47.81102,16.09655,Kalter Berg,520.0
47.803524,16.08673,Dachenstein,443.0
48.001842,15.98633,Kienberg,791.0
48.00182,15.972469,Mittagskogel,862.0
47.996807,15.951662,Hocheck,1037.0
47.983475,16.009933,Tannberg,677.0
48.0307,15.6251955,Wieserspitz,772.0
47.648796,15.799691,Roter Berg,1144.0
47.93859,16.11225,Guglzipf,474.0
47.563717,15.914107,Arabichl,1595.0
47.559982,15.964543,Frauenalpe,1458.0
47.56124,15.986426,Kampstein,1467.0
47.577377,16.036346,Aigenberg,895.0
47.631363,15.996273,Eselberg,974.0
47.65334,15.940246,Raachberg,908.0
47.899715,16.039454,Großer Rosenkogel,842.0
48.014107,16.012047,Festenberg,593.0
47.94146,16.1395,Rosalienberg,385.0
48.046227,16.235031,Buchkogel,639.0
47.94861,15.9265785,Kalter Berg,1044.0
47.993008,15.918608,Hochriegel,882.0
48.051895,16.076254,Buchberg,478.0
48.012825,15.900194,Frönerberg,709.0
48.135265,16.018826,Ranzenberg,526.0
48.13228,15.99318,Buchleitenberg,576.0
48.12198,15.981635,Schüttleitenberg,591.0
48.12751,16.001137,Hundsberg,539.0
48.119743,16.005823,Agsbachberg,496.0
48.12773,16.048895,Steinplattl,649.0
48.12551,16.03383,Anderlbrunnberg,545.0
48.119846,16.040096,Kreuzeck,593.0
48.11544,16.03085,Vorderes Kreuzeck,578.0
48.121193,16.025894,Hinterriegel,474.0
48.145035,16.041948,Erlwart,571.0
48.095146,16.023705,Hochbrand,567.0
48.096413,16.031027,Hainbachberg,588.0
48.10407,16.03428,Lichtriegel,544.0
47.856365,16.000322,Mühlstein,750.0
47.851936,16.056105,Peischingleiten,915.0
47.863117,15.920226,Kleiner Neukogel,866.0
47.880173,15.807877,Rohrer Berg,980.0
47.887726,15.839505,Großer Geißkopf,1006.0
47.88318,15.852058,Kleiner Geißkopf,853.0
47.887962,15.798781,Haberkogel,1041.0
47.88915,15.785669,Winsakogel,948.0
47.877216,15.754243,Größenberg,1001.0
47.879795,15.740187,Edlaberg-Nordgipfel,1096.0
47.87075,15.6823,Größenberg,1102.0
47.88037,15.67536,Kleiner Größenberg,1086.0
47.9028,15.667076,Hegerberg,1179.0
47.914204,15.659781,Kienstein,957.0
47.923523,15.659068,Sonnstein,812.0
48.005238,15.594321,Spitzbrandkogel,729.0
47.937893,15.672726,Beilstein,931.0
47.927338,15.66704,Kasbauerberg,824.0
48.004177,15.693456,Sengenebenberg,1104.0
48.02996,15.656703,Staff,786.0
48.16745,16.056091,Großer Pfalzberg,504.0
48.17773,16.040384,Sonnberg,399.0
48.12274,16.204271,Gernberg,434.0
48.12092,16.182709,Lattermaißberg,452.0
48.116554,16.174932,Schneiderkogel,464.0
48.12361,16.14871,Hinterer Gernberg,504.5
48.117424,16.139107,Eichberg,558.0
48.128345,16.158575,Festenberg,446.0
48.118057,16.14949,Ramaseck,530.0
48.122208,16.132027,Vorderer Wöglerberg,538.0
48.125416,16.127285,Kupferröhren,528.0
48.121525,16.112326,Hinterer Wöglerberg,495.0
48.117153,16.11471,Großer Winkelberg,514.0
48.112255,16.10646,Kleiner Winkelberg,469.0
48.104168,16.111858,Jeanettenruhe,524.0
48.10017,16.114502,Großer Reutlsberg,483.0
48.099586,16.106787,Kleiner Reutlsberg,474.0
48.233406,16.168505,Hahnbaumberg,413.0
48.24047,16.151804,Königswinkelberg,388.0
48.213184,16.147675,Hochram,459.0
48.21466,16.135948,Buchberg,440.0
48.21403,16.117393,Riedanleiten,460.0
47.572792,15.876843,Rabenkropf,1464.0
47.563656,15.840993,Harterkogel,1523.0
47.565674,15.821335,Kleiner Pfaff,1539.0
47.613804,15.862457,Alpkogel,1414.0
47.62904,15.890948,Kleiner Otter,1327.0
47.630886,15.898802,Mitterotter,1297.0
47.583893,15.845402,Fanklbauerhöhe,1304.0
47.59725,15.848596,Poirhöhe,1374.0
47.58647,15.921452,Alpl,1499.0
47.946198,15.874665,auf der Luch,1024.0
47.518265,15.951188,Niederwechsel,1669.0
47.554276,15.902522,Schöberlriegel,1704.0
47.546253,15.90175,Umschussriegel,1720.0
47.535927,16.06525,Schafkogel,818.0
47.68683,15.592471,Rauhenstein,1770.0
48.115,15.933359,Freiung,616.0
48.121197,15.952492,Hasenriegel,618.0
48.246872,16.183546,Allerheiligenberg,420.0
48.257576,16.190714,Russberg,449.0
48.249947,16.182167,Mauereck,453.0
48.238262,16.213974,Hohe Wand,452.0
48.235813,16.227192,Hochbruckenberg,497.0
48.244465,16.244566,Dahaberg,507.0
48.24555,16.288889,Michaelerberg,387.0
48.23989,16.292381,Schafberg,390.0
48.25708,16.22045,Schutzengelberg,509.0
48.24612,16.12983,Taglesberg,389.0
48.25563,16.118753,Rauchbuchberg,439.0
48.223595,16.061514,Vorderer Steinberg,412.0
48.227898,16.062193,Saleck,397.0
48.219376,16.065266,Mittlerer Steinberg,412.0
48.21746,16.09709,Ameisberg,471.0
48.20654,16.07737,Buchberg,434.0
48.199947,16.128157,Sagberg,435.0
48.205585,16.125587,Hüttenkogel,415.0
48.189617,16.073572,Unterer Saubichl,415.0
48.193913,16.0597,Oberer Saubichl,504.0
48.19521,16.048588,Großer Stiefelberg,497.0
48.198654,16.055357,Kleiner Stiefelberg,461.0
48.21746,16.010778,Frauenberg,382.0
48.212475,16.03527,Hinterer Bonnaberg,417.0
48.19294,16.008236,Reisenberg,339.0
48.20347,16.016283,Haberg,410.0
48.080235,15.819406,Kasberg,785.0
48.049393,15.990493,Kuhberg,707.0
48.192677,16.185162,Gelber Berg,470.0
48.29622,15.523998,Silberne Birn,569.0
48.035343,16.201874,Hühnerberg,437.0
47.76654,16.29614,Mitterriegel,534.0
48.07327,15.826941,Gföhlberg,885.0
48.120007,15.720533,Amerlingkogel,628.0
48.079353,15.54563,Plambachecker Höhe,623.0
48.22587,15.825526,Frauenberg,378.0
48.049644,15.526274,Hirschkogel,732.0
47.84062,15.567722,Klaushofer Berg,971.0
48.435856,16.309088,Steinberg,375.0
48.067265,15.725716,Großer Steinberg,753.0
48.042385,15.842078,Valeriehöhe,772.0
47.96237,15.600682,Fuchsriegel,984.0
47.962288,15.570426,Hochkogel,873.0
47.919437,15.555993,Türnitzer Höger,1372.0
48.1038,15.970201,Bärengrabenberg,545.0
48.099873,15.983556,Rieglerswartberg,500.0
48.112797,15.968339,Hollerriegel,552.0
48.48454,16.064922,Haberg,414.0
48.019764,16.173153,Kleespitz,444.0
47.97268,15.982733,Groldenkogel,582.0
47.97239,15.907232,Geißgrabenhöhe,826.0
47.967716,15.95314,Kirchwaldstein,789.0
47.964203,15.933137,Gaisstein,975.0
48.026688,16.122355,Steinleiten,457.0
47.95742,15.9728,Buchereck,580.0
47.949364,15.967768,Buchleitenriegel,667.0
47.994427,15.669704,Wendelgupf,1110.0
47.724644,16.448298,Rohrbacher Kogel,388.0
47.856102,15.644779,Trauchberg,922.0
47.854725,15.63182,Rosskopf O-Gipfel,1111.0
47.84898,15.62682,Haselstein,1092.0
47.87016,15.643017,Steinaberg,951.0
47.858765,15.596563,Steinerkogel,725.0
47.857372,15.615709,Haselsteinkogel,804.0
47.841312,15.61562,Gaisrücken,942.0
47.839108,15.619789,Schwaigerkogel,942.0
47.83926,15.605315,Kleiner Geißrücken,820.0
47.84719,15.604626,Hinterecker Kogel,815.0
47.851616,15.588188,Weyerkogel,797.0
47.92265,15.62349,Galgenmauer,663.0
47.88894,15.611578,Bruckberg,749.0
47.869923,15.605839,Rauchfeldner Kogel,704.0
48.031555,16.238262,Pfaffstättner Kogel,550.0
47.797623,16.013315,Sonnleiten,695.0
47.839012,16.048002,Kleiner Holler,897.0
47.840733,16.042665,Großer Holler,903.0
47.83728,16.031805,Liederlichsberg,987.0
47.84072,16.040298,Schindelboden,911.0
47.82424,16.030901,Hochkogel,966.0
47.82832,16.026768,Hochbrand,1027.0
47.829525,16.034412,Schwarzer Kogel,959.0
47.80952,16.09061,schöne Aussicht,456.0
47.947544,15.738111,Hirschkogel,990.0
47.945618,15.746444,Hirschkogel,944.0
47.994392,16.012394,Arnberg,513.0
47.716385,15.589735,Kleine Mitterbergwand,1863.0
48.080994,16.275341,Frauenstein,330.0
47.99717,15.982449,Mitterriegel,747.0
47.976315,16.03425,Hamer-Schreiber-Leiten,499.0
47.98048,16.026318,Geierberg,527.0
47.974968,16.01756,Ebenleiten,571.0
47.965603,16.004148,Kienberg,666.0
47.978233,16.006285,Lecherkogel,603.0
47.976486,15.995791,Steinleiten,596.0
47.938484,16.029036,Waxeneck,797.0
47.930447,16.008398,Am Kaar,775.0
47.922832,16.014938,Heuschober,766.0
47.91618,16.01575,Geyerhöhe,710.0
47.923256,16.025742,Mitterriegel,625.0
47.8371,16.15879,Blumberg,375.0
47.83444,16.13185,Brunner Eben,546.0
47.87551,16.475847,Sonnenberg,484.0
47.819912,15.573722,Sepp-Türk-Gipfel,940.0
47.822563,15.56751,Hochsteinkogel,1036.0
47.81446,15.563586,Pollwischkogel,996.0
47.898666,15.933913,Pfaffenkogel,647.0
47.89983,15.947812,Petersberg,578.0
47.9911,16.162647,Sooßer Lindkogel,713.0
47.899357,15.954311,Sebastianikogel,487.0
47.91046,15.972055,Spatzenwälder Kogel,750.0
47.917194,15.982695,Schärftalhöhe,769.0
47.930305,16.067072,Gaisruck,495.0
47.931526,16.066872,Rauher Stein,498.0
47.934563,16.077639,Steinberg,450.0
47.92723,16.06045,Zwingelberg,524.0
47.737446,16.010365,Schönbühel,725.0
47.8838,15.63929,Poldiberg,861.0
47.88847,15.65483,Rehbauerkogel,915.0
47.891376,15.658178,Hirschenkogel,884.0
47.89159,15.66322,Hirschenkogel,906.0
47.934742,15.720668,Höllkogel,875.0
47.91057,16.18679,Pretzesbühel,325.0
47.915413,16.169132,Unterer Wegesbühel,387.0
47.89669,16.117842,Ratzenbühel,503.0
47.91352,16.158115,Trümmel,409.0
47.762634,15.985351,Kuhberg,809.0
47.766182,15.992303,Mittereck,788.0
47.771004,16.001343,Dürrenberg,844.0
47.87222,15.994948,Schweingartriegel,577.0
47.876015,15.995602,Oedriegel,538.0
47.88276,15.975268,Großer Kitzberg,773.0
47.883762,15.981329,Elisabethaussicht,734.0
47.886936,15.969146,Kleiner Kitzberg,615.0
47.78613,16.027718,Eichberg,584.0
47.901543,15.772754,Furtnerkogel,925.0
47.81473,15.665338,Obersberg,1467.0
47.9173,15.766519,Furtnerberg,1090.0
47.92167,15.804262,Brunntaler Höhe,1110.0
47.92117,15.784087,Nesselbachhöhe,1031.0
47.804348,16.057362,Kienberg,650.0
47.89658,15.703407,Hirzerkogel,856.0
47.901215,15.718023,Schacherkogel,924.0
47.809486,15.953396,Hutberg,971.0
48.172634,16.022202,Zwickelberg,464.0
48.17334,16.087908,Vorderer Sattel,482.0
48.166424,16.083612,Sattelberg,493.0
48.16063,16.082914,Hinterer Sattel,479.0
48.171192,16.110765,Beerwart,458.0
47.91052,16.080317,Kochran,492.0
47.90153,16.050611,Wolfseiche,771.0
47.907234,16.056099,Hammerl,788.0
47.94429,16.078577,Am Berg,492.0
47.85086,16.14303,Pfaffenkogel,557.0
47.71532,16.009407,Gfieder,609.0
47.98882,16.12581,Merkenstein,572.0
48.49877,15.9017,Rotholzberg,353.0
47.981663,16.131268,Geisberg,485.0
47.85123,16.1529,Steinereben,535.0
47.925686,15.960444,Stocker,889.0
47.917698,15.947351,Eich,806.0
47.95426,15.989144,Die Ruh,777.0
47.959106,16.005634,Auf der Wurzen,692.0
47.934353,15.981151,Hochwald,919.0
47.96388,15.9705925,Ruhberg,634.0
47.989014,16.041193,Weinberg,526.0
47.675194,16.09993,Hartberg,510.0
47.51591,15.62258,Höllkögerl,1039.0
47.520496,15.601697,Kühberg,1146.0
47.527386,15.590002,Hochgölk,1176.0
47.526226,15.569112,Gölkschneid,1027.0
47.8142,16.003187,Plackles,1132.0
47.55509,15.549166,Karnerkogel,786.0
47.594776,15.53023,Höllkogel,1154.0
47.60388,15.532821,Veitschegg,1020.0
47.611084,15.524919,Feilkogel,1150.0
47.62277,15.53583,Rantsch,1260.0
47.63277,15.544606,Hocheck,1418.0
47.633465,15.519881,Draxlerkogel,1301.0
47.63796,15.511497,Auf der Kreuzen,1265.0
47.64417,15.509195,Heinzelkogel,1296.0
47.64861,15.502249,Hirschensitz,1378.0
47.51541,15.526018,Fürhauptkogel,976.0
47.63153,16.1173,Kulmriegel,759.0
47.71313,16.29669,Mittereck,634.0
47.71918,16.294573,Krieriegel,682.0
47.737076,16.298355,Bauernmaiß,630.0
47.74371,16.299192,Bergkogel,621.0
47.689026,16.304405,Auerberg,724.0
47.856087,15.940721,Dunkelstein,828.0
47.861828,15.94685,Hauskogel,732.0
47.872494,15.950111,Ebenbaumkogel,716.0
47.856003,16.131357,Großer Auriegel,514.0
47.854927,16.125528,Kleiner Auriegel,523.0
47.851173,16.132927,Moosbügel,514.0
47.683163,16.230417,Heidenberg,648.0
47.852688,16.10173,Hochkogel,569.0
47.649815,16.326159,Roter Riegel,537.0
47.68046,16.3423,Schwarzkogel,673.0
47.68225,16.351662,Greimkogel,677.0
47.668804,16.352165,Marriegel,622.0
47.660942,16.361948,Sieggrabener Kogel,650.0
48.019474,16.188974,Badener Kletterschule,317.0
47.81615,15.987122,Kienberg,1045.0
48.015003,16.142063,Blasenhöhe,653.0
47.97213,15.610308,Hinteralm,1313.0
47.769737,15.782089,Turmstein,1416.0
48.01882,16.109627,Allandriegel,682.0
48.022614,16.113909,Sulzriegel,578.0
47.767124,15.751938,Schusterkogel,905.0
48.047764,15.777563,Vollberg,627.0
47.9759,16.160492,Hauerberg,501.0
47.714806,15.865113,Saurüssel,1340.0
47.65368,15.929617,Erikafelsen,765.0
47.7348,15.72594,Edelweißkogel,1583.0
47.71498,15.722022,Scheibwaldhöhe,1943.0
47.71372,15.715738,Bieskogel,1924.0
47.72349,15.717074,Haberfeldkuppe,1865.0
47.729,15.739393,Kloben,1697.0
47.91052,15.689224,Steinerkogel,1010.0
47.91247,15.712063,Die Jochart,1266.0
47.91729,15.698748,Waschhofer Berg,1062.0
47.92543,15.747443,Reuterberg,1109.0
47.930965,15.750371,Buchenschopf,1118.0
47.661,15.778223,Luckerte Wand,1128.0
47.66106,15.76782,Hahnkogel,1085.0
47.669937,15.7710705,Haakogel,884.0
48.01271,15.680932,Eckerkogel,926.0
47.99593,15.682473,Kiensteineröde,1160.0
48.01534,15.660727,Hochreiterkogel,936.0
48.02285,15.623225,Artnergupf,780.0
47.997654,15.722,Schwarzwaldeck,1071.0
47.96122,15.648093,Schwarzkogel,1278.0
47.9709,15.658299,Grenzkögerl,949.0
47.97624,15.67946,Graserberg,1076.0
47.96472,15.799568,Hasberg,795.0
47.970974,15.784993,Gererberg,956.0
47.96437,15.782431,Dürrholzkogel,885.0
47.96503,15.768935,Gütenbachberg,923.0
47.96959,15.755731,Gemeindealpe,1005.0
47.953205,15.780031,Misteleck,800.0
47.947487,15.781179,Fahreck,805.0
47.944122,15.790557,Steinkamp,852.0
47.99672,15.762449,Höhenberg,1027.0
47.82514,16.119562,Engelsberg,568.0
47.79438,15.862414,Hühnerbühel,846.0
48.10585,16.195013,Gaisbergkreuz,599.0
48.113194,16.200401,Raab-Felsen,435.0
48.050365,15.591641,Buchberg,621.0
48.008545,15.622745,Grosserhöhe,709.0
48.0022,15.617832,Hadeggerkogel,779.0
47.81848,15.96173,Kaltenberg,735.0
47.854477,16.014973,Kühhaltriegel,760.0
47.84909,16.008184,Hoher Riegel,759.0
47.818344,15.9731,Sattelwald,806.0
47.834137,15.99619,Hausberg,729.0
47.826847,15.985684,Hochleiten,848.0
47.86235,16.017944,Größenberg,895.0
47.850502,16.068893,Vordere Wand,906.0
47.82786,16.11255,Zechleiten,534.0
47.82988,16.11727,Kühstandleiten,585.0
47.851414,16.112507,Piberkogel,514.0
47.84963,16.10706,Lindakogel,530.0
47.83777,16.12461,Zimsesberg,589.0
47.868256,16.105585,Stixenkogel,457.0
47.86163,16.10559,Hausenberg,640.0
47.84025,16.12355,Burgstall,578.0
47.84602,16.12767,Radbauerriegel,567.0
47.84434,16.13368,Gaisrücken,550.0
47.79417,16.05172,Türlstein,475.0
47.79512,16.04749,Am hintern Berg,563.0
47.80067,16.0486,Zweier Wald,633.0
47.80351,16.07269,Schneiderhöhe,500.0
47.80055,16.08419,Katzenkopf,401.0
47.80155,16.08613,Wildenstein,448.0
47.80443,16.09391,Blosenberg,484.0
47.81011,16.10079,Mitterberg,506.0
47.85544,16.14264,Fuchsboden,543.0
48.34105,16.274488,Hundsberg,389.0
48.418903,16.297243,Knieberg,316.0
47.681374,15.934858,Silbersberg,716.0
47.917473,16.150482,Hohenmauer,430.0
47.92692,16.140516,Kleiner Jauling,417.0
47.92391,16.14942,Großer Jauling,464.0
47.928402,16.12983,Rauchgstättnberg,506.0
47.91762,16.11886,Schwarzkogel,384.0
47.89569,16.09005,Wolfsbühel,486.0
47.898243,16.153503,Hustockberg,483.0
47.93446,16.16952,Steinkamperl,341.0
48.102097,16.220642,Tenneberg,530.0
48.107677,16.218931,Sperkhermstein,563.0
48.106907,16.212141,Predigerstuhl,535.0
48.090397,16.22342,Eichberg,502.0
48.093105,16.19582,Einödenberg,609.0
48.09898,16.204231,Hoher Ge,532.0
48.099724,16.204054,Mitterberg (K2),549.0
47.501194,16.050917,Tauchenberg,890.0
48.07593,16.222218,Schweinzerberg,396.0
48.067364,16.211817,Schwarzkopf,418.0
48.06665,16.22132,Mittlerer Otter,504.0
48.067657,16.187605,Mühlparz,403.0
48.071815,16.177439,Eichkogel,398.0
47.540176,16.123531,Fuchsenriegel,813.0
47.650066,16.140957,Ofenberg,662.0
47.61767,15.627012,Kreuzschober,1410.0
47.504967,16.079138,Hartberg,918.0
47.68903,15.51287,Lachalpe,1590.0
48.05098,16.220488,Schenkerberg,453.0
48.02821,16.260538,Badner Riegel,268.0
48.02641,16.263275,Bühel,257.0
48.031765,16.269842,Katzenbühel,256.0
47.651577,15.636957,Plodererwand,896.0
48.078888,16.249596,Phönixberg,498.0
48.075615,16.27822,Jennyberg,345.0
48.035828,15.868574,Bramerhöhe,740.0
48.0883,16.262266,Wagnerkogel,299.0
48.472515,16.362608,Galgenberg,358.0
48.38392,16.399345,Zeiselberg,263.0
48.055805,16.133646,Bergl,351.0
48.056145,16.135994,Kalvarienberg,346.0
48.037502,16.118492,Windhagberg,473.0
48.03192,16.11772,Ungarstein,417.0
48.467678,15.9586115,Kogel,342.0
48.45923,15.97487,Kobelberg,267.0
48.037468,16.09618,Bischofsmütze,515.0
48.017353,16.092146,Kienkogel,639.0
48.023426,16.082563,Großer Marchberg,650.0
47.712452,16.338886,Hausberg,485.0
48.00734,15.862262,Kölchberg,819.0
48.053596,15.922409,Steinriegel,743.0
48.059963,15.9168625,Maiselberg,712.0
48.07179,15.843963,Hendlberg,787.0
48.084496,15.882266,Totenköpfl,703.0
48.068813,16.259367,Alexandraberg,491.0
47.900387,15.567594,Stadelberg,1226.0
48.412937,15.590015,Kremser Kreuzberg,320.0
47.966263,15.87921,Weißriegel,826.0
48.08825,16.191195,Heuberg,593.0
48.08709,16.17224,Höppelberg,560.0
48.077553,16.201427,Schanzkogel,442.0
48.080727,16.206495,Mödlinger Kirchwald,471.0
48.083523,16.214828,Pachnerkogel,426.0
48.087067,16.159327,Alleeberg,543.0
47.73668,16.03049,Maisenbügel,461.0
47.850914,16.145752,Andreasstein,539.0
47.746098,16.029507,Kammbühel,526.0
47.69851,15.92888,Wolfsberg,698.0
47.91698,15.933684,Hausstein,668.0
47.991882,16.028538,Torstein,490.0
48.06968,16.01798,Dachsberg,643.0
47.789707,15.978712,Talberg,776.0
47.781994,15.986602,Gaisbuckel,676.0
47.768684,15.974772,Schmargreitriegel,826.0
47.76962,15.978379,Schafriegel,813.0
47.771008,15.983754,Haslitz,835.0
47.79625,15.982217,Ganskogel,629.0
47.79251,15.505396,Kleiner Göller (Rosskopf),1673.0
47.87169,15.869973,Residenzberg,819.0
47.790375,15.914139,Romaykogel,606.0
47.807903,15.9165745,Haltberg,1120.0
47.80125,15.8974495,Wiesberg,899.0
47.807236,15.870305,Größenberg,1188.0
47.810337,15.87998,Bärenfeichten,959.0
47.810528,15.890128,Auf der Roten Wand,920.0
47.811783,15.868145,Marecherkogel,1067.0
47.795418,15.849658,Abfall,967.0
47.798748,15.820094,Dürre Leiten,1249.0
47.809288,15.8434515,Bäreneck,1037.0
47.81358,15.829723,Kohlberg,1105.0
47.833214,15.846202,Hinterleiten,902.0
47.836742,15.840216,Strassberg,782.0
47.839718,15.865334,Nebelstein,1009.0
47.838413,15.88445,Mitterriegel,804.0
47.842667,15.902293,Hohes Eck,973.0
47.799236,15.917928,Eichkogel,696.0
47.8062,15.938698,Steinbiegl,671.0
47.81551,15.761217,Höchbauerberg,925.0
47.821312,15.739386,Dürrer Stein,1292.0
48.409946,15.568068,Braunsdorfer Berg,450.0
47.905838,15.753773,Mitterberg,980.0
47.89891,15.758248,Wasserstein,955.0
47.828217,15.700611,Wegbauerkogel,948.0
47.834484,15.699209,Hauskogel,846.0
47.823025,15.701564,Falkenstein,1013.0
47.82578,15.70935,Windhag,1047.0
47.82751,15.71738,Atzberg,1092.0
47.818943,15.732467,Steinritzel,1168.0
47.83188,15.75253,Hahnstab,1159.0
47.843742,15.750999,Mitterriegel,996.0
47.85208,15.745562,Heubodenrücken,992.0
47.862003,15.740203,Kienstein,976.0
47.86607,15.738752,Hutmauer,930.0
47.870407,15.737455,Am Ledererboden,1023.0
47.877407,15.741727,Edlaberg-Südgipfel,1103.0
47.879917,15.729146,Holzhofer Berg,1027.0
47.87223,15.727616,Bromberg,993.0
47.865818,15.786109,Hochkogel,975.0
47.85351,15.79394,Streimling,1050.0
47.841698,15.782692,Winsaberg,1008.0
47.837563,15.773715,Ödengupf,1060.0
47.821503,15.800728,Hutberg,1169.0
47.79671,15.72989,Baumeck,968.0
47.80438,15.729948,Mitterriegel,897.0
47.799755,15.741298,Scheibenkogel,758.0
47.858612,15.756468,Kalteck,960.0
47.866062,15.759249,Stuhlfuß,961.0
47.8499,15.708789,Brunstkogel,851.0
47.999653,16.02875,Spartastein,521.0
47.996304,15.776769,Gaisberg,934.0
47.985256,15.778404,Oberried,896.0
48.01478,16.05214,Peilstein,718.0
48.029526,16.066032,Arnstein,561.0
48.025105,16.062649,Schlossberg,603.0
48.254208,15.818871,Grunddorfer Berg,299.0
47.987823,15.803395,Oberhöhe,889.0
47.985615,15.801196,Wiesermauer,874.0
48.213825,15.9447565,Buchberg,469.0
47.81528,16.107645,die G'spitzte,440.0
47.862797,15.714809,Hauskogel,837.0
47.860462,15.68687,Schmiedeck,895.0
48.4374,15.91442,Schlossberg,240.0
47.776115,16.023224,Hinteres Mittereck,700.0
47.80829,15.861917,Auf der Gemein,1091.0
47.832245,16.022564,Bromberg,1078.0
48.487144,15.869995,Hausberg,322.0
48.49246,15.860269,Leeberg,288.0
48.49276,15.864319,Spielberg,346.0
47.652294,15.849895,Eselstein,982.0
47.805576,15.653846,Rabenwand,1187.0
47.809685,15.657466,Seiblingstein,1344.0
47.714973,15.504049,Hochalpl,1514.0
47.733814,15.509163,Rosskogel,1524.0
47.73124,15.5268755,Spielkogel,1599.0
47.715477,15.635948,Amaißbichl,1828.0
47.723434,15.604097,Große Burgwand,1612.0
47.703056,15.609711,Mooskogel,1788.0
47.7078,15.598256,Schusterstuhl,1875.0
47.703922,15.568727,Schönhaltereck,1860.0
47.699245,15.563435,Öde Kirche,1644.0
47.736378,15.983899,Nase,731.0
47.697067,15.997185,Burgstall,498.0
47.91531,15.50835,Geierstein,885.0
47.881744,15.567928,Paulmauer,1248.0
47.821835,16.103558,Kollerturm,460.0
47.525658,16.016861,Kogel,1289.0
48.036003,16.023525,Pankraziberg,599.0
47.935856,15.920677,Almesbrunnberg,1079.0
48.006645,15.994563,Gemeindeberg,769.0
47.970505,15.981254,Stein,470.0
47.97254,15.981701,Rosskopf,573.0
47.98044,15.964173,Kiengrabenhöhe,713.0
47.985714,15.940633,Sirnitzgupf,955.0
48.29981,16.306782,Buchberg,364.0
47.971474,16.192255,Harzberg,474.0
47.698936,15.678724,Gamseck,1857.0
48.2521,16.326164,Meiselberg,291.0
47.716644,16.1909,Schlossberg,440.0
47.86012,16.04797,Dürrenberg,664.0
47.566116,16.333603,Klosterberg,746.0
47.584682,16.339045,Pauliberg,761.0
48.259705,16.317034,Bellevuehöhe,388.0
47.900238,16.464897,Lebzelterberg,338.0
48.402653,15.519035,Nase,408.0
48.408447,15.522899,Vogelberg,546.0
48.334072,15.788711,Fuchsberg,266.0
48.33204,15.792542,Eichberg,255.0
47.9787,16.18656,Mondscheinkogel,464.0
48.019356,15.753691,Hainfelder Kirchenberg,924.0
47.63683,15.813453,Pinkenkogel,1290.0
48.427742,16.440165,Glockenberg,370.0
48.228043,16.230577,Ochsenkopf,397.0
47.51771,15.982426,Steinerne Stiege,1505.0
47.61869,16.177946,Kaltenberger Höhe,862.0
47.915882,15.866906,Schönbodenhöhe,1022.0
47.91693,15.90392,Geizenberg,922.0
47.91416,15.90122,Schindeltalberg,893.0
47.89043,15.88778,Ledererkogel,866.0
47.878803,15.900021,Teinberg,596.0
47.88962,15.91184,Arzkogel,654.0
47.88712,15.916569,Etschenberg,616.0
47.924374,15.859362,Rußkogel,1098.0
47.907154,15.840849,Schwabodenhöhe,765.0
47.875225,15.928977,Katzberg,767.0
47.872204,15.910694,Hornungkogel,657.0
47.874912,15.915652,Großer Edelstein,681.0
47.876736,15.918776,Kleiner Edelstein,680.0
47.722652,15.946302,Florianikogel,787.0
47.877888,16.136606,Kranzlkogel,524.0
47.869614,16.075148,Grillenkogel,453.0
47.85002,15.95754,Martersberg,918.0
47.845806,15.964668,Ungerberg,778.0
47.8325,15.955346,Nussberg,873.0
47.839874,15.959959,Weichselberg,862.0
47.81588,15.902379,Großenberg,923.0
47.7306,16.177961,Kogel,345.0
47.529854,15.835762,Inselberg,1409.0
48.11227,16.20845,Großer Flösslberg,583.0
48.11759,16.21616,Kleiner Flösslberg,510.0
48.116585,16.22808,Hinterer Föhrenberg,581.0
48.11757,16.22489,Teufelstein,546.0
47.603962,16.232988,Stickelberg,881.0
48.158726,16.109558,Tabor,428.0
47.869957,16.046394,Kogel,421.0
47.64982,16.194885,Hohe Wacht,735.0
47.80943,16.017607,Grafenbergturm,844.0
47.699966,15.66617,Grabnergupf,1553.0
47.80472,15.969926,Gelände,1023.0
47.652157,15.824395,Wolfsbergkogel,960.0
47.668503,15.818514,Kreuzberg,1084.0
48.319866,16.289043,Freiberg,392.0
48.41759,15.582455,Kuhberg,400.0
48.271194,15.585874,Wachtberg,497.0
48.33023,16.265772,Heuberg,387.0
48.323635,16.252235,Sonnberg,420.0
48.344437,16.258669,Eichenleitenberg,394.0
48.341915,16.247013,Totenkopf,352.0
47.715816,16.049318,Petersberg,414.0
47.643223,15.974549,Kalvarienberg,708.0
47.669907,16.03409,Eichberg,620.0
47.658234,16.045107,Kohlriegel,647.0
48.258713,16.024244,Kühberg,291.0
47.957367,16.055878,Höhenberg,652.0
47.637432,15.977947,Donnerkamm,817.0
48.195858,16.101994,Großer Wienerberg,452.0
48.166786,16.023014,Jochberg,425.0
48.153194,16.016344,Jochgrabenberg,645.0
48.151543,16.03068,Kaltleitenberg,582.0
47.629658,15.91477,Großer Otter,1356.0
47.548946,16.123808,Kulmariegel,818.0
47.632633,15.742433,Kampalpe,1535.0
47.635925,15.764367,Kerschbaumkogel,1480.0
47.64254,15.781099,Ochnerhöhe,1403.0
47.61872,15.850727,Dürriegel,1463.0
47.637726,16.151964,Windhagberg,718.0
47.65469,16.169813,Thernberger Riegel,680.0
47.64275,16.17136,Gsolberg,790.0
47.64178,16.175648,Sichberg,741.0
47.654903,16.195894,Tannenriegel,639.0
47.686157,16.144894,Schlossberg,617.0
47.671265,16.197292,Kerschbauerriegel,587.0
47.854473,16.469814,Fuchsberg,411.0
47.75646,15.865371,Hoher Hengst,1450.0
47.765095,15.874604,Niederer Hengst,1313.0
47.911377,16.440317,Hirschbühel,241.0
47.897594,16.475725,Steinberg,362.0
47.882336,16.147598,Henninger,485.0
47.647232,15.895881,Grassberg,1078.0
47.985096,15.983109,Vorderer Schönberg,772.0
47.989788,15.976106,Schönberg,790.0
47.987324,15.977384,Die Schön,805.0
47.629684,15.860275,Sonnwendstein,1523.0
47.5544,15.750805,Geiereck,1644.0
47.56509,15.741312,Oberer Moschkogel,1570.0
47.5706,15.733988,Unterer Moschkogel,1367.0
47.55835,15.763933,Grazer Stuhleck,1635.0
47.654114,15.579368,Arzbachhöhe,1012.0
47.654995,15.553077,Veitschbachhöhe,1310.0
48.272743,16.310955,Vogelsangberg,516.0
48.18584,16.034845,Hochbusch,436.0
47.74407,15.92409,Schafkogel,826.0
47.966686,15.974512,Trammel,598.0
47.96365,15.97509,Grugkogel,592.0
47.963448,15.9810095,Brandleiten,562.0
47.945377,15.946617,Steinwand,886.0
47.980686,15.827315,Gölsenmauer,719.0
48.020916,15.994068,Steinkampel,583.0
48.022327,15.988588,Wiegenberg,592.0
48.14814,16.205156,Hinterer Kaufberg,413.0
48.151222,16.20681,Vorderer Kaufberg,425.0
48.0161,15.807067,Steinkampl,702.0
47.648384,15.882426,Krenthallerwand,940.0
47.657455,15.764144,Kaltenberg,1302.0
47.722733,15.570777,Donnerwand,1799.0
47.641907,15.825665,Semmeringkogel,1166.0
47.634644,16.34217,Schlossberg,526.0
47.758648,16.297096,Gespitzter Riegel,594.0
47.784153,16.288074,Scheiben,352.0
47.733044,16.320501,Kogel,537.0
47.695114,16.255865,Bener,503.0
47.65875,15.807707,Polleroswand,979.0
47.658413,15.833285,Weinzettlwand,875.0
47.73429,15.93756,Lebachkogel,921.0
47.743347,15.946114,Hinterberg,873.0
47.6871,15.729651,Neukogel,1279.0
47.70031,15.7638645,Schwarzeckkogel,1026.0
47.699657,15.77593,Schendleck,874.0
47.689487,15.7476635,Johanneskogel,1206.0
47.687443,15.750586,Bärenriegel,1185.0
47.73162,15.77183,Schlageck,1210.0
47.74889,15.704137,Studierkogel,1395.0
48.210514,16.403093,Konstantinhügel,170.0
47.79424,15.904778,Hanslkogel,660.0
47.78763,15.905033,Granatzbühel,621.0
47.783123,15.908817,Falkhöhe,639.0
47.78372,15.85684,Lärchkogel,882.0
47.687428,16.230963,Gaisrücken,604.0
47.676025,16.299831,Hollerberg,727.0
47.661285,16.275064,Lusthausriegel,654.0
48.149887,16.001663,Scheibenberg,616.0
48.047333,16.125023,Kohlmaiß,428.0
48.058094,16.128792,Hradschin,329.0
48.06439,16.146994,Füllenberg,451.0
48.063976,16.13873,Klosterberg,434.0
48.06747,16.131615,Einsiedelberg,404.0
48.07196,16.151396,Großer Buchkogel,509.0
48.05756,16.176527,Sandriegel,411.0
48.073654,16.119646,Hocheck,443.0
48.051117,16.111359,Hühnerkogel,450.0
48.057293,16.11383,Priefamtannberg,426.0
48.053425,16.13399,Kleiner Bodenberg,376.0
48.03812,16.142124,Ebenberg,489.0
48.033302,16.145409,Kohlriegel,465.0
48.030315,16.15073,Schaberriegel,456.0
48.027393,16.162542,Steinwand,413.0
48.04877,16.160995,Reisetberg,445.0
48.01366,16.097437,Sießenkogel,578.0
48.016697,16.168442,Burgstall,378.0
48.025322,16.168228,Kleiner Kleespitz,412.0
48.034054,16.178354,Bühel,391.0
48.07791,16.21634,Sattelberg,370.0
48.081573,16.228321,Weißenbacher Kogel,347.0
48.088524,16.248339,Halterkogel,318.0
48.09207,16.23992,Hundskogel,433.0
48.10477,16.249762,Herzogberg,355.0
48.096478,16.268064,Großer Rauchkogel,307.0
48.09862,16.272593,Kleiner Rauchkogel,283.0
48.094933,16.274889,Hirschkogel,286.0
48.057198,16.082943,Naglberg,341.0
48.15025,16.072098,Gumperswartberg,465.0
48.165104,16.364029,Wienerberg,245.0
48.158054,16.395435,Laaer Berg,255.0
48.0383,16.00613,Ternbühel,575.0
47.636124,16.36175,Burgberg,544.0
48.188625,16.247433,Hagenberg,412.0
48.198822,16.249428,Nikolaiberg,268.0
48.45747,16.14318,Heidberg,262.0
48.212204,15.711487,Schildberg,393.0
48.04408,15.50049,Hochebenkogel,768.0
47.6881,16.47816,Borsó-hegy,387.0
48.372574,15.687664,Schiffberg,367.0
48.081753,16.493519,Andreasberg,220.0
47.796627,15.841158,Innerberg,999.0
48.328728,16.48903,Seyringer Rodelhügel,170.0
47.664837,16.456444,Bika-rét,516.0
47.655823,16.480747,Hermes-domb,519.0
48.371075,15.559184,Giritzer,399.0
48.170338,16.180143,Dreihufeisenberg,517.0
48.07042,16.248173,Brenntenberg,474.0
47.991196,16.171938,Vorderer Lindkogel,666.0
47.75472,16.016476,Auf der Kehr,792.0
47.73343,15.96085,Lebachberg,700.0
47.724632,15.970878,Eichberg,581.0
47.74604,15.93578,Mitterkogel,796.0
47.71653,15.987489,Göttscherberg,547.0
47.714058,15.997207,Lenzberg,538.0
47.707386,15.977661,Kohlberg,708.0
47.722694,15.893297,Schwarzenberg,1352.0
47.718147,15.906989,Hartriegel,1204.0
47.730785,15.908052,Kienberg,1240.0
47.705395,15.870861,Hochberg,993.0
47.764168,15.919209,Gratzenhöhe,711.0
47.726997,15.870312,Lärchbaumriegel,1313.0
47.697266,15.958813,Weißjacklberg,805.0
47.51916,16.176943,Seisbühel,687.0
47.58022,15.514626,Sommerberg,1111.0
47.582634,15.523906,Töschenkogel,1117.0
48.218338,16.181547,Purkersdorfer Eichberg,420.0
48.224037,16.183237,Buchberg,462.0
48.222454,16.18676,Rehgrabenberg,465.0
48.17652,15.931708,Kohlreithberg,516.0
48.0327,15.9866,Am Schacher,633.0
47.506935,15.657361,Jägerhöhe,1227.0
47.938553,16.122124,ehemals: Gugelzipf,430.0
48.07306,15.904447,Miesenberg,785.0
48.080048,15.889814,Wittenbachberg,846.0
47.65197,16.46421,Magas-bérc,557.0
48.03055,15.9380455,Hochbrand,544.0
47.639732,16.259436,Fürnberg,612.0
47.63092,15.779691,Ochsenkogel,1201.0
48.11929,16.199362,Doktorberg,430.0
47.659138,15.813591,Spießwand,915.0
47.6467,15.82992,Kartnerkogel,974.0
47.86675,15.870619,Fuchsstein,716.0
48.0015,16.074629,Dernberg,640.0
47.979404,16.098854,Wolfsgeistberg,489.0
47.955143,15.603878,Teufelskanzel,851.0
48.05826,15.98864,Rauchkogel,603.0
48.06363,15.94804,Hirschenstein,785.0
48.071762,16.251469,Matterhörndl,456.0
48.082245,15.985387,Lammerauberg,648.0
48.11905,16.212044,Löwenkopf,393.0
48.32414,16.23168,Schneiderzipf,373.0
47.621456,16.069086,Hollabrunner Riegel,922.0
48.21471,16.041645,Krakingberg,412.0
48.163532,16.001266,Steinhutberg,458.0
47.986618,16.161331,Manhartsberg,608.0
47.64826,15.84633,Georgskogel,999.0
48.27734,16.20544,Heuberg,477.0
48.277008,16.17896,Hirschberg,439.0
48.30147,16.187428,Wolfpassinger Berg,404.0
47.654217,15.771285,Kleiner Kaltenberg,1195.0
47.642563,15.741737,Windmantel,1534.0
47.645927,15.726135,Tratenkogel,1565.0
47.638824,15.723582,Hohe Wand,1409.0
47.66644,15.727728,Sitzbichl,1212.0
47.65492,15.741439,Stiegerinwand,1113.0
47.65568,15.744459,Sandbühel,1171.0
47.65953,15.792443,Falkenstein,1009.0
47.86602,15.513085,Sonnkogel,1190.0
47.878864,15.61214,Torecker Kogel,756.0
48.006645,16.028122,Tassberg,597.0
48.25308,16.26792,Gränberg,462.0
48.15933,16.033916,Kaiserbrunnberg,576.0
48.471664,15.798879,Hengstberg,371.0
47.934856,15.758776,Kleinzeller Fels,1061.0
48.176273,16.023615,Buchberg,428.0
48.174793,16.030237,Grasleiten,440.0
48.134773,16.062208,Hengstlberg,619.0
48.49341,16.477314,Steinberg,305.0
48.328476,15.770674,Seelackenberg,349.0
48.327522,15.762386,Reutbühel,350.0
48.287987,15.813683,Pottschallkogel,285.0
48.312584,15.831361,Reidlingberg,325.0
48.284187,15.825159,Seelackenberg,292.0
48.278824,16.2382,Kropfeiche,495.0
48.481224,15.834351,Eisenhut,350.0
48.295006,16.246933,Hohenau,455.0
48.199112,16.31909,Auf der Schmelz,240.0
48.47919,15.503633,Waxenberg,578.0
48.036713,15.5557165,Staff,740.0
47.90792,15.626387,Singerwarte,622.0
48.15635,16.213814,Kaiserzipf,339.1
48.159008,16.283222,Rosenhügel,258.0
47.80973,16.02717,Springlesturm,739.0
48.076664,16.1678,Kreuzriegel,417.0
47.65954,16.390665,Brenntenriegel,606.0
47.62839,15.731266,Baumkogel,1416.0
48.40723,15.540769,Hengelwand,510.0
47.697563,16.306833,Heuberg,748.0
47.87602,16.455032,Friedhofsberg,361.0
48.0257,16.0498,Kienberg,682.0
47.63505,15.689074,Große Scheibe,1473.0
47.649677,15.653921,Karnsteinerkogel,1121.0
47.651955,15.673481,Lärchenkogel,1096.0
47.64672,15.763408,Bärenwand,1250.0
47.66849,15.866994,Kobermannsberg,925.0
47.665966,15.845266,Kienberg,915.0
47.66881,15.837434,Totenberg,992.0
47.666683,15.832652,Sommerhöhe,1011.0
47.681183,15.830559,Stojerhöhe,810.0
47.932278,15.621993,Weinberg,839.0
47.908165,15.635309,Buchberg,799.0
47.901283,15.606506,Wiesberg,757.0
47.893,15.591426,Obernberg,911.0
47.53562,15.719714,Steinriegel,1577.0
47.981205,15.848645,Brandlspitz,768.0
48.206722,16.24152,Bierhäuselberg,271.0
47.81111,15.6994,Pfarrkogel (Hauskogel),740.0
47.811,15.693708,Hirschkogel,919.0
47.815575,15.630919,Bärenköpfl,1416.0
47.81404,15.624552,Preineckkogel,1449.0
47.795906,15.600747,Perschkogel,1612.0
48.113823,16.221106,Mugl-Höhe,556.0
47.567642,15.821396,Grabmayr-Kogel,1495.0
48.115326,16.218496,Dreiecker,562.0
47.66707,15.749601,Kogeltor,926.0
47.754925,15.959464,Asandberg,898.0
47.75713,15.935729,Schacher,906.0
47.75343,15.914595,Bischofkogel,842.0
47.726562,16.4978,Krippelberg,349.0
48.46011,15.981375,Kugelberg,228.0
47.66017,15.848696,Pfefferwand,821.0
47.756077,15.679692,Vogelkirchen,996.0
47.75828,15.694499,Saurüssel,875.0
47.74983,15.664414,Rauchkogel,1262.0
47.7488,15.6618805,Sutten,1206.0
47.750427,15.651038,Betriegel,1355.0
47.780495,15.719882,Großer Fegenberg,1185.0
47.78648,15.70884,Gmoaleiten,1109.0
47.787167,15.695779,Kleiner Fegenberg,1134.0
47.77456,15.680946,Hubmerkogel,1282.0
47.775997,15.671494,Zwieselmauer,1236.0
47.772053,15.674587,Sulzkogel,1105.0
47.779694,15.673328,Hochkogel,1082.0
47.78142,15.65462,Mitterberg,1429.0
47.782967,15.648528,Kuhriegel,1417.0
47.76165,15.725575,Spielmannkogel,1173.0
47.757793,15.726819,Hainboden,1268.0
47.75334,15.764768,Schwarzkogel,914.0
47.73339,15.79878,Turmstein,812.0
47.744255,15.79397,Hochgang,1217.0
47.711426,15.786526,Sengerkogel,1264.0
47.78009,15.761515,Fronbachkogel,1445.0
47.71749,15.828695,Feichtaberg,1382.0
47.729332,15.840366,Mitterberg,1230.0
47.74494,15.84168,Alpl,1579.0
47.78586,15.76238,Hochkogel,1486.0
47.79182,15.76325,Wirtshauskogel,1484.0
47.782295,15.773586,Eigenbauerkogel,1497.0
47.793392,15.771849,Laudonkogel,1522.0
47.792416,15.784269,Rötlingstein,1532.0
47.79007,15.7697,Saukogel,1545.0
48.101276,16.180962,Vorderer Langenberg,592.0
47.811047,15.7905855,Schafkogel,862.0
47.787903,15.78065,Kleinrehgrubenberg,1542.0
47.785206,15.788961,Schwarzkogel,1521.0
47.78027,15.791264,Kögerl,1513.0
47.77876,15.78247,Ochsenboden,1525.0
47.764854,15.823253,Schwarzriegel,1865.0
47.7774,15.81165,Festenkogel,1973.0
47.76392,15.814723,Miesriegel,1907.0
47.79887,15.8081045,Stritzelberg,1182.0
47.80565,15.80763,Hoher Schupfen,894.0
47.78884,15.77497,Kuhschneeberg,1557.0
48.01121,15.8628645,Araberg,809.0
47.769993,15.854686,Wiege,952.0
47.72079,15.712217,Waxriegel,1913.0
47.732227,15.706263,Schneekogel,1736.0
47.73171,15.690009,Raunerkögeln,1547.0
47.764683,15.651435,Schwarzriegel,1337.0
47.767067,15.617365,Donnerkogel,1617.0
47.759697,15.609023,Rauchstein,1525.0
47.813972,15.595378,Ursprungkogel,959.0
47.821625,15.589387,Heimhöh,903.0
47.82516,15.59363,Brandstätterkogel,751.0
47.827896,15.612477,Hofstadlerkogel,826.0
47.82046,15.61816,Bäckerkogel,1127.0
47.831043,15.638098,Geißstein,974.0
47.831367,15.626271,Mitterriegel,982.0
47.83626,15.593246,Saurecker Kogel,830.0
47.78824,15.79089,Windlöcherhöhe,1476.0
47.774902,15.903559,Buchberg,852.0
47.76745,15.902085,Kienberg,913.0
47.767014,15.892996,Hauslitzkogel,882.0
47.760372,15.92113,Postlberg,768.0
48.17979,16.092445,Bihaberg,375.0
47.78746,15.607686,Gscheidlhöhe,1156.0
48.19618,16.124372,Brunnberg,390.0
47.610916,15.820956,Peterbauerkogel,1355.0
47.614033,15.8175,Erzkogel,1321.0
47.760475,15.502836,Sulzriegel,1189.0
47.768333,15.573487,Mitterberg,1496.0
47.687767,15.71827,Entenhügel,1415.0
48.20639,15.558003,Hofinger Höhe,294.0
47.89861,16.05842,Pfaffenstein,646.0
47.835514,15.811232,Achetecriegel,789.0
47.83864,16.002014,Klausenriegel,774.0
47.59058,15.798406,Hocheck,1488.0
47.588966,15.769926,Hühnerkogel,1388.0
48.377254,15.527434,Gochelberg,424.0
48.378212,15.506587,Pemexel,506.0
48.382645,15.514645,Toter Berg,454.0
47.895016,16.031788,Kleiner Rosenkogel,766.0
48.266068,16.206318,Scheiblingsteinberg,509.0
47.71212,15.661821,Hohe Nass,1259.0
48.450027,15.523061,Hiesberg,582.0
48.440514,15.54892,Scheiblberg,486.0
47.73555,15.553872,Hohes Waxenegg,1647.0
47.695816,15.989081,Steinparz,498.0
47.82793,15.81667,Heinrichswand,1011.0
48.29313,15.813736,Eichberg,273.0
48.285103,15.760627,Weichselberg,310.0
47.73067,15.93409,Auf dem Hals,975.0
47.700012,15.890167,Grillenberg,812.0
47.56912,15.681953,Bärenkogel,1168.0
48.274174,16.245617,Taferlberg,465.0
48.25777,15.71205,Grassberg,341.0
47.80074,15.92274,Schafkogel,715.0
48.07423,16.037693,Kirschleiten,617.0
48.066338,16.010063,Großer Kuhberg,658.0
47.770927,15.808025,Donnerkogel,2047.0
48.14375,16.276667,Sauberg,259.0
47.6638,16.07084,Kulmberg,684.0
47.799377,15.642033,Mistelkogel,916.0
48.18581,16.055275,Hohlensteinberg,443.0
48.181843,16.035519,Reschelberg,413.0
48.13949,16.049002,Dachsbauberg,529.0
48.154114,16.096258,Käferleitenberg,500.0
48.060265,16.49242,Kuckuckberg,210.0
47.558308,16.358957,Heidriegel,659.0
47.78968,15.544857,Schnalzstein,1546.0
47.827507,15.672181,Adamsalpe,935.0
47.90759,15.804524,Kampeck,845.0
47.91011,15.794198,Kienkogel,915.0
47.907036,15.724329,Rohrkogel,1053.0
47.84876,15.67138,Sulzberg,1021.0
47.840477,15.680325,Urkogel,813.0
47.901913,15.794145,Winsaschneid,858.0
48.178154,16.308668,Schönbrunner Berg,241.0
47.741177,15.862283,Gfäll,1292.0
47.755775,15.891038,Sattelberg,920.0
47.75338,15.76778,Verlorener Turm,863.0
47.622475,15.754939,Bärenwand,1047.0
47.59611,15.69878,Schallerkogel,866.0
47.900143,15.906383,Eichberg,793.0
47.8972,15.919343,Altöd,717.0
47.666588,15.627941,Greithberg,1090.0
47.553505,16.326397,Pfefferriegel,632.0
47.72246,15.545725,Draxlerkogel,1354.0
47.71168,15.57359,Gläserkogel,1746.0
47.709126,15.55544,Hirscheck,1668.0
47.7266,15.560919,Kleines Waxenegg,1682.0
47.700897,15.536976,Eisentörl,1346.0
47.71664,15.543562,Schwarzkogel,1383.0
47.713703,15.911277,Rote Wand,1150.0
47.994022,16.15944,Hinterer Lindkogel,702.0
47.95226,16.153414,Vogelsang,390.0
47.81663,16.0327,Leitergrabenturm,744.0
47.742638,16.36315,Kogelberg,356.0
47.71533,16.445724,Wieserberg,313.0
48.208855,15.81524,Hausberg,351.0
48.02025,16.1871,Schwarzberg,341.0
47.6753,16.40036,Hochkogel,454.0
47.681175,16.400835,Gruskogel,491.0
47.703808,16.37326,Reisnerkogel,443.0
48.47767,15.621794,Auberg,347.0
48.47693,15.576406,Galgenberg,383.0
48.48741,15.595043,Spießberg,426.0
47.679302,16.484056,Felső-Tödl,402.0
48.053738,16.194054,Honigspitz,343.0
47.833015,15.920757,Katharinenschlag,1223.0
47.775013,15.78173,Rote Wand,1520.0
47.766216,15.928191,Anzberg,797.0
48.03208,15.577862,Osterkogel,778.0
48.124367,16.437403,Drei-Bäume-Berg,202.0
48.288826,15.868903,Schusterberg,262.0
47.67341,16.453386,Rideg-bérc,486.0
47.661213,16.440552,Vörös-bérc,528.0
47.94754,15.856462,Kirchwaldberg,1068.0
48.229115,16.127966,Peilerstein - Ostgipfel,436.0
47.53904,16.088911,Samberg,729.0
47.547523,16.090313,Hartberg,631.0
47.94267,15.94006,Schwarzwälder Kogel,950.0
48.1161,16.264463,Hochberg,310.0
47.631683,15.621889,Mahdtalkogel,1228.0
48.172104,16.067356,Kleiner Pfalzberg,441.0
48.138603,16.191658,Königsbichl,311.0
48.14988,16.145798,Plattenberg,458.0
48.23933,16.042286,Hohe Warte,401.0
47.607,16.305376,Sperkerriegel,770.0
47.94665,15.932755,Gaisstein,1011.0
47.530533,16.064661,Möslberg,807.0
47.914658,15.805633,Bindergrabenhöhe,876.0
47.52768,15.795703,Retteneggkogel,1101.0
47.545174,15.833986,Spreitzhoferhöhe,1423.0
47.534264,15.807959,Heißenkogel,1220.0
47.52437,15.804366,Voreck,1120.0
48.209152,15.787146,Kronberg,348.0
48.153774,15.764083,Hummelberg,383.0
48.175964,15.783496,Eichberg,418.0
47.949883,15.626979,Rotenstein,1126.0
47.669357,16.224922,Eichleiten,582.0
47.65481,15.717842,Gamskogel,1248.0
47.533943,16.293064,Klausriegel,642.0
47.5331,16.316708,Tannbichl,621.0
47.512978,16.218475,Glanzenriegel,686.0
47.555664,16.220829,Nestbauernriegel,805.0
47.576935,16.182394,Ebenhofer Höhe,861.0
47.678787,15.862835,Kotstein,822.0
48.03478,16.239279,Kleiner Schweinkogel,537.0
48.036606,16.239437,Großer Schweinkogel,565.0
48.03941,16.237194,Lehnstuhl,589.0
48.063206,16.241444,Steinwand,491.0
47.744682,15.807232,Brandschneide,1165.0
47.740288,15.809011,Brettschacher,1012.0
47.72998,15.85443,Lackabodenkogel,1141.0
47.74462,15.820287,Bretterbodenmauer,1170.0
47.749943,15.792064,Stadelwandhöhe,1407.0
47.685944,15.519282,Blahstein,1563.0
47.759953,15.764748,Krenkenkogel,1182.0
47.791496,15.789091,Hirschenmauer,1454.0
47.77464,15.79897,Schauerstein,1866.0
47.71946,15.685739,Steiger,1493.0
47.75114,15.78191,Lärchkogel,1164.0
48.149216,16.244884,Antonshöhe,356.0
47.80436,15.799781,Rauchkogel,921.0
47.7232,15.75472,Losbühel,1621.0
47.712242,15.7588005,Jakobskogel,1737.0
47.70679,15.7526,Hohe Kanzel,1699.0
47.70683,15.745475,Weißkogel,1765.0
47.709976,15.7449,Loskogel,1714.0
47.594814,15.669755,Ganzstein,871.0
47.944145,16.14605,Höllriegel,357.0
47.93936,16.158531,Zeiserbiegl,326.0
48.291092,16.163736,Eichberg,394.0
47.958477,16.102367,Kahlkopf,418.0
48.11068,16.22064,Salzstanglspitz,542.0
48.11892,16.2306,Parasolspitz,545.0
48.10046,16.21099,Schneerosenspitz,496.0
48.041462,15.522279,Geisberg,752.0
48.21888,16.20574,Hühnersteigberg,408.0
47.72704,15.68128,Scheibwaldmauer,1464.0
48.076954,15.971318,Eigerin,674.0
48.068733,15.960995,Großer Hollerberg,776.0
47.76464,15.526852,Dürre Kögel,1057.0
47.709656,16.261341,Sulzriegel,496.0
48.1404,16.01325,Kleingernberg,534.0
47.695335,16.313066,Rauher Stein,716.0
48.08779,15.66651,Katzelhofer Höhe,673.0
47.88136,16.04717,Vordere Mandling,927.0
47.72395,16.29101,Steinkogel,640.0
47.500816,15.743011,Steinkogel,1031.0
47.55391,15.657212,Jockellandkogel,1050.0
47.550087,15.66895,Königskogel,1363.0
47.5389,15.657412,Hiasbauerhöhe,1409.0
47.54871,15.642868,Hirschkopf,1193.0
47.551403,15.635916,Sulzkogel,1148.0
47.537125,15.636377,Kaiserkogel,1393.0
47.532692,15.624425,Wackenberger Kogel,1290.0
47.537647,15.613252,Assantberg,1078.0
47.519844,15.653307,Kressbachhöhe,1274.0
47.55827,16.173222,Kühriegel,896.0
47.745556,15.765408,Wachthüttelturm,758.0
47.5191,15.7422495,Kogel,1165.0
47.72995,15.757028,Hochkarturm,1212.0
47.961533,16.180227,Leopoldshöhe,307.0
47.55183,16.25778,Lebenriegel,753.0
47.73831,15.760702,Preintalerturm,1060.0
48.03244,16.2559,Heferlberg,321.0
48.0459,16.26898,Kalvarienberg,357.0
48.02832,16.25698,Sattelriegel,281.0
47.703293,15.52679,Schafkogel,1444.0
47.694424,15.517319,Blühboden,1530.0
47.838596,15.752696,Bodingmauer,1021.0
47.82899,15.75108,Großer Wildföhrenstein,1225.0
47.7274,15.75733,Kochkarkogel,1415.0
48.01724,16.039278,Hollerberg,607.0
47.73987,15.803344,Brettschacherspitze,925.0
48.15979,15.709581,Loitzenberg,434.0
48.047527,16.013494,Scheitermais-Berg,674.0
47.509926,15.846695,Mieseck,1385.0
47.502686,15.857885,Herrenstein,1446.0
47.501316,15.810636,Blasenkogel,1313.0
47.760506,15.593875,Steinerkogel,1592.0
47.6968,15.85026,Ober-Atzberg,555.0
47.7119,15.85222,Karlshöhe,831.0
47.620758,16.448034,Häuslspitz,433.0
48.26165,16.308609,Pfaffenberg,415.0
47.73803,16.44436,Schreindlberg,354.0
48.09025,15.918575,Hinterschöpfl,858.0
47.681866,15.557848,Kuhkogel,1047.0
47.90978,15.58607,Stadelbergkamm,944.0
48.104687,15.572946,Heuberg,483.0
48.172035,16.321749,Flohberg,233.0
47.943043,15.924357,Penseck,1006.0
47.696503,16.336521,Geißspitz,565.0
47.68748,16.314545,Hartlspitz,708.0
48.368885,15.625568,Grünberg,352.0
48.36013,15.614816,Predigtstuhl,435.0
48.13855,16.242281,Venusberg,293.0
47.614864,15.587553,Rosskogel,1479.0
48.211735,16.277752,Lemoniberg,345.0
48.12804,16.06737,Mitterriegel,614.0
48.123585,16.07458,Hinteres Brunneck,558.0
48.108406,16.020332,Mitterriegel,495.0
48.21693,16.331505,Kalvarienberg,205.0
47.90766,15.870391,Kalbenschweighöhe,959.0
48.15323,16.45674,Leberberg,175.0
47.896347,15.996333,Hohlkogel,823.0
48.031532,16.225029,Gaisrücken,475.0
48.02011,16.22839,Richtberg,417.0
47.732,15.76298,Hocheck,1368.0
47.75421,15.73533,Oberförstereck,1203.0
48.092525,16.146658,Rohrkogel,516.0
47.70736,15.57843,Kramerin,1833.0
47.788555,16.099552,Pfaffenstein,354.0
47.73243,15.749194,Gelber Turm,1160.0
47.75676,15.645409,Kleiner Sonnleitstein,1408.0
47.74666,15.631148,Lettingkogel,1393.0
47.747448,15.643069,Ohnemoaßkogel,1454.0
48.08556,16.144705,Weinberg,475.0
48.04541,16.20138,Lauskogel,360.0
48.111267,16.118574,Brunstriegel,502.0
48.11413,16.069677,Am Eibeck,464.0
48.131546,16.101318,Grafenberg,527.0
48.03622,16.069122,Heiderberg,517.0
48.04261,16.082989,Kritschenkogel,464.0
48.04478,16.062014,Hinterer Haunoldberg,467.0
48.05966,16.005291,Kleiner Kuhberg,586.0
48.073597,16.027527,Wienerleiten,651.0
48.063496,16.057613,Weinberg,506.0
48.075706,16.069054,Haneflandeck,476.0
47.972286,16.101725,Hausberg,497.0
48.187313,16.111774,Kleiner Wienerberg,363.0
47.6956,15.709926,Predigtstuhl,1899.0
47.696163,15.707514,Lichtensternhöhe,1902.0
47.70157,15.684817,Kuhwamper,1763.0
48.498936,15.688868,Kogelberg,307.0
48.487377,15.637267,Loiser Berg,381.0
47.713657,15.765975,Törlkopf,1607.0
47.66867,15.90901,Gotschenkogel,760.0
47.89924,15.588721,Kiensteinberg,1037.0
48.442036,15.695244,Gobelsberg,303.0
48.42618,15.595809,Maißberg,332.0
48.486515,15.659236,Schilterner Berg,364.0
47.513664,15.81203,Prinzkogel,1273.0
47.51605,15.791066,Kalteneggkogel,1125.0
47.934982,15.667665,Stadlerwand,896.0
48.368114,15.602862,&quot;HALS&quot;,297.0
47.91463,15.611325,Sturmkogel,692.0
48.327522,15.622676,Kleiner Anzingerberg,380.0
47.847187,16.47761,Rohrbrunnberg,364.0
48.03707,15.882045,Kleinreither Höhe,734.0
47.624702,16.488274,Winigberg,400.0
48.052113,16.039387,Höherberg,657.0
48.03481,16.039818,Fichtenbühel,546.0
48.042656,16.04645,Tenneberg,489.0
48.048424,16.08027,Kleiner Buchberg,423.0
48.02479,15.967864,Reisberg,597.0
48.03022,15.948352,Gaisholzhöhe,533.0
47.923496,16.124237,Hühnerkogel,462.0
47.972065,15.706092,Kleinzeller Eisenerzberg,1056.0
47.827713,15.648083,Kienriegel,912.0
47.83519,15.6443205,Spitzkogel,923.0
47.827072,15.730306,Freudentaler Mauer,1339.0
48.068256,15.624105,Steinwandleiten,734.0
48.2955,16.283754,Haschberg,400.0
47.66452,15.543809,Schafkogel,1135.0
47.658394,15.535333,Erzberg,1052.0
47.67405,15.512879,Lärchsteinwand,1201.0
47.876118,16.464344,Brunnenberg,446.0
48.27398,16.26121,Ramberg,415.0
48.47781,16.4361,Ochsenberg,350.0
47.505013,15.610992,Granegg,1205.0
47.967514,16.1913,Kahler Berg,404.0
47.90349,15.81974,Nesselgrabenhöhe,682.0
47.89779,15.78747,Pflugschlaghöhe,892.0
48.459625,16.062172,Dauersberg,356.0
48.468018,16.065502,Altenberg,383.0
47.79959,15.529097,Schwarzkogel,1384.0
47.768887,15.681869,Sonnleiten,1052.0
47.587124,15.820827,Wetterkreuz,1253.0
47.66621,15.555986,Kuhhörndl,1047.0
47.65442,15.631078,Kohlberg,847.0
47.65608,15.622473,Stelzer,946.0
47.67585,15.69248,Giglgupf,1356.0
47.66517,15.690118,Brandlberg,1160.0
47.675156,15.679657,Bärenkogel,1272.0
47.66637,15.670259,Schafkogel,1080.0
47.69119,15.6684885,Gsolriegel,1442.0
47.680904,15.626035,Bohnkogel,1094.0
47.66798,15.649863,Eselberg,1051.0
47.75127,15.557735,Klauskogel,1151.0
47.75208,15.544442,Herzmäuer,1126.0
47.836437,15.710886,Ödenrücken,814.0
47.59431,15.600998,Lärchkogel,1237.0
47.5877,15.606251,Hahnriegel,1070.0
47.71379,15.69008,Torpfeiler,1484.0
47.73056,15.653019,Gamskogel,1031.0
47.676407,16.410963,Dreimarkstein,507.0
47.727455,15.629134,Eisenkogel,1513.0
47.731,15.635422,Natternspitz,1316.0
47.67794,15.666957,Nasseck,1220.0
48.28337,16.267857,Kammersberg,392.0
47.696316,15.609249,Schauerkogel,1788.0
47.71341,15.698791,Grieskogel,1786.0
48.268677,16.343822,Nußberg,342.0
47.838985,15.665568,Rennriegel,829.0
47.834663,15.659877,Zwölferkogel,912.0
47.959194,15.707252,Brandstätterkogel,1038.0
47.592804,16.42849,Fuchsriegel,380.0
47.85214,16.009207,Kreuzstein,747.0
48.157787,16.201937,Laaber Kaiserzipf,381.9
47.505566,16.046333,Windbichl,916.0
48.49918,15.94866,Parnass,239.0
47.8559,15.5651245,Wilder Eckstein,615.0
47.568577,15.555122,Busseggerkogel,960.0
48.46364,15.963804,Kreuzberg,334.0
48.43299,15.90471,Bromberg,227.0
48.27032,16.355515,Burgstall,295.0
47.672337,15.529882,Falkenstein,979.0
47.88029,15.65288,Hochkogel,898.0
47.7468,15.61065,Glatzeter Kogel,1594.0
47.738182,15.605757,Große Goldgrubenhöhe,1425.0
47.73704,15.593805,Kleine Goldgrubenhöhe,1227.0
47.74371,15.593677,Grassgrabenhöhe,1474.0
47.747017,15.505117,Seekogel,1030.0
47.717,15.722982,Hohe Lechnerin,1926.0
48.146915,16.252665,Georgenberg,330.0
48.154015,16.282574,Steinberg,252.0
48.26586,16.33071,Krapfenwaldl,354.0
48.274952,16.136248,Herrenberg,428.0
48.071884,16.079792,Weißenwegberg,519.0
48.123314,16.236467,Kalter Waidberg,496.0
48.241283,16.077007,Klosterberg,422.0
48.238857,16.092459,Saubühel,425.0
48.07206,16.088547,Steinkampl,505.0
48.308434,16.375801,Lanerberg,304.0
47.54092,15.819004,Reithbauerhöhe,1301.0
47.553383,15.795068,Rennbauerhöhe,1369.0
48.11795,16.23392,Hohe Mais,516.0
48.258736,16.296652,Neuberg,418.0
48.222115,16.340258,Ganserlberg,211.0
47.707188,15.631858,Schauerwand,1819.0
47.73117,15.67227,Goppenmauer,984.0
48.082443,15.920637,Mitterschöpfl,881.0
47.778606,15.620173,Lahnberg,1594.0
47.670845,16.48834,Görbe-halom,420.0
47.67439,16.497751,Bögöly-hegy,380.0
48.217655,16.078728,Heinratsberg,513.0
48.13989,16.178679,Vorderer Steingrabenberg,432.0
48.401844,16.313347,Toblerberg,355.0
48.400913,16.354454,Kogel,239.0
48.427235,16.32186,Höchberg,347.0
48.41964,16.341501,Dahberg,279.0
48.42536,16.401379,Scharreiterberg,294.0
48.17054,16.169758,Laabersteigberg,530.0
48.13929,16.23527,Alter Kuhstand,310.0
48.02959,15.56731,Höhenberg,863.0
48.05914,16.068766,Ölberg,397.0
47.66006,16.494432,Havas-bérc,462.0
48.09656,16.159359,Sulzberg,608.0
47.97392,15.507708,Hochkogel,1063.0
48.14472,16.074692,Große-Wien-Berg,513.0
48.149628,16.085592,Kronobetkogel,493.0
48.08761,16.051508,Kronawetberg,495.0
48.08744,16.041193,Vorderer Haag,491.0
48.046814,16.076706,Vorderer Haunoldberg,471.0
48.14118,15.987281,Hochstraßberg,592.0
48.146732,15.929073,Soosberg,442.0
48.279068,16.227114,Fuchsgrabenberg,471.0
48.10589,16.19644,Gaisberg,602.0
47.704002,15.90105,Haberlerkogel,910.0
47.72683,16.392746,Hirschgreut,317.0
47.716286,15.57257,Kitzberg,1581.0
47.70806,15.562739,Seichstein,1757.0
47.70624,15.527613,Buchalpl,1422.0
47.69682,15.501007,Kohlmaißwand,1533.0
47.616043,16.357805,Goldvater,510.0
47.604733,16.370852,Mauerberg,460.0
47.829884,16.395493,Goldberg,274.0
47.656666,16.292307,Gerichtsriegel,651.0
47.66751,16.296421,Kuhberg,687.0
47.95512,15.921609,Mitterberg,964.0
47.90884,16.099512,Steinkamperl,442.0
48.420387,15.523882,Jägerberg,561.0
47.88814,16.04915,Mandlingstein,926.0
47.88492,16.09868,Hohe Satz,527.0
47.88191,16.09696,Hofmühlleiten,524.0
47.960827,15.874174,Kieneck,1106.0
47.607243,16.292349,Moiserriegel,752.0
48.257206,16.276999,Zwei Gehängte,442.0
47.570408,16.269266,Fronriegel,673.0
47.58675,16.280762,Saurüssel,705.0
47.590008,16.271664,Ameisberg,742.0
47.61582,16.024519,Kapfenberg,785.0
47.644714,16.016031,Kienberg,777.0
47.642414,16.044825,Hohenberg,783.0
47.65068,15.976095,Tachenberg,703.0
47.637493,15.990783,Karlshöhe,920.0
47.600063,16.017546,Schwaighoferriegel,656.0
47.674892,15.915354,Schafkogel,624.0
47.666138,15.895393,Eichberg,818.0
48.30655,16.221165,Plöckingberg,397.0
48.327774,16.38949,Veitsberg,312.0
48.315937,16.376257,Riegelkamm,338.0
48.31712,16.381687,Falkenberg,340.0
48.48942,15.722122,Heiligenstein,360.0
47.831306,15.5151415,Sonnberg,1123.0
47.839844,15.516214,Steinhofer Kogel,1114.0
47.97557,15.523773,Rote Mauer,910.0
47.875477,15.571784,Starkhöhe,1181.0
47.878002,15.562477,Brunstriegel,1130.0
47.87809,15.526751,Hochkogel,864.0
47.911724,15.5525,Schusskogel,952.0
47.899357,15.506424,Heidlhöhe,596.0
47.886707,15.504562,Salzstein,837.0
47.925934,15.514927,Bürgerriegel,713.0
47.907295,15.517437,Schobergupf,964.0
47.988987,15.521129,Schober,973.0
47.900764,15.641956,Hinterberg,694.0
47.992153,15.588827,Kolmberg,943.0
48.00825,15.534153,Lindenberg,945.0
48.03538,15.576929,Tarschberg,816.0
48.02139,15.544895,Pechberg,861.0
48.00931,15.559565,Schrambacher Berg,790.0
48.067627,15.692586,Schwarzengruberhöhe,676.0
48.051014,15.677968,Hippler Kogel,539.0
47.999092,15.840767,Sonnstein,835.0
48.014,15.9391985,Haltriegel,569.0
48.067734,15.581545,Ehrenecker Kogel,591.0
48.0591,15.595892,Halterberg,502.0
47.69196,15.596706,Grünkogel,1813.0
47.6847,15.640707,Erzberg,982.0
48.237904,16.15523,Schafkogel,385.0
47.700283,15.595452,Hoher Klapf,1865.0
47.696747,15.597855,Niederer Klapf,1785.0
48.0256,16.026531,Gaiskogel,474.0
48.020428,16.011961,Tamberg,563.0
48.029556,16.015226,Hafnerriegel,585.0
48.02163,15.971023,Griesberg,525.0
48.011414,15.976112,Schönbühel,524.0
48.011158,15.969051,Kreuzbühel,501.0
47.98036,15.978983,Rehgraser Schön,605.0
47.988293,15.985965,Guglhofer Schön,641.0
48.017185,16.076221,Gespenstberg,537.0
48.08939,15.945684,Vorderschöpfl,711.0
48.29724,16.26607,Sachsberg,411.0
48.4383,16.48148,Am Hirschen,280.0
47.701,15.703606,Schneekogel,1781.0
47.6634,15.668322,Arzberg,1065.0
47.78735,15.84433,Predigstuhl,773.0
48.090252,16.255548,Grillenbühel,319.0
47.534523,15.694593,Peterbauer-Steinriegel,1449.0
48.337116,15.553679,Satzberg,589.0
47.50963,15.872593,Breiteck,1462.0
48.26828,16.21204,Hirschberg,490.0
48.26892,16.06566,Weinriegel,312.0
48.270706,16.10312,Grillparz,307.0
48.285572,16.200205,Kogelberg,413.0
47.62306,15.606825,Lärchkogel,1266.0
48.463665,16.329105,Praunsberg,344.0
47.914185,15.78084,Holzkogel,933.0
47.96287,15.832397,Fischbachhöhe,882.0
47.95796,15.839052,Hartalgupf,998.0
48.153465,16.273863,Reiterberg,256.0
48.37124,16.40512,Rinnersteig,303.0
48.364136,16.40068,Stettner Berg,278.0
48.34664,16.399118,Tradenberg,288.0
48.354015,16.403564,Töbelberg,257.0
48.339626,16.400528,Kronawettberg,300.0
48.33979,16.393398,Veiglberg,284.0
47.900967,15.977343,Wolfskogel,576.0
48.16248,15.991055,Potzenstein,456.0
48.09583,15.825009,Bolsenhöhe,634.0
48.130608,15.826716,Schönberg,571.0
48.129543,16.120152,Hochleiten,529.0
48.132847,16.083462,Kuhleitenberg,561.0
48.10636,16.151941,Totenkopf,481.0
48.091564,16.136675,Festleitenberg,516.0
48.09412,16.116991,Aberstatt,485.0
48.087585,16.11831,Hetzenberg,480.0
48.10691,15.930509,Hametberg,602.0
48.1096,15.994791,Kleinkrottenbachberg,482.0
48.106575,15.914461,Kramhofer Höhe,581.0
48.20205,15.967081,Eichberg,384.0
48.1844,16.044863,Redelberg,423.0
48.210796,16.071486,Hinterer Steinberg,442.0
48.2061,16.0592,Eilandberg,428.0
48.222187,16.085478,Rauchleiten,500.0
48.130337,16.265926,Soßenhügel,268.0
48.280006,15.971089,Mitterberg,283.0
48.0501,16.13913,Großer Bodenberg,504.0
48.424004,16.3109,Höhlberg,323.0
48.32007,16.21211,Kumenberg,288.0
48.315952,15.543615,Kogel,572.0
48.32223,15.535633,Ammering,598.0
48.331326,15.512524,Lausbühel,550.0
48.3489,15.53337,Bolzenberg,602.0
48.48936,15.51321,Dreiturmberg,551.0
47.990417,16.18655,Steinhöhe,467.0
47.99177,16.190136,Aubkogel,458.0
48.342163,15.638351,Reutberg,389.0
48.34575,15.628591,Kogel,356.0
48.463943,15.510662,Heimliches Gericht,581.0
48.47176,15.533724,Herzogentisch,541.0
48.446205,15.554393,Schatzwand,383.0
48.24737,16.072933,Hausberg,325.0
48.24701,16.0961,Weideck,420.0
47.691288,15.605074,Brandhöhe,1758.0
47.6939,15.604737,Mittenkogel,1775.0
47.69373,15.599672,Brunnkogel,1798.0
48.37229,16.304577,Schliefberg,250.0
48.163815,15.989895,Nagelberg,441.0
48.126186,16.019142,Fuchsleiten,472.0
48.138454,16.028318,Große Fuchsleiten,522.0
48.122116,16.011238,Fahrenberg,475.0
48.117565,16.258722,Haidberg,294.0
48.42518,16.30259,Auf der Kugel,280.0
47.562996,15.799232,Seeriegel,1455.0
47.854748,15.628736,Rosskopf (W-Gipfel),1090.0
48.169044,16.158968,Wurzenberg,533.0
47.64461,16.491463,Becher-domb,516.0
48.30603,15.745808,Hühnerbühel,301.0
48.07388,15.791785,Durlaswaldhöhe,774.0
48.074078,15.638279,Zehethofer Höhe,608.0
48.054756,15.656125,Weißengruberkogel,541.0
48.05212,15.699225,Himberg,578.0
48.056526,15.643624,Hinterleitnerkogel,558.0
48.113075,15.668388,Draxelhofer Anhöhe,608.0
48.121044,15.675775,Buchberg,551.0
48.102806,15.740879,Bischofshöhe,611.0
48.085476,15.972311,Riesenberg,562.0
48.05157,16.2785,Hochgreutel,342.0
47.774986,15.9672575,Hochberg,956.0
48.463524,16.360779,Kirchberg,359.0
48.386265,16.312885,Sonnwendberg,269.0
48.0877,15.575478,Grasberg,561.0
47.930256,15.938055,Klaushöhe,793.0
48.091896,16.165413,Hausberg,564.0
47.60656,16.165606,Sonnberg,832.0
47.56542,16.179293,Wetterkreuzriegel,855.0
47.52341,16.099339,Spitzer Riegel,801.0
48.02026,15.859217,Brennhoferkogel,688.0
48.019726,15.840519,Sulzerkogel,695.0
48.007713,15.815573,Hauserkogel,734.0
47.979317,15.889303,Hofgrabengupf,902.0
48.361454,15.684164,Spatzenberg,409.0
47.684402,15.700161,Martinsturm,1808.0
48.272465,15.965295,Einsiedelberg,246.0
48.01998,16.210539,Mitterberg,460.0
47.670883,15.523375,Katzenberg,1085.0
47.677116,15.509504,Kastenriegel,1116.0
48.370865,16.352188,Teiritzberg,201.0
48.422726,16.277533,Waschberg,395.0
48.18513,16.066544,Karriegel,394.0
48.22759,16.11987,Peilerstein - Westgipfel,455.0
48.100132,16.23372,Gemeindekogl,434.0
48.3215,16.224913,Hohenwartberg,334.0
47.978245,16.072187,Doppelhofleiten,504.0
47.984184,16.071505,Kohlriegel,505.0
47.9943,16.057686,Hausberg,506.0
47.986935,16.054474,Hallleiten,517.0
48.069313,16.236229,Vorderer Otter,430.0
48.076435,16.236609,Schwarzkogel,406.0
48.25246,16.246859,Moschingerberg,490.0
48.44259,16.398811,Schlossberg,264.0
48.42564,16.37933,Haseneck,215.0
48.12256,15.850724,Windbichlerhöhe,603.0
48.462143,16.47015,Hundsberg,331.0
48.49488,16.425941,Aglesberg,352.0
48.489407,16.406847,Waldberg,334.0
48.48277,16.366068,Hirschberg,314.0
48.059677,15.540347,Kaiserkogel,716.0
47.607944,15.646473,Stürzerkogel,1180.0
48.080757,15.872025,Jägerberg,670.0
48.251457,15.961533,Heuberg,334.0
48.2488,15.968084,Breiter Anger,375.0
48.258064,15.954079,Eichberg,319.0
48.241306,15.998242,Armberg,256.0
48.112934,16.23626,Mimi&amp;Statti-Gipfel,417.0
47.650887,16.499092,Égő-hegy,413.0
47.65341,16.493635,István-hegy,441.0
47.655296,16.458927,Sárvári-hegy,546.0
48.340286,16.28406,Langstögerberg,353.0
48.337868,16.243067,Tempelberg,403.0
48.177593,16.103216,Bartberg,380.0
47.85167,15.817702,Rossstallfelsen,891.0
47.873966,15.8935795,Heinrichshöhe,572.0
48.015057,15.611334,Schönbühel,677.0
47.618176,15.860115,Dürrkogel,1423.0
47.522446,15.906428,Große Steinwand,1648.0
47.54655,15.839374,Hochleitenkogel,1457.0
47.550358,15.843772,Siebenlackenkogel,1465.0
47.535927,15.837269,Gruberkogel,1427.0
47.66846,16.392576,Dachsriegel,489.0
47.639473,16.492601,Angerwald,535.0
47.64817,16.410946,Rennspitzriegel,556.0
47.515327,16.15202,Heißenberg,750.0
48.440895,15.599144,Galgenberg,374.0
48.07049,16.201916,Galgenbühel,343.0
48.239754,16.063957,Tullnerberg,347.0
48.054287,16.314108,Teichhügel,193.0
48.062202,16.30716,Grillenbühel,224.0
48.007977,15.760506,Schönleiten,855.0
48.20274,15.724083,Kollersberg,354.0
47.626816,16.05266,Sattelberg,874.0
48.090492,15.523698,Hofstettner Berg,459.0
48.094677,15.55008,Schindeleck,464.0
47.613792,15.907198,Mitterköpfl,898.0
48.199757,15.718233,Plattenberg,346.0
48.267727,15.889084,Eichberg,286.0
48.26315,15.904555,Reuthberg,316.0
48.262554,15.924066,Reisberg,305.0
48.101162,15.558239,Kuhberg,486.0
48.372005,16.483751,Schmaler Berg,223.0
48.081627,16.078518,Stockerin,497.0
48.085762,16.084583,Mitterspitz,482.0
48.05058,16.215227,Kögerl,368.0
48.114906,16.257025,Goldbiegelberg,313.0
48.059216,15.968238,Kleiner Hollerberg,554.0
48.173187,16.010006,Dürrenberg,376.0
48.031578,15.586037,Taurer-Sulzer-Felsen,740.0
47.802387,15.612435,Schwarzauer Gippel,1605.0
47.92959,15.868202,Trafelberg,1146.0
47.890976,15.812167,Hahnenriegel,909.0
48.217186,15.755691,Gaisberg,283.0
48.25249,15.772609,Hausberg,282.0
48.25177,16.34643,Hungerberg,242.0
48.095104,15.683286,Kirchmayerhöhe,666.0
48.050552,15.926577,Steinriegeleck,720.0
48.05606,16.07124,Stierkogel,364.0
48.060673,16.080647,Kaiserstein,376.0
48.197613,15.884533,Ebersberg,308.0
47.71831,15.514927,Kerpenstein,1464.0
