latitude,longitude,name,elevation
-29.24515,-177.92717,Matatirohia,61.0
-29.25665,-177.93811,Expedition Hill,428.0
-29.258673,-177.90388,Judith,278.0
-29.287083,-177.94266,Mahoe,478.0
-29.267447,-177.90796,Moumoukai,516.0
-29.255692,-177.92513,Mount Campbell,292.0
-29.250536,-177.91777,Ngaio,124.0
-29.275343,-177.93097,Prospect,498.0
-29.253908,-177.9428,Pukekohu,465.0
