latitude,longitude,name,elevation
60.066563,-159.36133,Kuskokwim H.P.,1517.0
60.007282,-159.28859,Konarut Mountain,1525.0
59.835835,-158.96077,Eagle Mountain,1014.0
60.102207,-158.76578,Ongutvak Mountain,853.0
60.054615,-158.54564,Mount Chaufchivak,298.0
59.762165,-159.22527,Mount Waskey,1533.0
59.634796,-158.96758,Akuluktok Peak,1033.0
