latitude,longitude,name,elevation
34.98315,45.372826,داری خلە,1034.0
34.66707,45.362804,ملەی بەردەسوور,326.7
34.700684,45.37936,بەرزاییەکانی بەرلوت,412.0
35.239483,45.49295,Kalosh Mountain,1390.0
34.606106,45.40613,لوتکەی قەشقە,330.0
35.14253,45.47607,لوتکەی چاڵەڕەش,1600.0
35.205494,45.233467,چیای ئاژداخ,1350.0
34.877842,44.613358,تل اولو تبة الاثري,5.0
34.79614,45.152138,ملەی سوور,480.0
