latitude,longitude,name,elevation
55.929577,29.383007,Курган «Магілы Рагвалода і Рагнеды»,158.0
56.36646,29.370882,Горелка,178.0
55.507553,28.649847,Маяк,155.2
55.927402,29.272947,Гваздзіха,224.0
55.95295,28.674328,Сівыя горы,168.6
55.578888,29.410889,Пясчаная,157.4
55.577446,29.41711,высата Салдацкая,155.5
55.65781,29.275534,Чыстая,170.5
55.558853,29.37214,Парахневатка,151.0
