latitude,longitude,name,elevation
-13.929991,167.46361,Tōw Reqe,393.0
-13.946111,167.4647,Gereqon,805.0
-13.879182,167.45663,Tōw Vetam,473.0
-13.885139,167.4244,Sere Ne Wōmetelō,591.0
-13.888443,167.49814,Tōw Lēsirsir,533.0
-13.752512,167.4811,Tōw Sorlav,742.0
-13.857884,167.44353,Tōw Merevrig,487.0
