latitude,longitude,name,elevation
27.843872,116.963135,出云峰,1278.0
27.593987,117.43255,乌君山,1641.0
27.520159,117.4837,虎堂山,1017.0
27.676687,117.49275,顶公山,1057.0
27.928873,117.33835,阳际坑,1541.0
27.705353,117.198685,鹤东峰,1364.0
27.66111,117.193924,山坑顶,1372.6
27.917667,117.37006,鲑鱼峰,1413.9
27.922867,117.35637,青茅境,1492.0
27.889906,117.36964,甑盖山,1277.7
