latitude,longitude,name,elevation
36.523552,54.45621,گاوکشان,3828.0
36.63491,54.457375,تل انبار,3030.0
36.549202,54.436718,اردیج,2760.0
36.54121,54.499176,گِرده کوه,2900.0
36.579582,54.496403,سرچال,2730.0
36.553825,54.483715,نِسام وَنامه,2800.0
36.611958,54.420868,سرلیسه,2910.0
36.578156,54.089447,کبود ریز,2510.0
36.64326,53.799953,گت رِز,1597.0
36.574203,54.01214,پایین تاور,2400.0
