latitude,longitude,name,elevation
48.09973,-101.02348,Black Butte,522.0
48.32612,-100.77042,Buffalo Lodge Butte,485.0
47.813614,-100.76125,Dogden Butte,686.0
47.916393,-100.76931,Little Butte,529.0
48.215286,-100.79487,Mikes Peak,490.0
48.08751,-101.07988,Skinner Hill,511.0
48.119175,-101.47322,Twin Buttes,656.0
