latitude,longitude,name,elevation
19.589005,-96.47264,Cerro La Campana,541.0
19.599031,-96.4658,Cerro La Reventazón,458.0
19.630098,-96.465645,Cerro Encinal,199.0
19.64097,-96.49472,Cerro El Marín,572.0
19.626156,-96.48339,Cerro Paslar,437.0
19.630623,-96.48747,Cerro El Espejo,518.0
