latitude,longitude,name,elevation
50.429836,58.224705,Шиликти,450.0
49.72813,57.613377,Коктобе,377.0
50.1187,57.62402,Сарытөбе,382.0
49.63394,57.803078,Аккок,361.0
49.69938,57.98624,Бестобе,414.0
49.79422,58.10795,Қараоба,407.0
49.679947,58.027954,Кишкенебестау,403.0
50.032875,57.78334,Сарытау,369.0
49.714424,58.14228,Тасшокы,398.0
