latitude,longitude,name,elevation
-13.65564,132.65015,Big Sunday,338.0
-14.43137,133.47443,Black Cap,198.0
-13.58774,132.60509,Coronation Hill,291.0
-14.075633,133.40579,Dil Jin Hill,325.0
-13.99282,132.73972,Earley Hill,237.0
-14.01993,132.70248,Gupuluk,320.0
-14.04679,132.84114,Mount David,282.0
-13.93918,132.72057,Mount Ebsworth,267.0
-13.59751,132.8949,Mount Evelyn,365.0
-14.16072,132.66689,Mount Felix,282.0
-14.08078,132.70576,Mount Harvey,312.0
-13.7777,132.78972,Ngartluk,364.0
