latitude,longitude,name,elevation
50.201633,74.86268,Семизбугы,1049.0
50.15,74.85833,Малый Семизбугы,983.0
49.649536,74.9335,Keregetas,755.0
49.642624,75.31386,Tesiktas,773.6
49.573746,75.4056,Sarytau,989.5
49.571815,74.65604,Egizqyzyl,770.1
49.828136,75.398994,Ashykolbiik,703.0
49.69104,75.04161,Sarybet,771.4
