latitude,longitude,name,elevation
-33.31461,25.931883,Olifantskop,811.0
-32.603035,25.994644,Spitskop,1391.6
-32.7217,25.6833,Glen Avon Heads,1395.984
-32.5225,25.955,Gonna-Gonnakop,1401.7751
-33.2492,25.5742,Suurberg,987.8568
-32.5542,25.5208,Bailey's Kop,1828.8
-32.695,25.525,Bloukop,1614.8
-32.7,25.9208,Suurkop,1017.7
-33.3475,26.295,Highlands Mountain,831.8
-33.179962,26.412195,Hyde's Hill,610.7
