latitude,longitude,name,elevation
12.222233,25.009045,Jabal Aluda,885.0
12.305094,24.808735,Jabal Sulba,953.0
11.750431,24.850746,Jabal Dulaybah,713.0
12.348305,24.851137,Jebel Ulu,897.0
12.1832905,24.558378,Jebel Misig,857.0
12.321471,24.69741,Jebel Kosa,887.0
12.065326,24.934875,Jebel Nyala,791.0
12.229141,25.150301,Jebel Agileri,795.0
12.016748,25.492147,Jebel Kudmal,667.0
