latitude,longitude,name,elevation
12.25,-71.45,Cerro Ororia,126.0
12.123378,-71.48001,Cerro Paroshu,330.1
12.103536,-71.4861,Cerro Huchuiiac,432.7
12.1351795,-71.49168,Cerro Situtsi,257.2
12.090048,-71.334885,Cerro Jihisurohu,269.0
12.077209,-71.224396,Alto Potkahu,258.0
12.170324,-71.35447,Cerro Keuas,238.0
12.128889,-71.34055,Serranía de Macuira,810.0
12.170947,-71.386665,Cerro Palúa,730.0
12.068922,-71.49446,Cerro Karairapiau,487.0
12.079351,-71.276505,Cerro,623.0
