latitude,longitude,name,elevation
-21.11137,129.33752,False Mount Russell,421.0
-20.55189,129.05086,Mount Tracey,435.0
-20.56621,129.2744,Pedestal Hill,407.0
-20.51542,129.14774,Pommies Knob,410.0
-20.84051,128.71703,Yam Hill,389.0
