latitude,longitude,name,elevation
61.659554,-161.56073,Bend Mountain,468.0
61.92803,-161.99583,Pilcher Mountain,595.0
61.83681,-161.92876,Mount Okumiak,483.0
61.615147,-161.93968,Cunningham Mountain,89.0
61.577446,-161.84811,Roundabout Mountain,165.0
