latitude,longitude,name,elevation
-43.744823,-65.72411,Cerro Chato,297.0
-43.772385,-65.957794,Cerro Monte Triste Chico,323.0
-43.73386,-65.62595,Cerro Monte Triste,351.0
-44.403023,-65.65569,Cerro Santa Elena,390.0
-44.07786,-66.460335,Cerro de Los Perros,304.0
