latitude,longitude,name,elevation
70.01886,-22.975065,Silasiulit,1701.0
70.030235,-23.365559,Pindsvinet,1730.0
70.049034,-22.535294,Sfinxen,1268.0
70.05606,-23.146889,Isjomfruen,1636.0
70.06503,-22.857368,Bulbjerg,1267.0
70.08064,-23.012053,Punta Celso Gilberti,1262.0
