latitude,longitude,name,elevation
-29.837515,24.596111,Bleskop,1239.8
-30.4242,25.0475,Twyfelberg,1609.9536
-30.13,24.7133,Grootkop,1492.0
-30.0625,25.4283,Driebadkop,1756.0
-30.0383,24.825,Spitskop,1394.8
-29.5867,25.4117,Oskop,1453.0
-30.3567,24.5058,Hoek se Berg,1544.7
-30.0608,24.8467,Vaalkop,1412.7
-29.9825,24.8425,Turksvyekop,1382.0
-30.3217,25.4258,Spitskop,1642.0
-29.62534,24.71913,Sandkoppie,1238.6
