latitude,longitude,name,elevation
8.50834,-77.456696,Cerro Gandi,1155.0
8.555178,-77.445145,Cerro de Haití,765.0
8.59195,-76.87975,Cerro Aguila,109.68
8.6475,-77.35559,Cerro El Parado,294.0
8.550278,-77.27889,Peña del Diablo,155.0
