latitude,longitude,name,elevation
20.633547,-103.23956,Cerro de La Reina,1700.0
20.755705,-103.23991,Cerro de La Higuera,2059.0
20.794853,-103.39272,San Estéban,1760.0
20.50073,-103.43967,Cerro Las Latillas,2030.0
20.597801,-103.47601,Cerro El Tajo - Cerro Pelón,2050.0
20.897642,-103.49317,CERRO LA TORTUGA,2040.0
20.884575,-103.463196,CERRO SAN FRANCISCO,2020.0
