latitude,longitude,name,elevation
37.032722,57.900326,شاه جهان,3067.0
37.02151,57.73099,کلنگاه(هزاز),3019.0
37.048077,57.773537,کرکزو,2979.0
37.01521,57.74713,بیل باقلی,2951.0
37.028618,57.70963,ساریگل,2908.0
37.030575,57.685955,آلبلاغ,2790.0
