latitude,longitude,name,elevation
1.8413494,-71.302765,Rocoso Oriental,412.0
2.2299907,-71.38264,Cerro Santa Ana,180.7
2.1814754,-70.98453,Cerro Paloma,316.2
1.7081065,-71.24719,Cerro Tabla,380.0
1.6611885,-71.45738,Rocoso Central,410.0
2.2809112,-71.27508,Cerro,345.0
