latitude,longitude,name,elevation
-16.50093,-151.7403,Pahia,661.0
-16.53616,-151.73943,Rufau,123.0
-16.501612,-151.73326,Mont Otemanu,727.0
-16.516401,-151.7266,Mata Pupu,263.0
-16.621912,-151.51248,Mont Ohiri,590.0
-16.623486,-151.51625,Tete,524.0
-16.609894,-151.51196,Haaritaa,521.0
-16.639257,-151.52856,Matotea,289.0
-16.635048,-151.52074,Turupoo,302.0
-16.613943,-151.53091,Teruaupai,309.0
