latitude,longitude,name,elevation
28.400042,83.68954,Pun Danda,3210.0
28.246252,83.94875,Sarangkot Tower,1592.0
28.49798,83.94588,Machapuchare,6993.0
28.489508,84.18861,Lamjung Himal,6983.0
28.230034,83.7951,Gurung Hill Tower/Panchase,2515.0
28.308477,84.14846,Kurpu Danda,3050.0
28.42731,84.32812,Sundar,4331.0
28.420502,83.73299,Muldai,3637.0
28.473768,83.927536,Mardi Himal,5553.0
28.371367,83.679405,Mohare Dada,3313.0
