latitude,longitude,name,elevation
26.479414,127.8747,恩納岳,363.0
26.126448,127.70585,与座岳,168.4
26.218122,127.73151,弁ヶ岳,165.6
26.449537,127.83479,石川岳,203.9
26.184624,127.81029,須久名山,149.1
26.209684,127.68469,城岳,33.0
26.189157,127.73252,黄金森,80.0
26.187685,127.72147,高津嘉山,87.0
26.209345,127.72736,新川森,130.0
26.212763,127.750015,運玉森,158.1
26.389992,127.863434,霊化森,57.9
26.273283,127.765884,神嶺,103.2
26.318718,127.95439,スガイ山,78.8
26.163677,127.66169,珠数森,37.0
