latitude,longitude,name,elevation
-25.53668,133.08224,Inguroo Hill,490.0
-25.9037,133.1499,Mount Barrow,643.0
-25.89138,133.17847,Mount Reynolds,633.0
-25.9514,133.10738,Mount Sir Henry,650.0
-26.25928,133.35716,Wallaby Rock,489.0
