latitude,longitude,name,elevation
31.785978,99.07211,雀儿山,6168.0
31.815956,99.03463,雀儿山二峰,6119.0
32.040485,98.816895,竹庆雪山,5988.0
31.772943,99.306305,俄拉玛峰,5391.0
31.772215,99.29762,奥克嘎日,5395.0
32.048042,98.815895,诺布甲,5755.0
32.039837,98.79846,婆鲁加博,5472.0
31.812428,99.15874,peak 5002,5002.0
