latitude,longitude,name,elevation
37.240795,131.86963,우산봉,98.6
37.243587,131.86557,탕건봉,99.0
37.24181,131.86517,대한봉,168.5
37.240147,131.8722,물오리바위,2.6
37.247208,131.86385,큰가제바위,4.9
37.241215,131.86693,미역바위,3.7
37.24127,131.86179,넙덕바위,8.9
37.246826,131.86435,작은가제바위,4.1
37.238106,131.8694,춧발바위,4.12
37.241352,131.86867,닭바위,10.8
37.24175,131.86252,군함바위,38.1
37.24357,131.86613,김바위,9.9
37.239677,131.86166,보찰바위,10.7
37.238747,131.86792,부채바위,21.9
