latitude,longitude,name,elevation
36.51057,74.5231,Batura Sar,7795.0
37.23409,74.88986,د بدخشان کوتل,5698.0
36.61197,75.07904,Karun Koh,6977.0
36.558136,74.932434,Tupopdan,6106.0
36.741196,75.203835,Chapchingal Sar,6483.0
36.503456,74.55694,Muchu Chhish,7453.0
