latitude,longitude,name,elevation
38.940372,-80.460365,Bald Knob,526.0
39.3362,-80.23953,Bald Knob,473.0
38.827885,-80.05674,Bear Knob,869.0
38.8451,-80.42453,Bee Knob,514.0
38.672054,-80.136185,Beech Mountain,1083.0
38.853157,-80.38953,Big Knob,551.0
38.794548,-80.258415,Big Run Knob,732.0
38.79732,-80.412865,Cochran Knob,551.0
38.768433,-80.45981,Green Hill,506.0
38.808987,-80.48425,High Knob,502.0
38.591217,-80.39286,Hodam Mountain,808.0
38.8276,-80.418976,Moss Knob,555.0
39.488144,-79.76034,Mount Phoebe,715.0
38.94704,-80.3987,Pine Knob,497.0
39.284813,-80.329254,Pinnickinnick Mountain,443.0
39.310093,-80.125916,Plummer Knob,505.0
38.525665,-80.29952,Potato Knob,1077.0
38.649277,-80.153404,Round Knob,1073.0
38.84177,-80.06647,Kelly Knob,867.0
38.59206,-79.56505,Big Mountain,1177.0
38.891777,-79.519775,Brierpatch Mountain,1348.0
38.523174,-79.50838,Brushy Mountain,1258.0
38.64372,-80.10341,Buck Knob,1173.0
38.58817,-79.75645,Burner Mountain,1309.0
38.87122,-79.75812,Chenoweth Knob,1169.0
38.674,-80.042015,Cherry Knob,1106.0
39.181217,-79.58228,Close Mountain,877.0
38.570892,-79.96011,Crouch Knob,1374.0
38.702335,-79.662834,Cunningham Knob,1339.0
38.50289,-80.10396,Elk Mountain,1336.0
39.072884,-79.68145,Fork Mountain,871.0
38.531784,-79.73811,Frank Mountain,1193.0
38.652615,-79.602554,Grassy Mountain,1265.0
39.013165,-79.61672,Green Mountain,1069.0
38.840942,-79.585335,Gregg Knob,1246.0
38.864834,-79.57755,Haines Knob,1299.0
38.790108,-79.85812,Harper Knob,913.0
38.948166,-79.59089,Hog Knob,977.0
38.75317,-79.5006,Horse Rock,1374.0
38.647614,-79.54255,Hunting Ground Mountain,1106.0
38.641224,-79.913124,Hutton Knob,1291.0
38.868168,-79.52255,Job Knob,1353.0
39.22233,-79.69868,Limestone Mountain,945.0
38.769833,-79.72423,Little Beech Mountain,1110.0
38.741222,-79.62727,Little Middle Mountain,1423.0
38.671223,-79.73589,Lynn Knob,1213.0
38.98344,-79.69423,McGowan Mountain,1189.0
39.04344,-79.56006,Mozark Mountain,1169.0
38.61344,-80.23813,Pisgah Knob,1018.0
38.89122,-79.73645,Pond Lick Mountain,1222.0
38.506504,-80.00395,Rich Knob,1150.0
38.545673,-79.716995,Rough Knob,1184.0
38.640114,-79.74311,Round Knob,1202.0
39.336212,-79.52394,Shaffer Mountain,972.0
38.55345,-79.70422,Smoke Camp Knob,1290.0
38.55373,-79.53366,Snowy Mountain,1370.0
38.536503,-79.96395,Snyder Knob,1432.0
38.699837,-79.53283,Spruce Knob,1482.0
38.516228,-79.96451,Ward Knob,1385.0
38.725945,-79.642555,Yokum Knob,1301.0
39.068714,-79.86063,Thorn Knob,887.0
38.59761,-80.191185,Back Fork Mountain,1138.0
38.67289,-79.6795,Bayard Knob,1263.0
39.05732,-80.28981,Bear Knob,570.0
38.99816,-79.79757,Bearlick Knob,837.0
38.617054,-80.21646,Bee Knob,1082.0
38.65595,-79.661446,Beech Mountain,1237.0
38.819267,-80.38564,Beverage Knob,589.0
38.934273,-79.73145,Bickle Knob,1220.0
38.90622,-79.67256,Big Knob,1156.0
38.70455,-80.115074,Blue Rock Knob,1113.0
39.361755,-80.11258,Browns Knob,469.0
38.918167,-79.557,Brushheap Knob,1210.0
39.372875,-79.54672,Brushy Knobs,927.0
39.354263,-79.669785,Cannon Hill,621.0
38.825943,-79.83507,Childers Knob,778.0
38.74399,-80.36175,Cleveland Mountain,647.0
38.59984,-79.670334,Colaw Knob,1281.0
38.548996,-80.4312,Cool Spring Knob,805.0
39.30676,-80.14286,Copeland Knob,541.0
39.2737,-80.345924,Duncan Hill,418.0
38.55566,-80.4712,Elk Mountain,731.0
38.632614,-79.61172,Elk Mountain,1273.0
39.073425,-80.419815,Fisher Summit,386.0
38.55345,-79.70422,Fork Mountain,1290.0
38.61539,-79.84423,Gaudineer Knob,1351.0
38.509007,-79.695885,Grassy Knob,1189.0
38.872044,-80.41203,Handkerchief Knob,533.0
38.7415,-79.651726,Harper Knob,1269.0
38.86233,-79.7634,Hawflat Knob,1200.0
38.736214,-80.35508,Haystack Knob,662.0
38.840652,-80.47565,Haystack Knob,503.0
38.91622,-79.640335,Hertig Knob,899.0
38.743717,-80.118965,High Germany Knob,1065.0
38.81983,-79.87424,Imboden Knob,682.0
38.907608,-79.7884,Kelley Mountain,967.0
39.490364,-79.95479,Kincaid Knob,579.0
38.505108,-80.40703,Miller Knob,850.0
38.792324,-80.46092,Moon Hill,447.0
38.78094,-79.97896,Nettle Mountain,1011.0
39.43953,-80.33398,Odell Knob,466.0
39.317314,-80.16703,Patton Knob,482.0
39.299538,-80.13258,Pewee Knob,512.0
38.740944,-79.62727,Pharis Knob,1413.0
39.18094,-79.76813,Pifer Mountain,835.0
39.051216,-79.77812,Pleasant Mountain,800.0
39.075382,-79.7509,Polecat Knob,803.0
38.638996,-80.32703,Potato Knob,748.0
38.786213,-80.35175,Prit Mountain,602.0
39.015373,-80.37814,Purgatory Hill,538.0
38.59178,-79.535324,River Hill,1009.0
38.93733,-79.71062,Stuart Knob,1221.0
38.794266,-80.47481,Sugar Knob,542.0
39.165104,-79.799515,Texas Mountain,857.0
39.097607,-79.65645,Turkey Knob,764.0
38.634,-80.18924,Turkeybone Mountain,1132.0
38.624557,-79.87673,White Top,1237.0
38.628166,-80.11535,Whitman Knob,1193.0
38.88149,-80.38175,Wilson Knob,546.0
38.838432,-80.32703,Bob Peak,586.0
38.843994,-80.1398,Church Knob,736.0
38.990658,-80.11703,Deen Knob,629.0
38.84038,-80.09841,Kelly Knob,813.0
39.17593,-80.10592,King Knob,601.0
39.466198,-80.00729,Kincaid Knob,544.0
38.82205,-80.067856,Long Run Hill,876.0
38.617332,-80.1598,Mast Knob,1221.0
38.51483,-80.387856,Buffalo Bull Knob,853.0
38.96065,-80.34953,Buckhannon Mountain,541.0
38.95982,-80.446754,Wolf Fork Mountain,517.0
38.51873,-79.62089,Middle Mountain,1198.0
38.529007,-79.61644,The Stamp,1249.0
38.57734,-79.631996,Buck Knob,1214.0
39.053658,-79.585785,Mount Red,1050.0
39.08923,-79.64392,Skier's hillock,660.0
39.058098,-79.63569,McGowan Mountain,1089.0
38.996082,-79.60164,Shavers Mountain,1144.0
