latitude,longitude,name,elevation
-13.22493,130.37675,Bobs Knob,26.0
-12.98874,130.43527,Hatter Hill,10.0
-13.04827,130.3974,Mount Johns,122.0
-13.07551,130.38792,Murrenja Hill,150.0
-12.91495,130.38914,Peaked Hill,44.0
