latitude,longitude,name,elevation
43.65858,12.164691,Monte dei Frati,1453.0
43.624084,11.941765,Il Castello,1414.0
43.932278,12.451646,Monte Titano,739.0
43.828117,12.420514,Monte Faggiola,818.0
43.870514,12.43819,Monte San Paolo,860.0
44.21798,11.57974,Monte Battaglia,715.0
44.247467,11.627268,Monte Battagliola,424.0
44.069088,12.129123,Monte Cavallo,480.0
44.015434,11.686158,Colle di Tramazzo,1006.0
44.01341,11.713534,Monte Collina,972.0
43.937656,11.767183,Monte Grosso,1010.0
43.94457,11.7919035,Monte Della Fratta,1165.0
43.93707,11.792418,Monte Guffone,1198.0
43.877537,11.709207,Monte Falco,1657.0
43.873623,11.696641,Monte Falterona,1654.0
44.235836,11.700807,Monte Mauro,517.0
44.166866,11.664501,Monte Colombo,654.0
43.731083,11.573812,Monte Secchieta,1450.0
43.709564,11.596418,Poggio della Cesta,1447.0
43.696262,11.61299,Poggio Tre Confini,1438.0
43.68518,11.608867,Poggio Uomo di Sasso,1533.0
43.667313,11.623757,Poggio del Lupo,1513.0
43.66312,11.61925,Poggio Uomo Morto,1455.0
43.664806,11.637081,Poggio Varco di Castelfranco,1516.0
43.65487,11.646697,Croce di Pratomagno,1591.0
43.600456,11.70997,Poggio la Cesta,1227.0
43.610313,11.68961,Monte di Loro,1343.0
43.61487,11.694941,Monte Lori,1365.0
43.63355,11.683936,Cima Bottigliana,1454.0
43.644466,11.679742,Poggio Massarecci,1532.0
43.547462,11.748376,Poggio Macchione,526.0
43.570038,11.799758,Monte Ferrato,720.0
43.560314,11.77837,Monte Capannino,747.0
43.560665,11.75674,Monte Arsoni,695.0
43.56637,11.759763,Poggio della Baselica,772.0
43.574696,11.745844,Poggio della Lama,751.0
43.97293,11.805664,Monte Rotondo,923.0
43.958157,11.79282,Monte Tiravento,1043.0
43.96937,11.777528,Monte Arsiccio,794.0
43.955185,11.771919,Monte Moggio,1016.0
43.94734,11.802329,Poggio Penna,1079.0
43.944923,11.829241,Poggio Montironi,1016.0
43.925232,11.816899,Monte Pianaccione,926.0
43.945427,11.765256,Monte Merli,1105.0
43.920082,11.720044,Poggio Coloreto,1059.0
43.90808,11.7282,Poggio Bini,1115.0
43.916805,11.745875,Monte Ritoio,1193.0
43.917915,11.765813,Monte Avorgnolo,1165.0
43.996777,11.767992,Monte Roncole,905.0
43.986923,11.746809,Monte Farfareta,816.0
43.98104,11.747393,Monte Fumarolo,1024.0
43.979313,11.735351,Monte Mandria,1044.0
43.97255,11.72839,Monte Gemelli,1207.0
43.963787,11.738653,Poggio Cavallaro,1035.0
43.96042,11.726861,Poggio Fornello,998.0
43.964954,11.70549,Monte Bucine,1128.0
43.95893,11.701914,Monte Mazzucca,1090.0
43.953182,11.694569,Monte Pian Casciano,1163.0
43.94483,11.690315,Monte della Soda,1111.0
43.931732,11.669562,Poggio degli Orticari,1099.0
43.923397,11.682992,Poggio Usciaioli,1092.0
43.81225,11.930383,Gli Scalacci,899.0
43.82182,11.915033,Il Poggiaccio,1069.0
43.81,11.912202,Cima del Termine,1277.0
43.790337,11.916995,Poggio Magiovanna,1211.0
43.790596,11.943913,Monte Zuccherodante,1231.0
43.807537,11.841665,Poggio Tre Confini,1395.0
43.819416,11.84457,Monte Penna,1331.0
43.828327,11.823904,Poggio Cornacchia,1236.0
43.82793,11.808379,Giogo di Secchieta,1383.0
43.83584,11.784695,Poggio dell'Acerone,1420.0
43.844955,11.788503,Poggio Scali,1520.0
43.851753,11.77007,Poggio Pian Tombesi,1465.0
43.85446,11.759233,Il Poggione,1424.0
43.848595,11.733783,Monte Giogarello,1351.0
43.862034,11.732943,Monte Gabrendo,1540.0
43.866528,11.727861,Poggio Lastraiolo,1485.0
43.882442,11.709376,Poggio Piancancelli,1575.0
43.87412,11.722127,Poggio Sodo dei Conti,1559.0
43.842213,11.7334385,Monte Tufone,1305.0
43.837467,11.751619,Poggio Castellaccio,1002.0
43.81149,11.794324,Monte Faggiolo,1262.0
43.50185,11.979079,Monte della Striscia,806.0
43.513023,11.973385,Monte Castiglione,875.0
43.518383,11.973554,Poggio Gallorini,740.0
43.519863,11.96653,Poggio di Camugnano,713.0
43.57055,11.944768,Poggio Alto,727.0
43.57572,11.945732,Poggio della Casaccia,706.0
43.861774,11.823683,Poggio Pratovecchio,862.0
43.862267,11.866088,Monte Moricciona,1027.0
43.909634,11.84633,Il Castellaccio,724.0
43.89223,11.767131,Monte della Maestà,976.0
43.78315,11.922663,Poggio Valle,1075.0
44.049625,11.512543,L'Archetta,1095.0
44.043613,11.966695,Monte Fusa,503.0
43.85524,11.848026,Monte Palestrina,942.0
44.22376,11.540173,Monte Cappello,589.0
44.14856,11.517492,Monte Faggiola,1031.0
44.17445,11.51618,Monte della Croce,742.0
43.822807,12.017617,Monte Comero,1371.0
43.818916,11.978172,Poggio Pian delle Riti,959.0
43.886517,11.801841,Ronco dei Preti,1108.0
44.18554,11.525916,Monte Acuto,735.0
43.76829,11.774651,Monte Orsario,750.0
43.83594,12.338013,Monte Palazzolo,1191.0
43.65439,11.6037445,Poggio Montrago,1281.0
44.246395,11.675286,Monte della Volpe,490.0
44.285374,11.745046,Monte Ghebbio,241.0
43.56768,12.479153,Monte Cardamagna,962.0
43.61882,11.946105,Monte Altuccia,1407.0
43.62736,11.9219055,Sasso della Regina,1230.0
43.76445,12.285485,Monte Simoncello,1220.0
43.760384,12.291647,Sasso Simone,1204.0
43.712948,11.937985,Monte Penna,1283.0
44.22585,11.607558,Monte Fortino,504.0
43.528397,11.917234,Campriano,550.0
43.614887,11.605757,Monte Cocollo,874.0
44.15765,11.524945,Monte Macchia dei Cani,966.0
43.86155,11.933092,Monte Piano,1062.0
44.16372,11.528357,Monte Castellaccio,830.0
44.22166,11.743481,Monte di Rontana,484.0
43.59451,11.659409,Poggio Pescina,850.0
43.67195,11.570028,Poggio della Regina,914.0
44.174206,11.616619,Monte Cece,764.0
44.187466,11.612892,Monte della Valle,530.0
44.278076,11.560119,Monte Penzola,412.0
43.84393,11.842691,Poggio La Guardia,782.0
43.788235,12.069888,Monte Fumaiolo,1406.0
43.700672,11.555741,Poggio Massa Nera,1075.0
43.761894,11.986521,Poggio Tre Vescovi,1232.0
43.76652,12.006392,Poggio Bastione,1194.0
43.830376,11.97023,Poggio Vitine,877.0
44.261833,11.6293955,Monte del Casino,474.0
44.225807,11.674142,Monte Albano,475.0
44.0009,11.531854,Alpi di Vitigliano,1116.0
44.020535,11.563099,Busca Piana,1080.0
44.01058,11.552859,Femmina Morta,1120.0
44.022842,11.508046,La Dogana,1009.0
44.006527,11.515043,Le Scalette,1059.0
43.984337,11.509651,Monte Citerna,770.0
43.982265,11.57488,Monte Giogo di Villore,1078.0
43.995583,11.524222,Monte Piandolci,1011.0
44.004955,11.527571,Poggio Castellina,1097.0
44.0136,11.556412,Poggio Le Bucarelle,1117.0
44.001728,11.547523,Poggio Rio di Ceccheta,1085.0
43.98811,11.550072,Poggio ai Venti,929.0
43.996544,11.547471,Poggio al Tiglio,1108.0
44.018684,11.522057,Poggio degli Allocchi,1069.0
44.101048,11.510037,Monte dell'Incisa,761.0
44.0927,11.50905,Poggio Casaccia,685.0
44.08472,11.518736,Poggio La Serra,801.0
44.10541,11.50321,Poggio del Castellaccio di Tana,856.0
43.6581,11.645312,Monte Pianellaccio,1592.0
43.67047,11.796043,Poggio Caldine,731.0
43.651985,11.756195,Poggio Civitella,918.0
43.61754,11.727922,Poggio Gangari,1106.0
43.628227,11.752651,Poggio Pratolino,1034.0
43.66436,11.779099,Poggio Tondo,711.0
43.665394,11.76956,Poggio Violina,801.0
43.668976,11.78747,Poggio di Fonte,700.0
43.647213,11.939868,Costa Centosoldi,1085.0
43.646675,11.905149,Monte Giusti,1087.0
43.644855,11.896169,Poggio Giusti,956.0
43.645,11.92619,Poggio di Carbincione,1204.0
43.643433,11.919554,Tre Termini,1197.0
43.662136,11.9253435,Monte Foresto,1229.0
43.686302,11.597562,Poggio Castelluccio,1382.0
43.68743,11.58846,Poggio alla Corte,1185.0
43.664627,11.64892,Poggio delle Portacce,1508.0
43.671005,11.56062,Monte Moculi,804.0
43.678715,11.555731,Poggio Stoppi,676.0
43.998062,11.575745,Monte Castellina,975.0
44.085632,11.656967,Monte l'Alto,583.0
43.972042,11.601975,Monte Peschiena,1198.0
44.0531,11.651481,Monte Val del Calvo,849.0
44.077427,11.6408,Monte di Castelnuovo,629.0
44.041145,11.645288,Monte di Gamogna,1012.0
44.042633,11.619123,Poggio Boccetta,754.0
43.993023,11.574854,Poggio Ceppa Tonda,1042.0
44.047737,11.622954,Poggio dei Saldoni,830.0
44.041725,11.636979,Poggio della Cornacchia,960.0
43.88218,11.86978,Monte la Rocca,1038.0
43.825558,11.874274,Poggio della Bertesca,1270.0
43.859894,11.854707,Monte Cerviaia,1056.0
43.900444,11.695069,Poggio di Giogo,1159.0
44.126816,11.6028,Monte Toncone,813.0
44.17877,11.722753,Monte del Tesoro,489.0
44.160748,11.706428,Monte Rigonzano,626.0
43.84202,11.709484,Poggio Garbello,1053.0
44.278965,11.529928,Monte la Pieve,508.0
43.944756,12.12959,Monte Finocchio,650.0
43.96807,12.143122,Monte di San Vicinio,613.0
43.878487,11.659837,La Macia,1254.0
43.87535,11.672757,Monte Acuto,1484.0
43.882404,11.644056,Monte Massicaia,1362.0
43.86778,11.639635,Poggio Faggio Tondo,1037.0
43.90337,11.591989,Maestà di Tizzano,909.0
43.90412,11.606756,Monte Campaccio,1022.0
43.722157,11.561016,M. Cuccuruzzo,1326.0
43.58473,11.810559,Poggio Grillo,705.0
43.55463,11.908146,il castellaccio,657.0
43.57839,11.900103,Poggio Tondo,625.0
43.57231,11.900737,La Cerretina,642.0
43.567856,11.896513,Castellonchio,638.0
43.563374,11.908106,Poggio il Quercieto,617.0
43.580353,11.857548,Monte Lupone,424.0
43.570835,11.815029,Poggio Santa Lucia,509.0
43.596714,11.854043,poggio il pianale,610.0
43.60327,11.960211,Il Monte,1204.0
43.59407,11.969122,Poggio della traversa,943.0
43.60455,11.942067,Monte Filetto,1280.0
43.889,11.876079,Monte Marino,1062.0
43.910244,12.247358,Monte Aquilone,807.0
43.981133,12.049865,Monte Mercurio,692.0
44.237293,11.738339,Monte Sacco,221.0
44.156853,11.632823,Monte Piansereno,735.0
44.237446,11.7085085,Monte Incisa,378.0
44.246613,11.755109,Monte Rinaldo,247.0
44.208702,11.723376,Monte Cannello,353.0
44.210926,11.714661,Monte Bitella,409.0
43.544525,11.827471,Monte Altuzzo,446.0
43.90024,11.666703,il Bozzolo,874.0
43.88687,11.653057,Poggio Arsiccio,1141.0
43.902206,12.354955,Monte San Severino,658.0
43.60319,12.152008,Monte Vicchi,951.0
43.80891,12.320051,Testa del Monte,1406.0
43.802017,12.320162,Monte Carpegna,1415.0
43.78524,12.104991,Monte Aquilone,1354.0
43.913292,12.060325,Monte di Facciano,923.0
43.9992,11.618952,Monte Lavane,1242.0
43.95549,11.580863,Monte Acchieri,775.0
43.946796,11.571991,Monte Gattaia,641.0
44.282345,11.78388,Monte Varnelli,174.0
44.34145,11.708631,Monte Castellaccio,61.0
43.84824,12.347091,Monte San Marco,1121.0
43.857323,12.342967,Monte della Croce,1065.0
43.86421,12.339406,Monte Tognino,916.0
43.843063,12.368497,Monte Copiolo,1032.0
43.835922,12.371248,Poggio,910.0
43.897633,11.888168,Monte Pezzali,938.0
43.892635,11.96085,Poggio Carnaio,898.0
43.892227,11.874992,Monte Verna,937.0
43.879063,11.92443,Monte Cuccolo,779.0
43.877712,11.898398,Monte Riccio,660.0
43.869343,11.94269,Monte Frullo,934.0
43.834866,11.850164,Poggio Fonte Murata,1062.0
43.811195,11.958973,Poggio Valsezza,849.0
43.804615,11.989859,Poggio Castellaccio,916.0
43.805748,11.947248,Poggio Alto,905.0
43.794216,11.838395,Poggio Brogli,1187.0
43.792244,11.988584,Poggio Bàncola,883.0
43.787548,11.970733,Poggio Castiglione,988.0
43.775402,11.954663,Montalto,1302.0
43.756504,11.908185,Poggio della Forca,876.0
43.781616,11.885723,Poggio della Cesta,1113.0
43.75623,11.873747,Poggio Baralla,1208.0
43.744434,11.945643,Monte Fatucchio,904.0
43.737328,11.866066,Poggio Ventoloso,889.0
43.730118,11.925874,Poggio Montopoli,1023.0
43.728203,11.982244,Monte Castelsavino,1240.0
43.721306,11.941559,Poggio dello Spicchio,1023.0
43.711685,11.912718,Poggio Cavallo,940.0
43.7122,11.964949,Monte Faggiolo,1208.0
43.71579,11.99244,Monte della Modina,1182.0
43.795887,12.021683,Poggio di Valogna,1072.0
43.79527,12.0487385,Monte Castelvecchio,1254.0
43.79835,12.122523,Monte Fagiola Vecchia,1121.0
43.796345,12.141436,Monte Fagiola Nuova,950.0
43.782673,12.054326,Poggio Mula d'Oro,1191.0
43.784664,12.022862,Poggio Vergatoio,914.0
43.78018,12.040229,Poggio Alto,1086.0
43.776207,12.113933,Monte Senatello,992.0
43.765312,12.074548,Poggio la Croce,1000.0
43.762154,12.162215,Monte Loggio,1178.0
43.759056,12.152836,Poggio Val d'Abeto,1132.0
43.76051,12.009731,Monte Nero,1232.0
43.75353,12.107728,Poggio Tre Vescovi,1126.0
43.751144,12.120544,La Montagna,1153.0
43.74633,12.145789,Monte Montale,1106.0
43.743397,12.116201,Poggio La Croce,1108.0
43.740578,12.071509,Poggio del Castagnolo,1152.0
43.7406,12.054668,Poggio Bandita,1087.0
43.744343,12.024107,Poggio Corgni,914.0
43.73427,12.006181,Poggio Capigliata,939.0
43.736134,12.122956,Monte Albino,1115.0
43.738777,12.1529875,Monte Botolino,1104.0
43.72974,12.1251335,Poggio delle Campane,1035.0
43.727093,12.087103,Monte della Zucca,1258.0
43.720592,12.099983,Poggio la Crocina,1044.0
43.713303,12.157104,Sasso di Cocchiola,923.0
43.70726,12.143949,Monte Cocchiola,946.0
43.706112,12.092518,Poggio dell'Aquila,1021.0
43.70576,12.063632,Poggio di Spiegi,985.0
43.703903,12.016599,Poggio Castellaccia,922.0
43.892036,12.009559,Poggio le Vigne,662.0
43.891384,12.113815,Monte Cersola,621.0
43.885754,12.132654,Monte Carpineto,704.0
43.882027,12.109339,Montino,752.0
43.87804,12.132192,Rocchetta,808.0
43.872272,12.165169,Monte di Rosciano,626.0
43.85958,12.123199,Monte Corvo,846.0
43.86281,12.084489,Poggio Sorbeto,601.0
43.864758,12.057485,Poggio Incisa,923.0
43.855297,12.026481,Le Rocche,868.0
43.844635,12.022692,Poggio di Feliciano,1045.0
43.849773,12.130377,Poggio Baiucca,833.0
43.85205,12.156533,Monte Campostella,802.0
43.84225,12.10848,Monte Apruno,662.0
43.830425,12.061745,Poggio delle Zoccole,933.0
43.836384,12.128007,Poggio Pastorale,848.0
43.833443,12.154956,Monte Pian di Rote,961.0
43.822422,12.103987,La Rocchetta,1036.0
43.81611,12.143179,Poggio la Croce,914.0
43.80996,12.133907,Monte Castello,1000.0
43.80201,12.099145,Poggio l'Abetaia,1164.0
43.793488,12.18694,Monte Zucchetta,798.0
43.785336,12.267382,Monte Canale,1052.0
43.76832,12.17457,Monte della Rena,984.0
43.76353,12.246881,Poggio di Miratoio,924.0
43.754852,12.169594,Monte Faggiola,1088.0
43.749413,12.216409,Poggio del Palazzaccio,849.0
43.74664,12.280418,Monte della Scura,1047.0
43.73616,12.187015,Monte Prato Lama,795.0
43.73101,12.206714,Monte Cavaliero,779.0
43.736134,12.314643,Monte Luccio,953.0
43.72757,12.275484,Lo Spicchio,921.0
43.72726,12.246237,Poggio delle Campane,1035.0
43.726147,12.223945,Monte Maggio,899.0
43.7122,12.167402,Poggio della Pulce,817.0
43.708134,12.169291,Poggio dei Prati,810.0
43.712086,12.290037,Monte dei Frati,631.0
43.702023,12.190751,Monte Cerreto,729.0
43.697323,12.237061,Monte Sovara,1003.0
43.69158,12.301041,Monte Dese,888.0
43.69367,12.193983,Poggio Baroni,733.0
43.69194,12.177013,Monte Viale,853.0
43.6849,12.171951,Poggio la Piazzola,852.0
43.680885,12.205618,Poggio Monterano,1086.0
43.679234,12.190789,Poggio Pallera,963.0
43.686005,12.229425,Sasso Aguzzo,983.0
43.681763,12.244715,Monte Bello,1073.0
43.67898,12.23702,Poggio della Regina,1041.0
43.684753,12.26852,Monte Serra di Battiroli,983.0
43.676296,12.313351,Monte Cossante,857.0
43.671,12.284763,Monte Alto,781.0
43.67759,12.205209,Poggio Spine Cadute,1055.0
43.669273,12.177001,Poggio Mandriacce,1055.0
43.669346,12.170475,Il Monte,1102.0
43.676685,12.169325,Poggio il Ciocco,976.0
43.664238,12.19164,Poggio Ciabattine,1104.0
43.661552,12.211047,Monte Orsaia,954.0
43.66267,12.240346,Monte Ansegni,896.0
43.654087,12.277949,Monte Felcino,788.0
43.65117,12.216284,Monte Vallandia,872.0
43.65134,12.199867,Colle delle Quarantelle,1021.0
43.657726,12.185884,Poggio Valalfio,1120.0
43.648365,12.180461,Monte Maggiore,1384.0
43.647285,12.190539,Poggio dell'Appione,1152.0
43.64994,12.259112,Monte Pianacci,733.0
43.648605,12.297899,Monte Gaggino,769.0
43.647327,12.318517,Monte Lavacchio,712.0
43.641556,12.297224,Monte Spicchio,852.0
43.635178,12.287446,Ripa della Tagliola,813.0
43.639412,12.259199,Poggio Latterini,890.0
43.636635,12.246474,Poggio della Biforca,908.0
43.634583,12.209296,Monte Finocchio,1074.0
43.6316,12.185433,Col del Sasso,1089.0
43.627506,12.202125,Poggio Alto,1252.0
43.62604,12.279731,Poggio Corniolo,800.0
43.61976,12.322089,Monte della Guardia,868.0
43.617283,12.277529,Monte Lucano,892.0
43.618324,12.23852,Poggio Caldesei,914.0
43.61733,12.228349,Il Montaccio,1043.0
43.61942,12.210832,Monte Sodo Pulito,1225.0
43.610943,12.166117,Poggio di Moscheto,777.0
43.610867,12.213702,Poggio i Tre Termini,1171.0
43.612,12.263086,Poggio del Lupo,899.0
43.602398,12.321874,Cima di Spinabeto,888.0
43.604965,12.264054,Col di Travaia,976.0
43.60324,12.21849,Poggio Pratin del Bravo,1130.0
43.600178,12.197721,Poggio della Rocca,1012.0
43.696247,12.057328,Monte del Faggio,954.0
43.692913,12.054011,Poggio di Santa Lucia,886.0
43.692917,12.126448,Poggio della Travaia,992.0
43.69441,12.136503,Poggio Giardino,872.0
43.68878,12.159994,Poggio del Cucco,997.0
43.68963,12.115969,Poggio Sambuco,1076.0
43.683567,12.091986,Montalto,1061.0
43.67745,12.018464,Poggio Castellaccio,661.0
43.682083,12.154581,Poggio il Fondaccio,1127.0
43.671337,12.141942,Poggio dei Piani,1132.0
43.67363,12.124475,Monte Verde,1149.0
43.67009,12.074738,Poggio delle Calbane,879.0
43.66314,12.029086,Poggio di Garavone,709.0
43.657932,12.040168,Poggio Stantino,737.0
43.663338,12.101685,Poggio Gallione,894.0
43.661648,12.109102,Colle di Lombrico,931.0
43.664524,12.114623,Monte Macchione,1031.0
43.664448,12.124806,Sasso dei Marchi,912.0
43.6655,12.139452,Col del Pegli,984.0
43.666676,12.1473675,Poggio delle Coste,1184.0
43.655136,12.142554,Poggio Vicuccio,1029.0
43.652645,12.149232,Poggio della Ciocchetta,1072.0
43.653282,12.109746,Poggio Tondo,799.0
43.65667,12.099136,Il Poggio,787.0
43.649055,12.098779,Poggio Mandrioli,695.0
43.65152,12.064837,Monte Petroso,649.0
43.654102,12.007029,Poggio Scopetone,684.0
43.646946,12.165422,Monte Cucco,1192.0
43.647022,12.147724,Poggio del Castello,978.0
43.639755,12.154556,Poggio del Tesoro,989.0
43.644463,12.134401,Poggio delle Rugginaie,826.0
43.64586,12.048354,Monte Murlo,615.0
43.635487,12.108521,Poggio Meliccia,630.0
43.634636,12.134192,Colle di Lavacchio,861.0
43.6332,12.162875,Colle di Gabrino,971.0
43.627808,12.161849,Il Monte,1064.0
43.626823,12.109144,Poggio del Papa,657.0
43.621536,12.039685,Monte Fungaia,680.0
43.614975,12.030695,Rocca Cignata,568.0
43.617332,12.1506605,Monte Prati Alti,1057.0
43.607983,12.1618805,Poggio del Cucco,677.0
43.613956,12.134144,Poggio San Lorenzo,729.0
43.790936,12.108548,Poggio del Passino,1317.0
43.791626,12.094408,Poggio Sette Faggi,1260.0
43.79681,12.092105,La Costa,1349.0
43.89573,11.805924,Monte Belvedere,792.0
43.897667,11.827083,Poggio Collina,869.0
43.89158,11.72024,Costa Poggio dell'Aggio Grosso,1201.0
43.885063,11.79825,Poggio Squilla,1112.0
43.880993,11.719976,Poggio Martino,1535.0
43.871742,11.799029,Monte Grosso,1043.0
43.863567,11.785224,Poggio Capannina,1120.0
43.867092,11.780057,Poggio Ricopri,1051.0
43.864334,11.8295555,Poggio alla Gallona,847.0
43.856785,11.790614,Poggio della Serra,1143.0
43.847,11.669962,Monte Castellonchio,1070.0
43.83399,11.68316,Poggio Castellare,979.0
43.825947,11.710788,Poggio alla Croce,835.0
43.829464,11.763395,Cima Colletta,1182.0
43.825542,11.762101,Poggio la Mazza,1105.0
43.82941,11.780946,Poggio Metà d'Olmo,1211.0
43.808052,11.66734,Poggio Roseto,776.0
43.810272,11.727243,Poggio Pianaccio,739.0
43.808098,11.750122,Poggio Prato Pagliaio,837.0
43.811394,11.781668,Poggio Segaticcio,1172.0
43.807518,11.779321,Poggio Cavallino,1107.0
43.9979,11.691522,Monte delle Capanne,927.0
43.995358,11.830362,Monte della Macchia,807.0
43.988693,11.820836,Monte San Marco,825.0
43.988636,11.723218,Monte Luceto,824.0
43.981743,11.718418,Monte della Voltura,1026.0
43.981537,11.712904,Monte Tàbor,975.0
43.98267,11.795975,Monte Castelli,660.0
43.951824,11.805025,Poggio Caprile,993.0
43.955185,11.674349,Il Sodo,899.0
43.943058,11.739048,Monte Pozzone,909.0
43.944023,11.684526,Poggio dei Tramiti,1080.0
43.94405,11.671285,Poggio Barile,960.0
43.93632,11.708969,Monte Rozzo,1031.0
43.9334,11.813953,Poggio Fabbreria,916.0
43.929817,11.727751,Poggio delle Culle,1075.0
43.913555,11.686644,Poggio Citerna,1121.0
43.915,11.750868,Monte Cavallo,1164.0
43.91799,11.806524,Piano d'Arcai,996.0
43.90796,11.692172,Poggio Piano,1138.0
43.899094,11.789007,Poggio Aguzzo,762.0
43.993217,11.953966,Monte delle Ruote,574.0
43.98196,11.989302,Monte Sambucheto,780.0
43.969692,11.849744,Monte Prignolaia,844.0
43.962814,11.865264,Monte Vecchio,625.0
43.94348,11.957734,Monte della Sega,846.0
43.934254,11.974294,Monte Aiola,943.0
43.92691,11.839829,Poggio Spicchio,663.0
43.919926,11.856719,Poggio Castellina,731.0
43.924675,11.910717,Poggio Castellina,623.0
43.908554,11.953766,Monte della Placca,862.0
43.917294,11.88184,Monte Carnovaletto,689.0
43.900246,11.863805,Poggio delle Stolle,745.0
43.90385,11.878968,Monte Dragone,761.0
43.900944,11.968317,Monte della Cella,894.0
44.09862,11.711339,Monte Serra,625.0
44.09888,11.7782,Monte San Valentino,661.0
44.102303,11.808821,Montebello,686.0
44.084408,11.828707,Monte Chioda,653.0
44.08463,11.73354,Monte Vespignano,601.0
44.08806,11.690725,Monte Casalino,667.0
44.076046,11.773153,Monte Cucco,637.0
44.07728,11.786347,Monte Marzanella,693.0
44.067074,11.709847,Monte Campaccio,693.0
44.072937,11.671294,Monte Cavallara,744.0
44.065662,11.694416,Monte del Tesoro,702.0
44.059227,11.705396,Poggio Dorneta,790.0
44.060818,11.739314,Monte Ploneta,653.0
44.059055,11.771253,Monte Sacco,745.0
44.051525,11.7587385,Monte Prevecchio,769.0
44.053757,11.683281,Monte di Bufalo,801.0
44.047253,11.699236,Monte Caibano,829.0
44.044193,11.729545,Monte Stornara,705.0
44.038456,11.748297,Monte Freddo,896.0
44.04076,11.693207,Monte del Cerro,879.0
44.02589,11.735313,Monte Fuso,911.0
44.027412,11.684973,Monte della Solista,960.0
44.021297,11.678691,Cozzo del Diavolo,1073.0
44.021976,11.670467,Monte Bruno,1087.0
44.012447,11.783952,Monte Orlando,738.0
44.013718,11.800456,Monte della Serra,792.0
44.017193,11.818621,Monte Vecchio,720.0
44.007713,11.680727,Monte Susinelli,1091.0
44.00123,11.690826,Col dei Caprioli,896.0
43.883327,12.247243,Monte Moscellino,777.0
43.863235,12.166279,Monte Bono,645.0
43.854824,12.226165,Monte San Silvestro,884.0
43.84101,12.173977,Monte Zuccola,868.0
43.81386,12.210315,Monte Pozzale,632.0
43.812134,12.172206,Monte di Monterotondo,875.0
43.996998,12.290331,Monte Curto,434.0
43.98299,12.232151,Monte Boso,408.0
43.989033,12.222549,Monte Caibana,321.0
43.969902,12.215766,Monte Paderno,370.0
43.967606,12.18089,Monte Dorzale,476.0
43.945175,12.2504635,Poggio Cossura,438.0
43.939564,12.266932,Monte Tognino,435.0
43.93668,12.220286,Monte Spelano,649.0
43.921196,12.234188,Poggio Ciuffa,615.0
43.927624,12.286547,Monte Fagnano,469.0
43.907116,12.169742,Poggio di Sapigno,544.0
43.906654,12.261813,Monte Pincio,866.0
43.89984,12.300889,Poggio Pietroso,335.0
43.987373,12.139076,Monte Valentino,426.0
43.995636,12.138653,Monte Canella,334.0
43.978752,12.025702,Monte Altello,672.0
43.97577,12.03619,Monte Navacchio,669.0
43.984222,12.079201,Monte Corno,615.0
43.991673,12.159654,Monte Belvedere,444.0
43.976696,12.12884,Monte Maiavolo,556.0
43.9795,12.110345,Monte di Vecchiano,598.0
43.967113,12.015359,Monte Valnesta,740.0
43.95981,12.10732,Monte della Pietra,584.0
43.962044,12.081707,Monte Bandirola,480.0
43.958443,12.004457,Monte della Faggia,852.0
43.947536,12.164482,Monte Bello,518.0
43.944633,12.106921,Monte Guscella,555.0
43.95259,12.087372,Monte Tenaglie,615.0
43.944622,12.073982,Monte di Rullato,729.0
43.95086,12.061917,Monte Cornio,670.0
43.94472,12.022734,Monte la Rocchetta,609.0
43.93365,12.056902,Monte Castellaccio,813.0
43.929604,12.090805,Monte Pietra,763.0
43.92986,12.015761,Poggio Ronco,747.0
43.92614,12.029139,Monte Capanna,775.0
43.9207,12.0606785,Monte Vecchio,881.0
43.902622,12.011233,Monte delle Forche,912.0
43.91,12.019302,Monte Mescolino,969.0
43.907726,12.08777,Poggio Castrellara,691.0
43.88955,11.561654,Il Torrione,640.0
43.89195,11.580192,Poggio Giovi,838.0
43.86232,11.511408,Poggio alla Croce,477.0
43.875652,11.506053,Poggio dello Spicchio,585.0
43.87639,11.5977955,Poggio Petroio,763.0
43.868286,11.646552,Poggio Porciglie,1020.0
43.86471,11.632818,Poggio Ratoio,967.0
43.866867,11.6158495,Poggio Mandri,767.0
43.85802,11.537831,Poggio Castiroccoli,362.0
43.852757,11.640101,Monte Vadiglione,1074.0
43.85539,11.656021,Poggio a Scheggi,930.0
43.84708,11.554676,Poggio al Tufo,731.0
43.840717,11.557101,Poggio Segaticcio,753.0
43.83007,11.644648,Poggio Rocchetta,989.0
43.833393,11.606754,Poggio Fontanelle,1041.0
43.827137,11.604496,Poggio Nato Costato,1059.0
43.829758,11.554997,Monte di Pomino,888.0
43.81951,11.656743,Poggio Tramonti,803.0
43.815117,11.623374,Monte Cucco,1146.0
43.815865,11.56665,Monte Fonte Fresca,860.0
43.80622,11.576584,Poggio Castello,909.0
43.804207,11.605186,Poggio Alto,1052.0
43.805717,11.682115,Il Poggiaccio,677.0
43.797283,11.682764,Il Monte,793.0
43.798412,11.763442,Poggio di Guardia,747.0
43.795135,11.801736,Poggio Muschioso basso,1151.0
43.789383,11.681893,Poggio Bellano,822.0
43.776756,11.687834,Poggio Gattaio,773.0
43.774155,11.807567,Poggio Corniolo,967.0
43.766766,11.825643,Poggio Frèggina,768.0
43.780457,11.772352,Poggio Tondo,882.0
43.782288,11.668522,Poggio Omo Morto,940.0
43.76911,11.704475,Poggio Pescina,573.0
43.761105,11.667316,Poggio Casalino,838.0
43.751347,11.681601,Monte Lupino,807.0
43.729282,11.68215,Poggio Palaie,656.0
43.72976,11.696476,Poggio Moncullo,607.0
43.723316,11.711626,Poggio Casanova,722.0
43.728962,11.703968,Poggio Bastia,732.0
43.715214,11.715933,Poggio alla Croce,665.0
43.717236,11.702264,Poggio Castiglioni,728.0
43.71455,11.677548,Poggio Incisa,807.0
43.710835,11.739604,Poggio al Vento,613.0
43.70194,11.754248,Poggio di Fronzola,602.0
43.699146,11.713491,Poggio Scopone,789.0
43.699345,11.697634,Poggio Moro,954.0
43.702885,11.673585,Poggio Faeto,973.0
43.703312,11.679578,Poggio Pianelli,886.0
43.996235,11.612517,Poggio della Colletta,1144.0
43.989655,11.533972,Monte Stelleto,1008.0
43.97965,11.602505,Il Terminone,1042.0
43.990273,11.629337,Poggio Sodo,1005.0
43.980442,11.649755,Balze Trafossi,952.0
43.97731,11.653457,Monte di Londa,955.0
43.974453,11.662514,Monte del Prato Andreaccio,991.0
43.969437,11.649924,Monte Sinaia,968.0
43.97083,11.559203,Il Monte,776.0
43.964012,11.612667,Monte Casciali,1118.0
43.952534,11.632252,Poggio Erbolini,1052.0
43.95884,11.627811,Colla della Maestà,1034.0
43.957577,11.560705,Monte Campogianni,739.0
43.953957,11.550829,Poggio Paline,768.0
43.94763,11.542135,Poggio di Lavacchio,740.3
43.95142,11.596466,Poggio Aiotta,834.0
43.935764,11.620351,Monte di Casi,709.0
43.936657,11.597214,Poggio Calcina,681.0
43.926136,11.548336,Poggio Calimorti,522.0
43.928814,11.634086,Poggio del Cavallino,729.0
43.920147,11.657779,Le Balze,833.0
43.908142,11.62582,Poggio dell'Atra,815.0
43.915787,11.603761,Poggio Stelletto,733.0
43.914913,11.518876,Poggio Orticaia,469.0
43.905777,11.536033,Poggio Santa Croce,582.0
44.094368,11.558345,Poggio Valicava,712.0
44.0812,11.559213,Poggio Cavalmagra,911.0
44.079823,11.595454,Monte Fossa del Lupo,684.0
44.080048,11.551028,Poggio Renzuola,932.0
44.06614,11.58239,Monte dell'Oro,649.0
44.06415,11.614597,Monte Pèrgole,701.0
44.063572,11.633943,Monte Rotondo,795.0
44.062897,11.6610775,Poggio Grilleta,779.0
44.058434,11.627761,Monte Scarabattole,813.0
44.055107,11.59364,Monte di Villanova,654.0
44.05669,11.543266,Punta di Zanella,732.0
44.04489,11.536858,Monte della Colonna,849.0
44.04203,11.566545,Poggio di Valdolsera,913.0
44.051525,11.567489,Monte Carnevalone,788.0
44.051006,11.582437,Poggio Muschieto,785.0
44.044792,11.6106615,Il Pianellone,678.0
44.0411,11.586645,Poggio delle Pianacce,787.0
44.03024,11.560558,Poggio Rimbusne,1052.0
44.02831,11.565279,Poggio della Frasca,1044.0
44.02606,11.5810585,Monte Finocchio,817.0
44.023655,11.604649,Castellaccio,912.0
44.01886,11.609534,Poggio Lagacciolo,980.0
44.020523,11.663962,Monte del Becco,1007.0
44.01197,11.647295,Poggio dell'Inferno,1098.0
44.007248,11.649648,Poggio Fontanacce,1101.0
44.009026,11.623004,Monte Pollaio,1204.0
44.013382,11.614829,Poggio delle Vette,1119.0
44.009274,11.60536,Poggio delle Margherite,1020.0
44.01658,11.501717,Castel Potente,861.0
44.007774,11.589706,Poggio il Fango,810.0
44.006092,11.605668,Poggio Giuliano,1080.0
44.005924,11.616366,Poggio del Gestrone,1204.0
43.723286,11.965146,Poggio della Rossa,993.0
43.71489,11.95294,Monte Calvano,1254.0
44.17939,11.866175,Monte Castellaccio,509.0
43.661694,12.4801035,Monte Proverso,631.0
43.654633,12.467185,Monte Formento,629.0
43.653713,12.471712,Monte Ciolino,641.0
43.64709,12.465633,Monte Cagnero,723.0
43.636375,12.363706,Poggio San Leonardo,741.0
43.63651,12.380898,Torre Mètola,705.0
43.640923,12.482936,Monte Romualdo,639.0
43.63493,12.490401,Monte del Picchio,780.0
43.56099,12.3888855,Monte della Croce,712.0
43.552532,12.343315,Monte Piancordino,855.0
43.569492,12.360285,Monte del Lago,853.0
43.57644,12.365197,Monte Crudele,858.0
43.576607,12.384681,Monte Macinara,764.0
43.578243,12.410183,Monte Bono,777.0
43.58709,12.426071,Monte Vicino,900.0
43.593063,12.471627,Monte Vaccaro,747.0
43.587666,12.488154,Poggio della Rava,641.0
43.570942,12.342999,Monte Pianacci,853.0
43.53632,12.333356,Monte Sassola,884.0
43.556316,12.483166,Monte della Valle,877.0
43.54131,12.47854,Poggio Aguzzo,950.0
43.535305,12.473605,Monte Soma,956.0
43.518883,12.456302,Pian della Serra,835.0
43.513493,12.448543,Monte Castellaccio,887.0
43.522205,12.457933,Monte Vargonzana,831.0
43.526943,12.458259,Colle Aguzzo,786.0
43.526455,12.468382,Monte Cagnino,820.0
43.526756,12.378436,Segaia Grossa,847.0
43.5233,12.339833,Monte Fumo,867.0
43.518276,12.332561,Monte Penna,806.0
43.517,12.351724,Monte Castel Leone,819.0
43.512665,12.370734,Boccarello della Croce,799.0
43.515507,12.392661,Monte Maggio,812.0
43.505764,12.471411,Cima Tana,785.0
43.507893,12.461418,Poggio Montebello,848.0
43.50648,12.421886,Monte delle Trecciole,861.0
43.50883,12.393328,Monte di Gragnano,770.0
43.502434,12.415772,Monte Cucco,837.0
43.5017,12.477485,Cima del Dunicato,796.0
43.59494,12.243274,Monte Sant' Antonio,1169.0
43.593384,12.225318,Poggio del Romito,1196.0
43.802082,12.08634,Pian del Brigo,1334.0
43.80658,12.082163,Il Monticino,1348.0
43.803314,12.042395,Poggio Biancarda,1219.0
43.833374,11.91768,Monte Càrpano,1130.0
43.657482,11.9855,Balza San Francesco,789.0
43.863598,11.971812,Monte Sorbo,597.0
43.90882,12.252161,Monte della Perticara,884.0
43.888172,11.856662,Poggio la Vecchia,877.0
43.893135,11.918366,Monte delle Petrose,673.0
43.88748,11.707999,Pian delle Fontanelle,1512.0
43.877758,11.745958,Poggio Palaio,1231.0
43.84298,11.923171,Monte Castelluccio,1115.0
43.848003,11.884184,Monte Roncacci,915.0
43.81522,11.863922,Poggio allo Spillo,1438.0
43.8128,11.873574,Poggio Rovino,1406.0
43.807846,11.885487,Monte Cucco,1332.0
43.77967,11.950166,Punta dell'Alpuccia,1271.0
43.761684,11.843244,Poggio d'Oro,751.0
43.68979,11.862947,Monte Fumino,597.0
43.6829,11.890021,Poggio di Stabarsicci,866.0
43.701916,11.918451,Poggio Casale,1016.0
43.673428,11.944412,Poggio dell'Abete,1136.0
43.663467,11.987424,Balza Corbaia,840.0
43.657505,11.996375,Poggio Calbetino,753.0
43.843933,12.036291,Poggio le Corsicchie,1214.0
43.700897,12.172013,Monte Alto,887.0
43.686604,12.053525,Poggio delle Calbane,879.0
43.86687,12.104355,Rocca,679.0
43.80851,12.075598,Poggio dei Pratoni,1315.0
43.550602,12.411387,Monte Valicella,662.0
43.59581,12.452277,Monte Grino,627.0
43.58761,12.360728,Colle Gagliardelli,806.0
43.595192,12.3724,Monte dei Sospiri,780.0
43.73324,11.90832,Poggio del Monte,844.0
43.72084,12.283143,Monterotondo,751.0
43.826435,11.9507265,Vetta alla Croce,766.0
43.801456,11.8524,Poggio alle Capre,1330.0
43.691605,11.720491,Poggio Camporotondo,868.0
43.690884,11.708707,Poggio Chiarina,922.0
43.691784,11.703735,Poggio Latello,982.0
43.6935,11.693375,Poggio Crocina,1024.0
43.68846,11.685386,Poggio Scarnice,1039.0
43.67884,11.6602745,Monte Dadi,1137.0
43.66817,11.684743,Poggio Candelesi,1022.0
43.66451,11.739329,Monte Bene,787.0
43.662296,11.725972,Poggio Tre Assi,944.0
43.651745,11.716069,Poggio della Madonna,1128.0
43.649014,11.686715,Col del Mulo,1465.0
43.654293,11.70401,Poggio Rubbiale,1248.0
43.651283,11.693796,Poggio della Tana,1368.0
43.617115,11.746925,Poggio della Rocca,1084.0
43.61581,11.761846,Poggio Catarozzo,952.0
43.603577,11.804779,Monte Acuto,649.0
43.673862,11.805691,Poggio Fallito,719.0
43.64038,11.704096,Poggio Catarozzo,1219.0
43.640877,11.711091,Poggio Castagnoli,1106.0
43.681263,11.974846,Poggio delle Colonne,953.0
43.670322,11.974458,Monte di Sovaggio,876.0
43.623215,11.943085,Monte il Castello,1414.0
43.61832,11.946197,Monte Altuccia,1407.0
43.626633,11.953344,Poggio l'Imposto,1258.0
43.60342,11.977119,Poggio il Soglio,982.0
44.02873,11.632386,Poggio del Cucco,909.0
43.81614,12.359451,Monte Boaggine,964.0
43.81528,12.33389,Monte Pietracandella,1217.0
43.817238,12.385135,Poggio Cesarini,728.0
43.84511,12.359835,Monte Montone,1103.0
43.896473,12.345892,San Leo,640.0
43.862846,12.426992,Monte della Valle,835.0
43.859287,12.411484,Poggio Forco,691.0
43.687347,11.662947,Poggio Cocollo Orsaia,1280.0
43.892635,12.315996,Rocca di Maiolo,634.0
43.864605,12.235211,Monte Ercole,938.0
44.101593,11.580399,Monte Carnevale,882.0
44.112206,11.602611,Monte Gamberaldi,806.0
44.1545,11.646111,Poggio Corneto,619.0
44.180954,11.577806,Monte San Lorenzo,679.0
44.175014,11.548528,Monte del Puntale,779.0
44.150833,11.559679,Monte del Pozzo,791.0
44.152695,11.569095,Monte Querceto,703.0
44.139328,11.520815,Monte Castiglione,936.0
44.134308,11.530771,Poggio Pianaccia,915.0
44.142963,11.539612,Poggio la Fratta,822.0
43.745323,11.588833,Poggio Atello,1262.0
43.749016,11.572203,Poggio Stefaneri,1138.0
43.769855,11.564997,Poggio di San Bartolo,1040.0
43.789562,11.569932,Poggio Albergo Nuovo,914.0
43.79445,11.530961,Poggio Boscone,800.0
43.79261,11.5816145,Poggio Toschi,987.0
43.797516,11.631228,Poggio Pian della Fossa,999.0
43.774635,11.663087,il Pagliaccio,885.0
43.764038,11.664404,Pian d'Agata,859.0
43.760277,11.648682,Poggio Santi Pagani,1036.0
43.750854,11.649325,Poggio Calvana,999.0
43.722584,11.635024,Monte Rotondo,1116.0
43.72598,11.640484,Monte Battirosso,1077.0
43.70707,11.623548,Monte Pistiano,1250.0
43.616756,12.093971,Poggio di Peroglia,558.0
43.60893,12.121523,Poggio della Ciocca,661.0
43.602554,12.163451,Monte Croce,689.0
43.67754,11.580368,Monte Acuto,1131.0
43.679207,11.605159,Poggio della Cupola,1297.0
43.68755,11.575081,Poggio al Fantoccio,1006.0
43.698273,11.567553,Poggio Castellare,867.0
43.65733,11.630785,Poggio Pratuccio,1236.0
43.65792,11.6137705,Poggio Massa Ladronaia,1402.0
43.654922,11.614972,il Termine,1285.0
43.64938,11.6152935,Poggio Tensinale,1157.0
43.643448,11.617053,Il Cerigiolo,1034.0
43.639084,11.613533,Poggio alla Fossa,942.0
43.64559,11.639111,Poggio Cocolluzzo,1280.0
43.627285,11.604435,Poggio delle Mandrie,892.0
43.622208,11.605466,Poggio Fonte Maglioni,899.0
43.65562,11.586651,Poggio agli Incisi,989.0
43.60129,11.652054,Monte Pio,748.0
43.55567,12.198406,Monte Giove,713.0
43.548767,12.208598,Monticello,627.0
43.55617,12.22958,Colle Metola,828.0
43.551224,12.229282,Monte Ranconuovo,718.0
43.532997,12.245118,Monte San Gallo,609.0
43.538807,12.262354,Aia dei Giudei,658.0
43.540413,12.271851,Col di Pagliere,728.0
43.555157,12.291761,Camagiuri,792.0
43.565357,12.308372,Catenaccio,971.0
43.57897,12.299746,Monte le Forche,922.0
43.57492,12.306959,Monte Moriccie,966.0
43.59122,12.305711,Cima le Fienaie,964.0
43.577755,12.270696,Monte Castellaccio,850.0
43.588657,12.264173,il Montaccio,1072.0
43.59159,12.248362,Sbocco le Macinelle,1031.0
43.588272,12.193134,Poggio Sportino,861.0
43.57865,12.180144,Monte Garrole,659.0
43.571503,12.208983,Colle di Raso,836.0
43.580795,12.236449,Col della Faccenda,963.0
43.574577,12.231771,Col di Bettaldo,884.0
43.560287,12.277558,Monte Colonna,812.0
43.563385,12.256877,Colle di Corniolo,781.0
43.562172,12.323524,Monte Valmeronte,978.0
43.540535,12.307685,Monte Falcone,859.0
43.529865,12.300647,il Monte,751.0
43.52879,12.326376,Monte Fiorino,830.0
43.509254,12.324297,Col di Peloso,673.0
43.62555,12.492408,Monte Caldare,778.0
43.66005,12.365888,Monte del Tesoro,655.0
43.666634,12.33877,Poggio delle Ruote,655.0
43.680893,12.349194,Monte della Rocca,806.0
43.68488,12.36533,Monte del Prete,636.0
43.62881,12.35688,Monte Cottriolo,797.0
43.62819,12.343813,Monte dello Zoppo,720.0
43.615387,12.340401,Monte Petreto,786.0
43.622543,12.369379,Monte Acuto,779.0
43.624012,12.413052,Torre Montemaio,701.0
43.95828,11.8799715,la Crocetta,683.0
43.954594,11.990785,Monte Calbano,850.0
43.998055,11.953332,Poggio Appennino,570.0
43.955967,12.135173,Poggio Sedici,599.0
43.754017,12.330638,Monte Cassinelle,924.0
43.735474,12.336963,Monte Tagiura,856.0
43.73042,12.345717,Monte Petralla,754.0
43.789265,12.374296,Pietrafagnana,798.0
43.793396,12.380972,Pietrarubbia,757.0
43.77729,12.402323,Monte Santa Maria,752.0
43.963387,11.6247,Poggio di Val Capriglia,1038.0
43.594833,12.155791,Monte Farneto,814.0
43.585026,12.016944,Monti Rognosi,674.0
43.753178,12.026983,il Capannone,857.0
43.97886,12.382961,Monte Borgelino,428.0
43.98214,12.383093,Torriana,452.0
43.970478,12.367851,Montebello,437.0
43.948185,12.338508,Monte Bigoncio,437.0
43.95899,12.343462,Monte Matto,405.0
43.957035,12.338807,Monte Leta,410.0
43.724064,11.552124,Poggio a Novale,1201.0
43.561348,11.916795,Poggio il Collo,625.0
44.20189,11.620627,Monte Dell'Alberino,491.0
43.99471,12.163428,Monte Jottone,552.0
43.99024,11.561662,la Colla,950.0
44.03098,11.843614,Monte Girone,656.0
44.103672,11.749151,Monte Monsignano,628.0
44.123577,11.758335,Monte Pompegno,638.0
44.11521,11.802276,Monte Pratello,610.0
44.13202,11.829866,Monte Leonio,629.0
44.119633,11.705715,Monte Gaggiolo,657.0
44.122036,11.715457,Monte Budrialto,687.0
44.132603,11.720564,Monte Bassana,629.0
44.144123,11.723794,Monte del Tesoro,677.0
44.15376,11.729104,Monte Panigheto,645.0
44.143536,11.669065,Monte Giro,607.0
43.845016,11.699231,Poggio Berci,1041.0
43.8188,11.698592,Poggio Alberini,765.0
43.79811,11.835404,il Cotozzino,1300.0
43.904125,11.892944,Poggio Busca,803.0
43.770073,12.167187,Poggio della Veduta,946.0
43.837856,11.9874115,Poggio Castellina,747.0
43.904064,11.980774,Montignaccio,809.0
43.876053,12.443689,Monte Grillo,790.0
43.840183,12.334312,Monte Costagrande,1087.0
44.01748,11.730574,Monte del Paretaio,891.0
44.295765,11.558067,Monte Maggiore,453.0
44.283165,11.546005,Monte dell'Acqua Salata,487.0
44.20537,11.548061,Monte Carnevale,711.0
43.704308,12.156288,Monte Vecchio,770.0
43.578808,11.743262,Poggio Ripi,742.0
43.70066,12.315455,Monte Padelle,738.0
43.663902,11.991747,Poggio Ferraglia,805.0
44.249203,11.672506,Monte Tondo,436.0
43.94358,12.42499,Monte Cerreto,450.0
43.90557,12.070328,Montalto,840.0
43.585503,11.734973,Poggio alla Croce,767.0
43.696003,11.557265,Poggio Valentino,949.0
43.70457,11.574072,Poggio Sant'Antonio,1046.0
43.67924,11.554556,Poggio Stoppi,676.0
44.202007,11.949748,Monte Poggiolo,212.0
43.709248,11.613467,Poggio Castello,1193.0
44.291615,11.589188,Monte Vanedola,310.0
43.58462,12.173837,Poggio Miolo,589.0
43.597492,12.18194,Poggio della Lupa,807.0
43.59427,12.043615,Poggio degli Scopeti,532.0
43.588345,12.079853,Poggio dei Comuni,554.0
43.573956,11.9988,Monte della Croce,676.0
43.576996,12.019881,Poggio di Castiglione,540.0
43.597507,11.994316,Poggio Capanno,768.0
43.609962,11.967979,Greppo di Tognaccio,1025.0
43.93995,12.337464,Monte Ceti,431.0
43.59605,12.164643,Poggio Sant'Antonio,564.0
44.0313,11.728492,Monte Miccioli,795.0
44.014324,11.694181,Punta Gurioli,990.0
44.02496,11.71283,Punta Pianaccia,838.0
44.006466,11.880054,Monte Spino,659.0
43.691025,11.910986,Poggio di Fognano,913.0
43.734505,11.900583,Poggio di Gello,783.0
43.68236,11.947035,Poggio Assunzione,1036.0
43.698875,11.961767,Poggio alla Rocca,1072.0
43.718674,11.579408,Poggio della Risala,1484.0
43.74781,11.612775,Poggio Pescina,1088.0
43.706284,11.629067,Poggio di Santa Maria,1194.0
43.737236,11.675705,Poggio al Vento,570.0
43.69664,11.669966,Poggio il Soglio,1095.0
43.734947,11.710603,Poggio del Castello,658.0
43.698704,11.771506,Poggio Ginestrino,521.0
43.77055,11.596043,Poggio Tesoro,1151.0
43.790237,11.60256,Poggio Tre Monti,1079.0
43.76691,11.622448,Poggio Acuto,878.0
43.78419,11.609542,Poggio Alberone,1059.0
43.765892,11.601458,Poggio Bocconero,1123.0
43.784718,11.653587,Monte Pomponi,1013.0
43.760933,11.634177,Poggio Bombari,1046.0
43.775425,11.634358,Poggio Gaino,988.0
43.77908,11.62949,Poggio Maestà,992.0
43.764946,11.641343,Poggio Santi Pagani,1044.0
43.81058,11.739756,Poggio Aguzzo,849.0
43.786964,11.783819,Poggio Tesori,873.0
43.78748,11.852946,Croce del Tramignone,1234.0
43.79893,11.913101,Poggio Lombardona,1267.0
43.856617,11.638066,Poggio Calvaliani,1050.0
43.84144,11.753809,Cresta Campamoli,1109.0
43.865356,11.925562,Monte Cocleto,1031.0
43.849724,11.95914,Campodonico,766.0
43.840927,11.984838,Poggio Castellina,747.0
44.081722,11.585781,Il Cuffolone,730.0
44.029877,11.601586,Poggio delle Scalelle,833.0
44.078926,11.629465,Rocca,557.0
44.041172,11.676617,Bianca Collina,816.0
44.07257,11.667306,Monte Grilletta,757.0
44.02108,11.682317,Monte Val dei Porri,1088.0
44.060432,11.691367,Monte del Viglio,764.0
44.045597,11.724341,Monte Fumo,655.0
44.07203,11.743131,Castellaccio,475.0
44.06049,11.822397,Monte del Sasso,517.0
44.071426,11.872778,Monte Grosso,668.0
44.034073,11.867623,Colle di Cento Forche,610.0
44.084743,11.90068,Calboli,507.0
44.021893,11.908327,Monte Martellino,503.0
44.077156,11.922832,Monte Mirabello,627.0
44.032997,11.934381,Monte Grosso,697.0
43.99353,11.940959,Monte Santo Stefano,436.0
44.01475,11.914553,Il Monte,485.0
43.992718,11.8696375,Monte Altaccio,736.0
43.985798,11.583616,Poggio Arrabbiato,925.0
43.986916,11.622819,Poggio Comune,967.0
43.98608,11.630731,Poggio Sodo,1002.0
43.97433,11.5937,Giogo di Corella,1131.0
43.968746,11.753602,Ponte Nuovo,767.0
43.65168,12.17087,Alpe della Luna,1363.0
43.624714,12.103447,Poggio Castellino,641.0
43.623344,12.093332,Poggio del Caviere,598.0
43.607433,12.092037,Poggio di Buiana,645.0
43.527668,12.014057,Monte S.Angelo,560.0
43.535294,12.010785,Poggio Pulito,507.0
43.60866,12.314546,Monte il Cerrone,905.0
44.078274,11.542395,Monte Prevaligo,956.0
43.50792,12.044762,Monte di Gello,506.0
44.03512,12.227189,Monte dei Greppi,389.0
44.00678,11.964112,Monte Bergagna,580.0
44.050636,11.99018,Monte San Giovanni,502.0
44.053513,11.9803915,Monte Rivacce,574.0
44.04634,11.939557,Monte di Selcio,519.0
44.00467,11.98955,Monte Favale,596.0
44.016117,11.991354,Monte Rovereto,572.0
44.014874,11.900307,Monte Delle Forche,479.0
44.014,11.869279,Monte Erno,482.0
44.008293,12.012008,Monte Grande,688.0
43.726547,12.065742,P.ggio Spino,911.0
44.03467,11.963375,Monte Rotondo,451.0
43.57826,11.672178,Poggio Sarna,766.0
43.986298,11.89233,Monte del Falco,529.0
44.143696,12.115782,Monte Casale,252.0
44.05856,12.200299,Monte dei Frati,298.0
44.02626,11.857537,Monte Uccello,540.0
43.89161,11.915119,Il Turrione,683.0
43.571503,12.467489,La Cardaccia,642.0
44.211178,11.59522,Monte della Tesa,514.0
44.211952,11.588052,Monte Cornazzano,620.0
44.244232,11.50808,Monte Codronco,450.0
44.323776,11.557893,Monte dei Mercati,335.0
44.215977,11.523329,Monte Guasteto,501.0
44.336205,11.597893,Montaccio,293.0
44.28538,11.679674,Monte del Ballo,265.0
44.280926,11.666914,Monte Roso,307.0
44.344337,11.625647,Monte Bello,298.0
44.33892,11.571721,La Collina,294.0
44.289955,11.547228,Monte del Verro,429.0
44.30491,11.529345,Monte Spaduro,395.0
44.269146,11.505306,Monte Ferdente,484.0
44.246754,11.705046,Monte Casazza,286.0
44.246773,11.718822,Monte Besdone,261.0
44.295406,11.74501,Monte Querzola,239.0
44.230232,11.588049,Monte Badarello,606.0
44.240917,11.604575,Roncosole,561.0
44.205788,11.5992365,Monte Brullo,359.0
43.59377,12.289171,Monte La Casina,847.0
43.58708,12.304564,Poggio dei Casalini,896.0
43.565243,12.336775,Monte Dieci,905.0
43.571983,12.327543,Col di Colmazzo,918.0
44.19954,11.640543,Monte Della Vecchia,657.0
44.21608,11.65168,Monte Castellaro,527.0
44.218998,11.661944,Monte Faggeto,535.0
44.201603,11.684457,Monte Giornetto,533.0
44.20238,11.704445,Monte Paventa,407.0
44.19381,11.702966,Monte di Casale,341.0
44.22602,11.727608,Monte Spugi,425.0
44.23526,11.754452,Monte Nosadella,261.0
43.515835,12.248095,Monte Novello,502.0
43.529785,12.24337,Poggio della Vicinanza,582.0
44.196327,11.593003,Monte Scappa,493.0
44.200104,11.571993,Monte Mandriola,578.0
44.2021,11.513398,Il Castellaccio,421.0
44.201607,11.904177,Monte Fortino,226.0
44.21427,11.937195,Monte Vescovado,167.0
44.232845,11.902372,Monte Riccio,164.0
44.20643,11.876616,Monte Chiesuola,227.0
44.183052,11.858125,Monte Torre,510.0
44.2058,11.84103,Monte Creta,199.0
44.226326,11.827147,Monte Carla,213.0
44.22215,11.816627,Monte Gebolo,242.0
44.210384,11.794017,Monte Bicocca,353.0
44.20114,11.795884,Monte Dei Pini,333.0
44.189655,11.782863,Monte Fregnano,441.0
44.17346,11.772852,Monte Corno,491.0
44.303257,11.705953,Monte Frassineto,252.0
44.159805,11.749217,Monte Melandro,582.0
44.140423,11.771509,Monte San Bartolo,531.0
44.289116,11.6518755,Montecucolo,218.0
43.72364,11.556153,Poggio alle Ghirlande,1244.0
43.80343,12.060533,Ripa della Moia,1260.0
43.617786,11.836942,Poggio Vittoria,522.8
43.93036,12.423985,Monte Cucco,319.0
43.907143,12.463921,Monte San Cristoforo,529.0
43.914825,12.438775,Monte Pennicciola,544.0
43.914875,12.455608,Monte Carlo,559.0
43.919407,12.472098,Monte della Mandra,352.0
43.956585,12.436597,Monte Ventoso,414.0
43.931232,12.490298,Monte Pulito,346.0
43.73396,12.386043,Monte dei Santi,562.0
44.22802,11.727644,Col Mora,411.0
44.19458,11.909448,Monte di Converselle,227.0
44.180115,11.9108305,Monte La Siba,252.0
43.80027,12.328728,Monte Carpegna Est,1406.0
44.027336,11.535286,Poggio delle Piastrine,827.0
44.211872,11.855302,Monte Pratesi,154.0
44.205418,11.860221,Monte Montale,228.0
44.14966,11.947158,Monte Birra,310.0
44.304066,11.77367,Col Giovannina,76.0
44.21475,11.773373,Monte Pilato,98.0
44.03052,12.210156,Monte Maggiore,256.0
44.194283,11.734393,Monte Valle,327.0
44.192856,11.744857,Monte Fontanazza,373.0
44.306835,11.74612,Col Pineta,193.0
44.155247,11.602213,Monte Pianaccino,659.0
44.228783,11.77373,Monte della Siepe,257.0
43.956436,12.2089405,Monte Trovanelli,317.0
44.069378,11.897398,Monte Colombo,710.0
44.06923,11.568767,Poggio Poraggine,804.0
43.70913,11.94879,Poggiolino Dei Venti,1121.0
43.75478,12.316311,Monte dei Corrieri,1016.0
43.755394,12.327355,L'Osservatorio,937.0
43.763668,12.28679,Simoncellino,1196.0
44.06844,12.213525,Monte Lorenzone,364.0
44.1195,11.568234,Poggio Bacero,764.0
44.116627,11.584284,Poggio Gruffieda,802.0
43.77564,11.886794,Poggio Aguzzo,1134.0
44.18022,11.754707,Monte Spegno,419.0
44.098465,12.137083,Monte Saraceno,283.0
43.93079,12.356496,Monte Fotogno,458.0
43.91383,12.360818,Gavnella,598.0
43.920097,12.363326,Monte Gregorio,578.0
43.757767,12.3451605,Monte Castellaro,889.0
43.800682,11.80652,Poggio Muschioso alto,1261.0
43.58298,12.279435,Sbocco di Gambino,977.0
43.625797,12.440502,Col Baroccio,605.0
43.914215,12.361699,Pirigoz,525.0
43.91946,12.351198,Penna del Gesso,415.0
44.057198,11.887775,Monte San Piero,643.0
44.078865,11.570682,Poggio Vascherone,750.0
44.201527,11.624743,Croce di Luce,540.0
