latitude,longitude,name,elevation
31.113562,116.185844,白马尖,1777.0
31.105639,115.77167,天堂寨,1729.0
30.977388,116.1162,多枝尖,1721.0
31.061487,116.187225,天河尖,1755.0
31.121376,115.577515,薄刀峰,1404.0
31.146881,115.92946,摸云尖,1157.0
31.210806,115.88217,凸肚岩,1384.0
31.213964,115.65703,三省垴,1540.0
31.27196,115.73619,月亮坳,1671.0
30.772675,116.08855,黄柏山,1421.0
30.597853,115.81831,将军山,1109.7
30.977663,116.32949,黄毛尖,1578.4
30.97978,116.25927,公界尖,1562.8
30.745445,116.44991,天柱峰,1489.8
30.74421,116.44947,蓬莱峰,1350.0
30.954865,116.072876,黄茅尖,1693.0
30.687786,116.117455,沙帽尖,952.0
30.722439,116.13623,四望山,1097.0
30.73838,115.77356,双尖山,840.0
30.717485,115.76448,乌牛石,925.0
30.875937,116.06888,明堂山,1563.0
30.899872,116.08531,锅斗岩,1676.0
30.79088,116.08759,团岭,1460.0
30.76052,116.09841,京都尖,1280.0
31.115276,116.20062,多云尖,1763.0
30.734085,116.13447,乌帽尖,1148.0
30.92344,116.0819,驮尖,1751.0
30.734175,115.96305,司空山,1228.0
31.014515,116.39845,猫耳尖,1415.0
30.976894,115.84442,天马寨,1045.0
31.023375,115.85768,仙人岩,1215.0
31.017614,116.00549,挂龙尖,1200.0
31.079304,115.92132,玉皇尖,1093.0
30.745047,116.46215,莲花峰,1306.0
30.743114,116.450554,天池峰,1426.0
30.944418,116.077255,大岗岭,1272.0
30.913788,116.063194,龙王尖,1463.0
30.972994,116.1006,黄柏山岗,1506.0
31.122501,116.1792,猪头尖,1470.0
31.103758,116.20283,横岩,1558.0
30.99081,116.29148,园帽尖,1102.0
30.974106,116.31755,黄芽尖二凸,1564.0
30.990995,116.341484,红石岩,1323.0
30.965017,116.35512,黑黎尖,1286.0
30.941462,116.36635,天堂尖,1192.0
30.988405,116.17116,刁狸岩,962.0
30.999111,116.15107,团凸寨,1131.0
31.023127,116.150795,洞光门,1447.0
31.05218,116.15978,明山寨,1648.0
31.069529,116.17698,将军岩,1553.0
31.10177,116.15306,三天门,1450.0
31.047619,116.258835,牛草山,1422.5
31.089874,116.26154,倒爬岭,941.0
31.0812,116.24084,双峰尖,1344.0
31.094618,116.12486,挺肚子岩,1063.0
31.024902,116.15722,闫王尖,1491.9
30.782835,116.07339,光岩,1065.0
30.744625,116.14495,六合寨,1082.0
30.758352,116.15306,大茅尖,1083.0
30.815342,116.12367,蜈蚣尖,1109.0
30.803873,116.12784,螺蛳尖,810.0
31.255985,115.6806,石门岭,1529.0
31.270504,115.6989,金界岭,1432.0
31.253044,115.762794,佛顶寨,1632.0
31.313229,115.71052,牛王寨,1530.0
31.324398,115.71736,帽顶山,1523.0
31.245451,115.772804,韭菜岩,1382.0
31.251492,115.834175,横岩,1123.0
31.27677,115.85054,宝珠寺,1249.0
31.28496,115.88006,团包垴,1215.0
31.331276,115.81045,天王寺尖,1393.7
31.302698,115.78678,光木尖,1395.0
31.321238,115.64283,东高山,1197.0
31.328943,115.66654,香炉尖,890.0
31.397432,115.65948,老鸹岩,1103.0
31.140165,115.79979,风簸斗,1591.0
31.154213,115.80605,八斗岩,1342.0
31.128414,115.809425,鸡心石,1635.0
31.198458,115.70824,狮子垴,1177.0
31.144352,115.582,献旗岭,1110.0
31.167387,115.600174,黄梅尖,1034.0
31.164715,115.55168,黄狮寨,970.0
31.183533,115.5408,石佛垴,890.0
31.39967,115.50698,老林尖,1015.0
30.739641,116.46571,覆盆峰,1150.0
30.739946,116.46773,天狮峰,1186.0
30.742441,116.45092,飞来峰,1424.0
30.745262,116.45268,皖伯峰,1370.0
30.74519,116.45497,石楼峰,1328.0
30.745285,116.45615,青龙峰,1370.0
30.740368,116.457985,回狮峰,1142.0
30.741447,116.463066,登仙峰,1152.0
30.736795,116.46122,飞虎峰,1066.0
30.737535,116.462105,迎真峰,1109.0
30.877178,116.18501,马园寨,990.0
30.84547,115.843056,羊角尖,1128.0
31.005495,115.84858,篓子石,1258.0
31.100409,116.16238,三个尖,1475.0
30.680271,116.06002,羊角尖寨,823.0
30.68785,116.06634,焦家山,930.6
31.01574,116.05225,大同尖,1698.7
31.024874,116.0305,二天门,1360.0
31.319239,116.1565,挂龙尖,847.4
31.016912,116.040276,李家寨,1562.0
30.89478,116.08369,雷音寺塔,1704.0
30.87189,116.13872,大横岗,1055.0
31.04223,116.35124,燕子山,1216.0
31.01832,116.409904,二祖山,1365.0
30.975246,116.42124,铜安寨,1342.3
30.800228,116.425285,河山寨,1223.0
30.789852,116.42587,放马寨,1199.0
30.77485,116.38787,思婆尖,893.0
30.783316,116.41931,悬鼓岭,1035.0
30.86278,116.27266,飞旗寨,1046.0
30.883883,116.237434,桃园寨,1295.0
30.876337,116.2486,扁担撬,1088.0
30.874258,116.39779,双峰寨,1023.8
30.95243,116.320786,石头寨,1113.0
30.708454,116.12018,熊家尖,923.0
30.673744,116.088875,天花坪,814.0
30.937387,116.44367,驼背尖,1039.0
30.954872,116.43569,太平寨,1251.0
30.933636,116.37441,伏龙寨,1110.8
30.919552,116.39683,召孤尖,1056.0
30.931595,116.45318,杨家大岗,1046.0
31.037512,116.17007,鸡笼尖,1519.0
31.050613,116.0442,癞痢尖,1180.0
31.1461,115.7794,白马峰,1480.0
31.17264,116.18954,扁担石,1175.0
31.173658,116.166954,扇子排,1338.0
31.160408,116.12966,雷打尖,1320.0
31.162155,116.17473,山宝尖,1266.0
31.192408,116.12674,殷氏寨,948.0
31.18243,116.289795,黑龙包,1128.0
31.214294,116.312904,小四望山,1078.0
31.15633,116.25098,四望山,1396.0
31.07518,116.064,青尖林,1235.0
31.112276,116.04745,白羊尖,1090.0
31.205595,116.25607,白刀背,956.0
31.295078,116.09183,四角尖,1144.0
31.310644,116.0601,香草坪,1112.0
31.317057,116.0737,钟鼓楼,1140.0
31.30258,116.05742,斗笠尖,1029.0
31.378157,116.073235,松山寨,1070.0
31.142862,115.92552,清水岩,1174.0
31.281794,116.023766,广应尖,1041.0
31.089603,116.45775,六县尖,1162.0
31.056158,116.4451,磕头尖,1050.0
31.083197,116.36948,灰窑尖,1058.0
31.08905,116.36704,天河岗,1067.0
31.095827,116.36999,架炮尖,1072.0
31.098106,116.36158,狮形包,1109.0
31.111416,116.3561,仰天包,1166.0
30.942423,116.495575,老虎凸,1040.0
30.898693,116.47528,高峰寨,1200.0
30.76073,116.4535,铜锣尖,1001.0
30.843842,116.49211,纱帽石,1033.0
30.92836,116.49183,白岩寨,1266.0
30.74796,116.365005,十八罗汉尖,812.0
31.105982,116.183044,花岩,1696.0
31.028652,116.02875,一天门,1250.0
31.284227,115.681595,崇光岩,1301.0
31.289534,115.75166,月亮岩,1500.0
30.682438,115.809845,铜锣弦,763.0
30.589712,116.08431,老岩尖,736.0
30.59945,116.06342,杨武寨,425.0
30.601782,116.10466,芒花寨,586.0
30.625835,116.083916,桐英寨,709.0
30.661394,116.137344,葫芦尖,948.0
30.590292,115.98154,三尖寨,846.1
30.59606,115.9991,上白树岩,665.0
31.259962,115.66686,白石墙,1240.0
31.286823,115.65006,鹰咀石,943.6
31.22759,115.61128,道人坪,929.6
31.15345,115.72253,笔架山,1373.0
31.140934,115.8481,云峰顶,1254.6
31.362421,115.80441,乳香岩,987.9
31.343006,115.79187,仙人坟,1074.0
31.340578,115.77313,倒马岭,751.0
31.411016,115.81087,黄王寨,827.0
31.400969,115.789566,豹子岩,863.0
30.80122,116.0981,妙道山,1432.0
30.746916,116.35805,五方井,817.0
30.84879,116.10275,芝麻尖,1026.0
31.203613,115.687775,月亮寨,1340.0
31.12317,115.58905,爵主庙,1194.0
31.065392,115.79455,独龙尖,1010.0
31.207487,115.67768,猪鬃岭,1365.0
31.07231,115.54912,光骨垴,783.0
31.088179,115.5716,仙人岩,984.0
31.164173,115.71646,桃园,980.0
31.082314,115.55465,独尊山,1024.0
31.078848,115.90735,鹰窠岩,1081.0
31.06886,115.720375,团山垴,1063.0
31.110146,115.82311,鸡冠寨,1236.0
31.11956,115.81719,月亮岩,1245.0
31.179142,115.70907,王家山,1023.0
31.157137,115.73101,黄花旦山,1315.0
31.09272,115.82426,黄花垴,870.0
31.071308,115.760796,圣卦尖,1141.0
31.067554,115.71023,红花尖,1094.0
31.05119,115.86632,寨尖,874.0
31.054712,115.888214,毛楂山,1071.0
31.131645,115.841354,锯儿齿,1265.0
31.128712,115.889565,石鼓寨,944.0
30.966715,115.91315,光尖,1021.0
30.97181,115.98636,大角耳尖,1138.0
30.981356,116.05521,鸡笼尖,1346.0
30.969112,116.001236,萧家寨,1275.0
30.951328,116.00727,大花尖,1244.0
30.81362,116.33672,钓鱼尖,820.0
30.802603,116.331825,靖水寨,956.4
30.861004,116.42269,刘外岩,798.0
30.933416,116.2698,乌牛石大岗,1081.0
30.830559,116.31723,大石岩,894.0
30.90393,116.39271,土寨,943.0
30.970789,116.33955,长岗,1414.0
30.926708,116.335526,团凸,748.0
30.938084,116.32666,绣花尖,718.0
30.811104,116.418,小寨,1024.0
30.909065,116.41835,横岭大凸,834.0
30.900303,116.43926,东风岗,994.0
30.879484,116.42886,鹿兔尖,851.0
30.942818,116.28153,钢竹岭,1035.0
31.043913,116.1701,明山小寨,1553.0
30.91419,116.42954,取水尖,991.0
30.975285,116.27914,桦树排,1097.0
30.921736,116.26227,摇铃尖,899.8
30.97825,116.18929,能望尖,992.0
30.907267,116.253426,大黄沙岭,816.0
30.98911,116.189804,老鸦尖,929.0
31.003119,116.21994,擂鼓尖,858.0
31.04698,116.21763,花岩,1291.0
31.16684,116.40363,鹰咀岩,1005.0
31.16457,116.38591,红山寨,683.0
31.224855,116.25627,鸡笼尖,1010.0
30.72746,116.43285,石龙峰,880.0
30.724613,116.42992,香子峰,781.0
