latitude,longitude,name,elevation
61.49217,153.60701,Шун,1094.0
61.3977,153.89005,Катет,1460.0
61.3847,154.37952,Синяя,1710.0
61.114872,153.882,Голубой,1587.0
60.854992,153.59436,Кивалга,1778.0
60.627518,153.52692,Ночной,1473.0
60.560444,154.08287,Прижимный,1075.0
