latitude,longitude,name,elevation
59.50491,7.9140625,Bessefjell,1131.0
59.728424,8.400461,Brattefjell,1540.0
59.755928,7.8932834,Husnuten,1609.0
59.619755,8.064138,Vehuskjerringi,1356.0
60.458504,8.090175,Ustetind,1376.0
60.4088,8.0486,Bjordalshøgdin,1264.0
60.373444,8.351015,Djupeskard,1264.0
60.4316,7.9264,Håkonhovda,1265.0
60.4154,7.8702,Krækkjahæe,1335.0
60.4112,8.2613,Kyrkjehovda,1275.0
60.4075,7.7414,Midnuten,1288.0
60.443474,7.9275975,Monsbuhæe,1286.0
60.17687,8.06915,Austre Hettehovet,1412.0
60.367626,8.006875,Bleikehæe,1294.0
60.24743,8.151584,Breidhovd,1325.0
60.21806,7.971389,Festningsnutan,1368.0
60.313225,7.9342,Geitsjøhovda,1254.0
60.261227,8.204972,Halstjønnberget,1329.0
60.3338,7.985475,Heinberget,1272.0
60.30034,8.074581,Høljabrotet,1294.0
60.329906,8.363625,Kistenuten,1288.0
60.213993,8.105871,Kosadalsbrotet,1386.0
60.201355,8.045753,Kosadalsnutan,1405.0
60.196312,7.8382716,Melrakknutan,1345.0
60.269226,7.852025,Midtnuten,1412.0
60.33353,7.8504,Midtselstjønnhovda,1268.0
60.19925,8.372364,Nutenuten,1372.0
60.3498,8.466146,Sigridfjell,1231.0
60.262245,8.269792,Simlehovde,1353.0
60.303646,7.70406,Skaupsjønuten,1414.0
60.27603,8.398175,Skinnuten,1384.0
60.214214,8.192504,Skjortebrotet,1353.0
60.317226,7.854225,Skyttarbuhovda,1267.0
60.22788,7.803478,Store Skrekken,1429.0
60.10261,7.813042,Storhellertjønnhovda,1390.0
60.37131,7.701878,Storholmnuten,1288.0
60.320915,8.352758,Storhovde,1246.0
60.2397,8.25445,Synhovd,1332.0
60.246914,8.424089,Synhovd,1437.0
60.23435,7.885425,Tjuvhyttnutan,1360.0
60.292976,7.834028,Tormodbrotet,1325.0
60.33051,8.212253,Ræpeholåsen,1321.0
60.347683,7.9043536,Selstjønnutan,1257.0
60.249836,8.346014,Tyrhovdnuten,1339.0
59.762573,8.276389,Bosnuten,1431.0
59.753258,7.950399,Breidalseggi,1568.0
59.836227,7.821154,Fliseggi,1630.0
59.83969,7.9361305,Godokkeggi,1540.0
59.80175,8.064782,Falkenuten,1096.0
59.70316,8.21968,Brurenuten,1207.0
59.664715,8.235582,Heidalsnutan,1103.0
59.79589,8.208464,Bjønnsbufjellet,1140.0
59.61533,8.3422,Brenderustfjellet,1167.0
59.650784,8.140293,Damtjønnuten,1292.0
59.59646,7.9476614,Fjellhovdane,953.0
59.99502,7.5975842,Skipafjell,1450.0
59.57022,7.6193194,hestehommnuten,1422.0
59.626637,7.5952625,Rassteinnutane,1304.0
59.51056,7.6146703,Sigurdstind,1518.0
59.52409,7.536805,Gråsteinsnosi,1468.0
59.587322,7.523637,Storesåta,1367.0
60.482334,7.5195107,Nordre Gjerenuten,1477.0
60.436954,7.6731224,Olavsbuhæa,1346.0
60.466686,7.6116743,Store Kjeldenuten,1452.0
60.301884,8.473828,Flåtåfjellet,1257.0
60.48657,7.7034445,Blåfjell,1365.0
60.378563,7.509435,Dyranutane,1363.0
60.37246,7.5956693,Steinbunuten,1371.0
60.418896,7.6200414,Dyraheia,1304.0
60.335464,7.653074,Skaupsjøbrotet,1404.0
60.176132,7.5661306,Krakavadnutane,1342.0
60.09534,7.91869,Kallungsjåhovdun,1391.0
60.04923,8.05373,Steinbufjellet,1275.0
59.92019,7.55172,Ormeggene,1459.0
59.51114,7.60036,Vendalsnutane,1517.0
59.53349,7.6094,Kvannfjølli,1424.0
59.64039,7.66068,Berbufjellet,1273.0
60.13207,8.03571,Svartebergnutan,1434.0
59.865784,7.7475395,Stoleggi,1546.0
59.9046,8.32849,Vestre Langesjåhovda,1389.0
59.91979,8.36022,Austre Langesjåhovda,1385.0
60.11862,7.94792,Viuvasseggi,1398.0
59.95448,7.68393,Grasnutane,1509.0
60.05191,7.8464,Gryslehovda,1377.0
59.56754,7.57464,Brekkekollane,1466.0
59.73699,8.29467,Lifjell,1314.0
60.04431,7.70178,Grindetangen,1350.0
59.71044,8.26569,Åto-fjellet,1080.0
59.66072,7.62742,Løypekjerrnutane,1253.0
59.97135,8.05787,Juvikfjellet,1571.0
60.13723,8.29246,Uppnesfjellet,1413.0
60.17257,7.97205,Vestre Hettehovet,1423.0
59.88016,8.43274,Våerskarven,1281.0
60.16618,8.31449,Jonsnuten,1453.0
59.88971,7.67588,Saltpytteggi,1583.0
59.885048,7.6236053,Grothalsen,1403.0
59.54915,8.23967,Breidnuten,1065.0
60.35957,8.26859,Synsnuten,1274.0
60.04655,8.29517,Kilshovde,1258.0
59.70093,7.6745,Gurivassfjellet,1129.0
59.75744,8.40109,Robekknuten,1495.0
59.87707,7.51868,Berunuten,1293.0
60.03703,7.67083,Honserudnibba,1402.0
59.846985,8.379541,Midtfjell,1209.0
59.98208,7.6738,Mørunuten,1389.0
60.07863,8.04814,Stordalsnutan,1454.0
59.89804,8.12198,Kvamsfjellet,1474.0
59.9195,7.96151,Vilsesnuten,1547.0
59.92412,7.79647,Store Kollsnut,1542.0
60.33901,8.472686,Djupegrønuten,1237.0
59.978436,7.8070292,Såtanutane,1462.0
59.717625,7.7861238,Kilsnuten,1313.0
59.596096,7.8433456,Veggsfjell,987.0
59.71256,8.181689,Svinefjell,1180.0
59.637985,8.114582,Stavsfjell,1239.0
59.966366,8.147552,Gryteskarnutane,1489.0
59.89023,7.9691544,Hamresåta,1383.0
59.806038,7.864355,Gubbenuten,1519.0
59.6045,7.6360435,Storemidtfjell,1378.0
59.89446,7.863376,Store Tangefjellet,1493.0
59.71606,7.9066715,Kallåsnuten,1179.0
60.012947,7.6929784,Simlenuten,1401.0
59.66239,7.8416867,Skjennutane,916.0
59.865166,7.6915665,Stokkholmen,1565.0
59.920242,7.71056,Vardanutane,1512.0
59.920284,7.9177246,Hamrefjellet,1480.0
60.11845,7.6086836,Fjellsjåeggi,1341.0
60.080605,7.5261564,Dargesjånutane,1345.0
59.77413,7.77456,Storenut,1396.0
59.937374,7.971808,Dyranut,1480.0
59.66678,7.750928,Tverrfjell,1209.0
59.993214,7.898622,Mofjellet,1407.0
60.05715,7.6184134,Kringlesjånuten,1412.0
59.953285,7.803422,Vasstjønneggi,1499.0
60.06096,7.9616065,Storfjell,1484.0
60.10366,8.321342,Mårsbrotet,1319.0
59.917095,8.203649,Bågåfjellet,1411.0
60.1311,8.132764,Vikbekkfjellet,1474.0
59.96721,8.405972,Egg,1372.0
60.09082,8.258449,Mårsnos,1433.0
59.931564,8.423821,Storfjellet,1314.0
60.07983,8.149837,Reksjåeggen,1478.0
60.02126,8.244149,Skardfjell,1420.0
60.15935,8.091357,Grytekilhovdun,1443.0
60.048332,8.482218,Staupsfjellet,1336.0
59.991364,8.2035675,Stordalsnibba,1492.0
60.147274,8.199999,Hellehovda,1270.0
60.173187,7.7513804,Nottaren,1331.0
60.13724,7.920836,Viuvasshovdun,1424.0
60.210274,7.6203876,Skrovet,1316.0
60.169727,8.475828,Salhovda,1356.0
60.15852,7.843029,Vegarhovda,1376.0
60.145725,7.7266135,Elsjåhovda,1388.0
60.347485,7.7460833,Skaupsjøtunga,1272.0
60.48792,8.353219,Skurdalsåsen,1128.0
60.429596,8.477627,Hestehovda,1155.0
60.47245,7.8416576,Varden,1281.0
60.398224,7.7637873,Halnetunga,1248.0
60.42065,8.1357565,Reinshorntuva,1224.0
60.430458,8.33289,Glitreberget,1181.0
60.42361,8.435209,Snohovda,1130.0
60.3524,8.170932,Ryltesteinbrotet,1283.0
60.485275,8.4449215,Grårøyshovdi,1114.0
59.596176,8.398645,Furufjellet,994.3
59.561775,8.431805,Dalstaulnuten,839.2
59.569992,8.4171505,Linntjønnuten,734.2
59.585182,8.405724,Vikingdalsnutan,955.1
