latitude,longitude,name,elevation
-3.8448243,-32.421494,Morro do Pico,323.0
-3.8728998,-32.438633,Morro da Viúva,39.0
-3.873928,-32.43477,Morro do Leao,39.0
-3.8604124,-32.420666,Morro Boa Vista,117.0
-3.869027,-32.439392,Morro Branco,49.0
-3.8714538,-32.455006,Morro da Quixabinha,151.0
-3.859193,-32.413242,Morro do Espinhaço,223.0
-3.8523014,-32.41986,Morro do Meio,125.0
