latitude,longitude,name,elevation
50.750492,112.668495,Аленгуй-Саган,1300.0
50.728966,112.914345,Джаргалантуйский Ундэр,1409.0
50.8135,112.5587,Хара-Обогор,1480.0
50.79428,112.81635,Хара-Хуши,1521.0
50.69689,112.84809,Хохурский Ундур,1360.0
50.87593,113.376305,Алханай,1662.0
51.264668,112.906654,Яндон,1118.0
51.153152,113.308876,Хадая,1259.0
