latitude,longitude,name,elevation
-14.94842,125.41795,Mount Anderdon,484.0
-15.20732,125.39748,Mount Brookes,279.0
-15.277869,125.06959,Mount Trafalgar,391.0
-15.30277,125.06688,Mount Waterloo,344.0
-14.62634,125.17882,Savage Hill,138.0
-15.32692,124.57813,Square Hill,178.0
