latitude,longitude,name,elevation
52.086807,-10.5597315,An Cró Mór,345.7
52.07663,-10.6539755,An Tiaracht,253.7
51.770664,-10.54165,Sceilg Mhíchíl,218.0
52.060616,-10.606359,Inis na Bró,228.7
52.129875,-10.581082,Inis Tuaisceart,225.7
51.77211,-10.539503,North Peak,185.0
51.781666,-10.508634,Sceilig Bheag,134.0
