latitude,longitude,name,elevation
55.460953,-120.48512,Salt Ridge,972.0
55.414745,-120.432915,Oetata Ridge,1037.0
54.90312,-120.4753,Lone Mountain,1279.0
54.853294,-120.37737,Squaw Mountain,1270.0
54.719257,-120.09525,Old Wives Mountain,1223.0
54.564156,-119.63204,The Nose,1457.0
54.533443,-119.57407,Nose Mountain,1497.0
