latitude,longitude,name,elevation
68.60304,66.043976,Николаева,217.0
68.66802,66.1813,Сёямбпэ,175.0
68.535805,66.235886,Харапэ,236.0
68.83042,66.225006,Нялпэ,148.0
68.8872,66.2935,Салепэ,127.0
68.8479,66.441475,Тинипэ,106.0
68.764244,65.934555,Ямбпэ,163.0
68.86239,66.07069,сопка Нгавалмыльк,164.0
68.90879,65.51004,сопка Нгаиседа,115.0
68.901726,65.79809,сопка Нгалендседа,164.0
68.957016,65.95035,сопка Салабэйседа,102.0
