latitude,longitude,name,elevation
-13.11663,132.5175,Dird Djahdjam,247.0
-12.9888,133.1184,Kub-O-Wer Hill,570.0
-12.52998,132.99078,Magela,301.0
-12.99134,132.68379,Mount Basedow,210.0
-12.74183,132.93977,Mount Brockman,244.0
-12.86482,132.70473,Mount Cahill,154.0
-13.04268,133.0812,Mount Gilruth,558.0
-12.52619,133.13927,Mount Howship,378.0
-13.0147,132.95361,Table Top,465.0
