latitude,longitude,name,elevation
27.75808,-98.69918,Cedro Hill,199.0
27.920286,-99.44531,Cerrito Prieto,234.0
28.494713,-98.81669,Koon Hill,107.0
27.643082,-98.84447,Las Hermanas,253.0
28.083899,-98.5539,Loma Alta,185.0
28.069733,-98.51224,Loma Pinta,192.0
27.869186,-98.55751,Piedritos Hill,207.0
28.442493,-98.56529,Register Hill,87.0
27.773357,-98.661964,Sarnosa Hill,211.0
