latitude,longitude,name,elevation
62.47629,155.831,Фестивальная,1295.0
62.457947,155.91098,Сольвейг,1386.0
62.4188,156.16165,Мяучан,1430.0
62.349712,155.88297,Колдун,1310.0
62.308914,156.02582,Горелый,1260.0
62.263206,155.89941,Румба,1060.0
62.243885,156.1218,Радость,1335.0
61.84876,156.37036,Кулькутты,1365.0
61.635796,156.43921,Алики,1120.0
61.992683,155.51132,Перевальный,1731.0
