latitude,longitude,name,elevation
32.83991,52.778645,تل باجمال,2230.0
33.19925,52.693275,دیان,2935.0
32.76949,52.840572,سره,2930.0
32.830288,52.635242,میل,3090.0
32.827393,52.829502,وِنِستان,2210.0
32.821346,52.841824,آدم شينگه,2260.0
