latitude,longitude,name,elevation
59.758415,149.19852,Тауйск,140.0
59.570045,148.6162,Верхний Маллер,904.0
60.18417,149.49483,Чалбы,1230.0
60.150738,149.21928,Хозяин,1041.0
60.07483,148.88956,Грат,948.0
59.9545,148.5934,Предгорный,476.0
