latitude,longitude,name,elevation
-24.445196,150.28943,Mount Benn,519.0
-24.003757,150.08351,Mount Blowhard,379.0
-24.471916,150.36559,Mount Bulgi,484.0
-24.191595,150.0235,Mount Cooper,313.0
-24.269196,150.13823,The Pinnacles,313.0
-23.571945,150.27916,Mount Coombs,200.0
-23.567823,150.27695,Mount Gordon,175.0
-23.708477,149.89423,Round Hill,230.0
