latitude,longitude,name,elevation
4.1364884,35.47245,Nagungumet,800.0
4.3964977,35.130993,Kothuro,600.0
4.336262,35.122982,Nait Amoru,590.0
4.3073735,35.163803,Akithkaamothing,892.0
4.264554,35.39799,Lolomat,883.0
4.2321696,35.42703,Katirikiki,750.0
4.119678,35.251072,Kokolonyoi,671.0
4.2402296,35.137096,Kokusem,620.0
4.3642573,35.172626,Akithkaamothing,897.0
4.4536505,35.187927,Nakatakoamothing,1207.0
