latitude,longitude,name,elevation
-4.7002563,139.85228,Goliath,3320.0
-4.70844,140.28928,Mandala,4760.0
-4.6827354,140.08122,Puncak Yamin,4510.0
-4.661539,140.05202,Osua Annin,4180.0
-4.5744925,140.13742,Ablim,4540.0
