latitude,longitude,name,elevation
48.783016,60.02873,Аккисик,196.0
48.734016,60.11988,Каратобе,195.0
48.831177,60.26365,Каратобе,212.0
48.858406,60.236267,Керегешинтау,240.0
48.767574,59.84488,Кошербай,214.0
48.7403,59.757504,Кыземшек,207.0
48.71539,60.197556,Манаулис,211.0
48.716465,60.068382,Сарытобе,205.0
48.77572,60.452644,Саулембай,203.0
48.64251,60.419857,Темирастау,228.0
48.52196,60.1882,Тлепиттау,278.0
48.538162,60.4499,Тогызкен,231.0
