latitude,longitude,name,elevation
47.873993,8.004674,Feldberg,1493.0
47.918972,8.016778,Hinterwaldkopf,1198.0
47.82886,8.179258,Riesenbühl,1097.0
48.12753,8.045913,Hörnleberg,906.0
47.940117,8.117662,Weißtannenhöhe,1190.0
47.90119,8.184161,Hochfirst,1190.0
48.0102,7.902544,Rosskopf,737.0
47.77733,7.7012367,Blauen,1165.0
47.626526,7.8101587,Hohe Flum,536.0
47.937637,7.7400246,Batzenberg,328.0
48.070404,7.621209,Schlossberg,352.0
48.08932,8.152908,Günterfelsen,1136.0
48.25671,8.181135,Farrenkopf,789.0
48.210373,8.1718645,Huberfelsen,760.0
47.822495,7.8330045,Belchen,1414.0
47.635273,7.939868,Heuberg,886.0
48.48459,8.360768,Gruberkopf,828.0
48.338593,8.153949,Brandenkopf,946.0
47.835377,8.019343,Herzogenhorn,1416.0
48.062534,8.011392,Kandel,1242.0
48.175922,7.9544997,Schillinger Berg,726.0
48.204597,7.9718676,Hünersedel,744.0
48.452732,8.093562,Mooskopf,871.0
48.29284,8.20237,Spitzfelsen,570.0
47.52364,8.072021,Schinberg,722.0
47.956013,7.8860583,Eichkopf,784.0
47.938454,7.7795773,Hohfirst,496.0
47.95092,7.785097,Kienberg,435.0
47.961224,7.7975616,Schneeberg,512.0
47.757755,7.6717806,Am brennten Buck,687.0
47.761066,7.6833243,Ameisenbuck,812.0
47.880028,7.8012447,Maistollen,834.0
47.859917,7.7109118,Fohrenberg,432.0
47.83071,8.041451,Spießhorn,1351.0
47.94811,7.8128896,Kapuzinerbuck,455.0
47.530766,8.170381,Geissberg,700.0
48.407078,8.201437,Hermersberg,895.0
47.898983,7.8638425,Gießhübel,1069.0
48.081234,7.670663,Totenkopf,557.0
47.8281,7.873813,Rollspitz,1236.0
47.502575,8.223843,Ufem Berg,522.0
48.095924,7.6771836,Badberg,417.0
47.966454,8.131129,Doldenbühl,1095.0
48.155087,8.139871,Kroatenbühl,1048.0
47.838257,7.8549886,Dietschel,1241.0
47.83567,8.086535,Kapellenkopf,1273.0
47.82685,7.7671337,Rammelsbacher Eck,867.0
47.815464,7.766258,Kaibenkopf,940.0
47.84734,7.7279305,Enggründlekopf,704.0
47.842587,7.738468,Riesterkopf,762.0
48.324028,8.375062,Staufenkopf,683.0
48.150543,7.606051,Limberg,272.0
48.02693,7.5831933,Eckartsberg,236.0
48.025616,7.975248,Brombeerkopf,864.0
48.021946,7.953967,Flaunser,866.0
48.16459,8.110181,Hohenstein,911.0
47.513466,8.044124,Frickberg,650.0
47.503506,8.18552,Iberg,484.0
48.449863,8.006399,S' Bürge Eck,402.0
47.841278,8.136925,Bildstein,1134.0
47.79446,8.0045395,Blößling,1310.0
48.31798,8.334578,Teisenkopf,764.0
47.692905,7.874471,Hohe Möhr,983.0
48.131573,8.125629,Rohrhardsberg,1153.0
47.78955,7.6598086,Lipberg,461.0
48.07043,7.686226,Gagenhart,380.0
47.88366,8.326901,Ochsenberg,860.0
48.33238,7.8872886,Burghard,331.0
47.668644,8.162187,Gupfen,780.0
48.27838,7.9217687,Großer Grassert,514.0
48.467205,8.026422,Brandeckkopf,686.0
48.116833,7.6891556,Katharinenberg,492.0
48.32417,7.882129,Ernet,343.0
47.69487,7.7025037,Munzenberg,702.0
47.742954,7.7345886,Wildsberg,1018.0
47.752068,7.738931,Hohwildsberg,1084.0
47.58804,7.9052725,Humbel,400.0
48.36973,7.958102,Geigenköpfle,600.0
47.725372,7.748541,Hohfelsen,963.0
47.73305,7.600113,Schneckenberg,370.0
47.533333,7.848276,Grosse Sunnenberg,636.0
47.78543,8.134845,Bötzberg,1216.0
47.73421,7.8517313,Zeller Blauen,1077.0
47.726345,7.86576,Leisenberg,703.0
47.76036,7.8427353,Tannenkopf,967.0
47.750355,7.848048,Hirschkopf,1057.0
47.75073,7.8589573,Bubshorn,1032.0
47.763786,7.858169,Itterschwander Horn,996.0
47.77613,7.8428082,Honeck,1022.0
47.76934,7.8546877,Dachseck,997.0
47.77772,8.001908,Ledertschobenstein,1205.0
47.782936,8.004325,Hohe Zinken,1242.0
47.793705,8.014247,Spitzenberg,1251.0
47.79049,7.9971657,Schweinekopf,1285.0
47.718323,7.8939223,Wegscheidekopf,829.0
47.713383,7.9274926,Rohrenkopf,1170.0
47.70909,7.9371514,Bergkopf,1073.0
47.719387,7.936493,Obere Hohle Tanne,1090.0
47.72048,7.946279,Dietenschwander Kopf,1099.0
47.73992,7.9832625,Herrenkopf,1062.0
47.746384,7.9162536,Auf dem Köpfle,993.0
47.743046,7.9334536,Binzkopf,943.0
47.755184,7.9396772,Wannenkopf,1129.0
47.75869,7.9503355,Herrenschwander Kopf,1152.0
47.730473,7.9583797,Hohenmuttlen,1143.0
47.736847,7.9702435,Steinbühl,1148.0
48.099197,8.272471,Kesselberg,1024.0
48.413403,7.9661,Kohleckle,417.0
48.33147,7.9541388,Eichberg,487.0
47.719536,7.6702814,Heißbühl,476.0
47.935467,8.052762,Haldenbuck,1087.0
47.767136,7.9871645,Hochkopf,1263.0
47.81896,7.8211713,Hohe Kelch,1264.0
48.109207,7.9170685,Sexauer Rebberg,350.0
48.315975,7.952716,Lützelhard,457.0
47.90105,8.303416,Rohrberg,840.0
48.13346,7.8658433,Eichberg,369.0
48.092403,7.6960006,Eichelspitze,521.0
48.157528,8.179547,Silberberg,1005.0
48.454533,8.007267,Prälatenkopf Hoher Bühl,514.0
47.976482,8.049306,Belleck,807.0
47.679295,8.022519,Gugel,995.6
47.790833,7.778773,Köhlgarten,1224.0
47.775536,7.776673,Obere Buck,954.0
47.76971,7.791693,Schattann,1067.0
47.791397,7.8051686,Tannenkopf,1039.0
47.792202,7.8204465,Spitzkopf,937.0
47.751507,7.789204,Hörnle,912.0
47.716465,7.7222133,Hohe Stückbäume,939.0
47.728867,7.740712,Schlöttleberg,988.0
47.708496,7.7547,Köpfle,770.0
47.66892,7.749357,Häfnet,545.0
47.672356,7.7823377,Scheinberg,619.0
47.67438,7.8213906,Hausener Köpfle,594.0
47.670795,7.816155,Entegast,589.0
47.811207,7.80978,Stuhlskopf,1116.0
47.801693,7.767553,Sirnitz,1114.0
47.803486,7.7782173,Weiherkopf,1143.0
47.7917,7.760774,Raukopf,1071.0
47.749928,7.677806,Bürgeln,665.0
47.54073,7.891214,Zeinigerberg,571.0
47.51751,7.833167,Önsberg,563.0
47.57821,7.9549017,Eggberg,709.0
47.50378,7.7820525,Eilete,625.0
47.5066,7.696722,Madlenchöpfli,534.0
47.51876,7.6546392,Wartenberg,479.3
47.54473,8.199632,Rotbergegg,632.0
47.56149,7.999479,Rheinsberg,404.0
48.34814,7.9021335,Altvater,410.0
47.64802,7.912822,Wolftristkopf,548.0
47.997494,7.867552,Schlossberg,455.9
47.997128,7.7632875,Honigbuck,225.0
48.4979,8.228491,Sandkopf,954.0
48.49435,8.2397785,Rossbühl,963.0
48.44395,7.9831147,Keugeleskopf,372.0
47.8677,7.8878,Trubelsmattkopf,1281.0
48.313507,7.8789625,Sulzberg,387.0
47.61249,7.6718807,Hünerberg,403.0
47.879093,7.8903575,Haldenköpfle,1266.0
48.327133,7.900532,Hohberg,354.0
47.69088,7.8271165,Knobel,679.0
47.83186,7.756818,Gabler Eck,825.0
48.497406,8.123499,Kleiner Schärtenkopf,598.0
47.9212,7.8501573,Hörnle,886.0
47.91297,7.8557835,Hohbühl,896.0
48.46226,8.115503,Edelmannskopf,861.0
47.889835,8.2820835,Ellenberg,858.0
48.34881,7.8570156,Schutterlindenberg,297.0
47.87668,8.014912,Baldenweger Buck,1460.0
47.935066,7.9171576,Rappeneck,1010.0
47.927986,7.99768,Häusleberg,1001.0
47.853706,8.193209,Pflumberg,1101.0
48.068398,8.01854,Sattelhöhe,1216.6
48.371735,8.164911,Hornkopf,616.0
48.41585,8.134261,Rautschkopf,782.0
48.363667,8.177033,Regeleskopf,887.0
48.399174,8.122072,Täschenkopf,825.0
48.39202,8.208301,Hahnenkopf,884.0
48.389675,8.204271,Schnurhaspel,864.0
48.381145,8.053827,Schänzle,460.0
47.93799,8.428606,Triberg,776.0
48.470062,8.240364,Brandkopf,882.0
48.461887,8.194626,Weissekopf,648.0
47.921097,8.005112,Roteck,1156.0
47.95471,7.805501,Schönberg,644.0
48.207546,7.9898233,Rotzeleck,733.0
47.911884,7.8986554,Schauinsland,1284.0
47.85127,7.7053285,Kastelberg,435.0
48.073956,7.93799,Hornbühl,519.0
48.068363,7.950465,Stalzenberg,649.0
48.064945,7.920888,Wisserkopf,448.0
48.434425,8.094992,Forstköpfle,759.0
47.808594,8.353083,Giebel,852.0
47.82013,7.9586763,Hasenhorn,1156.0
47.889656,7.910769,Hinterköpfle,1086.0
47.89183,7.9055877,Vorderköpfle,1114.0
47.8674,7.9715667,Stübenwasen,1389.0
47.89214,7.9902472,Toter Mann,1321.0
48.01444,7.957296,Kleiner Flaunser,819.0
47.81331,7.9816284,Brenntkopf,1243.0
47.84787,8.020432,Grafenmatt,1377.0
47.845566,8.009354,Schläglebachkopf,1314.0
48.40403,8.066689,Hochkopf,615.0
47.580063,8.263154,Blitzberg,490.0
47.575436,8.273991,Aemmeribuck,515.0
47.588028,8.2500515,Hönger,435.0
47.57635,8.300255,Hörndli,505.0
47.879612,7.9337697,Ahornkopf,1243.0
47.864746,7.9250746,Heubühl,1172.0
47.879387,7.942189,Hirschkopf,1265.0
47.856724,7.9344435,Horn,1231.0
47.874954,7.932439,Neustützkopf,1258.0
47.840405,7.94672,Gaisköpfle,1036.0
47.84153,7.960709,Spechtsboden,1139.0
47.569412,8.304642,Schachen,460.0
47.533405,7.9047093,Garwiden,558.0
47.96354,7.8872013,Kybfelsen (Schwarzkopf),837.0
48.358227,8.047514,Eichgraben-Eck,489.0
48.363697,8.054189,Herzenbacher Eck,490.0
48.40634,8.072665,Katzenstein,615.0
48.390583,8.061713,Lieberkopf,526.0
48.371296,8.050088,Rossgrabeneck,515.0
47.823112,8.187388,Giersbühl,1025.0
47.576168,7.9242673,Duttenberg,417.0
47.56853,7.9694023,Gingelekopf,430.0
47.5776,7.9361095,Röthekopf,510.0
47.570927,7.9499245,Umeneich,474.0
47.61975,7.6355605,Tüllinger Berg,452.0
47.86461,8.022488,Seebuck,1449.0
47.75722,8.322566,Bühl,840.0
47.999638,8.058559,Zwerisberg,719.0
48.005085,8.020626,Hochgericht,813.0
47.80363,8.116678,Oberer Habsberg,1275.0
47.819904,8.092155,Schnepfhalde,1298.0
47.99546,8.078621,Rohrberg,868.0
48.044353,8.443559,Magdalenenberg,740.0
47.93269,7.690657,Rebberg Biengen,245.0
47.914307,7.6828613,Krozinger Berg,264.0
48.35369,7.981277,Rauhkasten,629.0
48.163273,8.0459175,Wachtbühl,542.0
48.448154,8.094535,Siedigkopf,877.5
47.791283,7.939304,Staldenkopf,1137.0
47.974922,7.839586,Lorettoberg,385.0
47.876682,8.122555,Schuppenhörnle,1096.0
47.842136,8.148204,Ahaberg,1180.0
47.858303,8.058218,Hochkopf,1310.0
47.861507,8.041455,Köpfle,1317.0
47.896233,8.075974,Windeck,1209.0
48.206367,8.247361,Immelsbacherhöhe,772.0
47.602627,8.407278,Wannenberg,690.0
47.51073,8.415333,Egg,670.0
47.53887,8.450918,Stadlerberg,637.0
48.079422,8.157248,Brend,1149.0
47.81606,8.350134,Lindenbuck,898.0
47.94435,8.05875,Hohwarth,1120.0
48.140533,8.221824,Kroneck,948.0
47.883297,8.31593,Bühl,861.0
47.954494,7.8537946,Illenberg,643.0
47.96393,7.8467746,Kreuzkopf,525.0
47.68471,7.993388,Höhberg,993.0
48.07177,7.6503816,Rischbuhl,365.0
48.077774,7.658725,Halbuck,371.0
48.38939,7.9552073,Mollenkopf,429.0
48.38393,7.9606633,Spitzenberg,447.0
48.025684,7.8263416,Wolfsbuck,260.0
47.705025,8.051521,Hirnikopf,950.0
47.87788,7.781777,Rödelsburg,773.0
47.80593,8.065049,Hohfelsen,1075.0
47.806202,8.055749,Kaiserberg,1145.0
48.27223,8.112062,Urenkopf,555.0
47.813282,8.031886,Scheibenfelsen,1052.0
47.883865,8.096992,Eckle,1114.0
47.91001,8.187546,Glasberg,1025.0
47.75792,8.485046,Staufenberg,606.0
48.46409,8.378029,Finkenberg,842.0
47.50961,8.45216,Liebetbuck,526.0
48.34165,8.211584,Kesselberg,598.0
48.37835,8.252261,Gütschkopf,837.0
47.66226,8.03112,Schafbühl,902.0
47.709637,8.0048065,Häusleberg,989.0
48.45277,7.9958973,Hohes Horn,546.0
48.32775,8.20329,Waldkopf,634.0
48.354137,8.19227,Wintereck,656.0
48.35954,8.209302,Rütschle,593.0
48.364323,8.20066,Gütschle,692.0
48.37015,8.080729,Kuhornkopf,554.0
47.743755,7.998023,Scheibenfelsen,974.0
48.351044,8.170432,Reiherskopf,898.0
47.82592,8.037889,Kleines Spiesshorn,1322.0
47.896935,8.111485,Kesslerhöhe,1015.0
47.87922,7.995654,Immisberg,1373.0
47.83764,7.99703,Silberberg,1359.0
48.10896,8.094412,Schultiskopf,1075.0
48.113148,8.117051,Obereck,1178.0
48.180614,8.129139,Gschasikopf,1044.0
47.606434,7.6753263,Schädelberg,420.0
48.130764,8.096963,Braunhörnle,1134.0
48.128307,8.084191,Tafelbühl,1084.0
48.44723,8.405626,Kienberg (Friedrichshöhe),820.0
47.8552,7.7302146,Katzenstuhl,595.0
47.934227,7.8898187,Taubenkopf,881.0
47.943226,7.8913794,Prangenkopf,843.0
47.95112,7.924559,Laubisköpfle,683.0
47.951702,8.003256,Frauensteig,783.0
47.965004,7.9151616,Kamelberg,527.0
47.90416,7.961272,Hochfahrn,1263.0
47.83736,8.290988,Vogtsbuck,877.0
47.98543,8.0260725,Winterkapf,796.0
48.023403,7.968947,Eschbacher Höchst,870.0
47.85025,8.0759115,Bärhalde,1324.0
47.640594,8.056943,Heul,712.0
47.610096,7.98986,Hochstätt,730.0
47.653816,8.021281,Riegelhalde,903.0
47.67073,8.032583,Kohlensrütte,950.0
47.67796,8.043009,Wenni,948.0
47.62896,8.097124,Köpfle,586.0
47.684486,8.088544,Berg,834.0
47.710724,8.102972,Dachsberg,951.0
47.718967,8.09412,Bruggrain,994.0
47.68344,8.05402,Sägenberg,925.0
47.69751,8.101935,Geissberg,907.0
47.75411,8.1625395,Goldebühl,905.0
47.770546,8.159389,Glaserkopf,1113.0
47.76813,8.169051,Gießbacherkopf,1087.0
47.761257,8.094371,Ahornkopf,1057.0
47.770947,8.051607,Sackköpfle,1043.0
47.768913,8.035529,Oren,1166.0
47.762386,8.027089,Farnberg,1218.0
47.757366,8.026744,Hirz,1172.0
47.74663,8.084571,Hohberg,1063.0
47.691353,8.012025,Schellenberg,1001.0
47.6912,8.092954,Rossbühl,876.0
47.701977,8.132453,Stutz,901.0
47.712593,8.086341,Rütte,1012.0
47.716713,8.086427,Bühl,1026.0
47.992973,7.960235,Scherereck,520.0
47.75257,8.071347,Brendenkopf,1097.0
47.744804,8.053638,Wachtbühl,1082.0
47.729744,8.077431,Geisberg,1050.0
47.91002,8.023278,Horneck,1222.0
47.700844,7.995412,Erlenberg,1008.0
48.07318,8.071943,Hornkopf,1121.0
48.058453,8.04791,Hochkopf,1078.0
48.168686,8.086647,Bustberg,615.0
47.74491,7.690839,Salneck,652.0
48.120224,7.972983,Vögelestein,607.0
47.921062,7.890644,Ochsenberg,1107.0
48.16485,8.126183,Biggertkopf,1016.0
48.17869,7.9618483,Spiesberg,560.0
47.588688,8.364082,Küßnacher Horn,595.8
48.20167,8.145729,Dorfer Kapf,874.0
47.877365,7.761767,Etzenbacher Höhe,725.0
47.654335,8.0038395,Steinbühl,903.0
48.152554,8.024692,Hillersberg,507.0
47.874615,7.794617,Laitschenbacher Kopf,769.0
47.715218,8.014073,Glaserberg,1080.0
47.53356,8.112842,Gugli,606.0
47.521667,8.1219635,Dimmis,619.0
47.527412,7.8622794,Schöneberg,598.0
47.96719,7.882621,Rehhagkopf,757.0
47.97393,7.8648653,Brombergkopf,607.0
47.94983,7.9026046,Mitteleck,709.0
47.972397,7.8734055,Bleichendobelkopf,649.0
47.919518,7.9094806,Hundsrücken,1234.0
47.50408,7.642017,Hintere Ebene,607.0
47.777702,7.725646,Rasinakopf,888.0
47.996384,7.908624,Kleiner Rosskopf,562.0
47.997044,7.929399,Guckenbühl,533.0
47.982464,7.8713646,Glümerhöhe,425.0
48.020767,8.009911,Langeck,861.0
48.013916,7.9261823,Hornbühl,727.0
47.96927,8.01724,Kappeneck,701.0
47.954006,8.04355,Otten,1041.0
47.958584,8.058754,Freyel,971.0
47.913322,8.03056,Bankgallihöhe,1210.0
47.90064,8.040195,Wieswaldkopf,1278.0
48.156303,8.145098,Geißberg,1045.0
48.093636,8.142374,Rosseck,1155.0
48.40105,8.335532,Roßberg,848.0
47.773777,7.9400797,Hochgescheid,1205.0
47.80149,7.9752245,Sengalenkopf,1208.0
48.14999,7.9408274,Hoher Tag,613.0
48.145008,7.957762,Tannenbühl,612.0
48.131584,7.91891,Schlechtberg,454.0
47.53782,7.9031434,Chriesiberg,533.0
48.416843,7.9523396,Bruderberg,296.0
48.405846,7.9607153,Staufenkopf,438.0
47.50219,7.672594,Horn,647.0
48.378082,7.922108,Scheibenberg,494.0
48.37762,7.940364,Kleine Gansert,527.0
48.37389,7.9452386,Große Gansert,562.0
48.449223,8.022609,Scheibenköpfle,466.0
48.438766,8.016656,Hoher Stein,409.0
48.444843,8.02066,Buchenkopf,460.0
48.36977,7.9811835,Steinfirst,600.0
47.751064,8.124736,Lehenkopf,1039.0
48.478775,8.020197,Heidenknie,503.0
48.471546,8.011717,Eschholzkopf,563.0
48.126762,7.9685802,Walters Eck,572.0
48.06097,7.979873,Gullerkopf,817.0
48.063343,7.971635,Kranzkopf,816.0
48.062565,7.9918838,Härterer Felsen,976.0
48.057377,7.951071,Schlosseck,634.0
48.031055,8.242173,Sommerberg,1076.0
48.04064,8.202558,Großer Hausberg,1031.0
48.073307,7.6158595,Pfaffenlochberg,289.0
48.07003,7.609708,Büchsenberg,284.0
48.077877,7.620392,Mittelberg,258.0
48.071785,7.632233,Schneckenberg,352.0
48.059937,7.625126,Hochbuck,375.0
48.05634,7.678709,Böselsberg,340.0
48.105087,7.692878,Ohrberg,427.0
47.505733,7.8731103,Rugen,536.0
48.15021,8.139814,Watzeck,1058.0
48.157406,8.13679,Hohkopf,1054.0
48.16475,8.1131935,Hoher Stein,909.0
48.167587,8.105267,Gissübel,743.0
48.167423,8.149032,Tannbühl,970.0
48.141514,8.121467,Passeck,1069.0
48.134846,8.142364,Steinbühl,1008.0
48.19298,8.176488,Schiffherrenbühl,964.0
48.192333,8.123908,Fisnachtkapf,842.0
48.1813,8.110682,Steinberg,797.0
48.09035,8.17363,Katzenbühl,1041.0
48.137054,8.177111,Gitschbühl,1020.0
48.202503,8.20001,Martinsecke,837.0
48.21316,8.206414,Holderkopf,724.0
48.21266,8.198373,Schnallenkopf,802.0
48.212418,8.213728,Ziegelkopf,721.0
48.270313,7.9726815,Lindenbühl,504.0
48.28054,7.993009,Katzenstein,551.0
48.283215,8.0190115,Kapf,396.0
48.279213,8.04583,Ruhbühl,541.0
48.276905,8.161402,Kreuzberg,384.0
48.286854,8.207862,Spitzberg,433.0
48.272232,8.213339,Einetköpfle,592.0
48.286983,8.231031,Rieglesberg,634.0
48.27822,8.248611,Kapf,700.0
48.27941,8.257428,Brechhöhe,740.0
48.271683,8.263933,Scherenberg,758.0
48.286213,8.315674,Grumpenberg,604.0
48.275555,8.325712,Beerköpfle,681.0
48.308273,8.379002,Hochberg,545.0
48.301834,8.388992,Hochberg,720.0
48.29719,8.338724,Häberleskopf,614.0
48.299053,8.322912,Hutschberg,683.0
48.308323,8.312882,Hausbühl,724.0
48.296684,8.287633,Hörnle,544.0
48.30318,8.280903,Kapf,731.0
48.297832,8.270234,Spinnerskopf,582.0
48.30638,8.234183,Hasenkopf,568.0
48.299374,8.188362,Osterberg,515.0
48.297695,8.084743,Birkenstein,431.0
48.29201,8.082144,Scheibenbühl,459.0
48.303295,8.0731535,Fenschenberg,435.0
48.297062,7.8635244,Uhlsberg,344.0
48.294975,7.8490353,Eichberg,320.0
48.270653,8.377371,Heidenbühl,500.0
48.258133,8.323552,Kahlenberg,840.0
48.26079,8.308501,Mooskapf,842.0
48.258003,8.261971,Retschenkopf,752.0
48.264294,8.22383,Kapf,511.0
48.269485,8.216681,Bühlerstein,634.0
48.250477,8.14806,Stümmel,604.0
48.249744,8.082703,Gehrenberg,538.0
48.269005,8.032141,Wirtsberg,491.0
48.258934,8.045331,Niederhofereck,593.0
48.263653,8.037133,Tschägbühl,581.0
48.262024,8.028673,Hansenbühl,535.0
48.25213,7.9918838,Himmelsberg,535.0
48.25923,7.9817514,Goldbühl,518.0
48.260643,7.9379516,Gierifuß,517.0
48.258404,7.8755097,Schindlenbühl,488.0
48.183624,8.292931,Windkapf,926.0
48.193317,8.066559,Heidbühl,516.0
48.186188,8.060842,Burgersberg,517.0
48.178436,8.039454,Storenbühl,536.0
48.178165,7.9253693,Saisenberg,589.0
48.17469,7.816232,Scheibenbuck,281.0
48.195324,7.855301,Erzbuck,450.0
48.204407,7.8967996,Rollberg,437.0
48.204136,8.020748,Bauset,606.0
48.20215,8.033226,Mersberg,586.0
48.212685,8.121912,Holzerkopf,663.0
48.21208,8.11213,Benediktskopf,686.0
48.208145,8.104598,Finsterkapf,690.0
48.198067,8.27615,Kräherkapf,899.0
48.211754,8.312361,Falkenhöhe,874.0
48.222664,8.275672,Rampeck,819.0
48.214005,8.258571,Hasenkopf,691.0
48.215256,8.253071,Hofeckle,619.0
48.224926,8.239332,Markgrafeneck,751.0
48.231457,8.194612,Buskopf,567.0
48.226887,8.183891,Vogelkopf,730.0
48.228447,8.154651,Landwassereck,666.0
48.223186,8.142119,Schulmathisbühl,662.0
48.222145,8.084085,Rotebühl,590.0
48.221256,8.051179,Biereck,598.0
48.215084,7.8756175,Hoher First,468.0
48.233696,7.996159,Hoher Geisberg,727.0
48.237324,8.0751505,Pfusbühl,495.0
48.234356,8.139409,Hörnle,603.0
48.237625,8.154903,Gummerstein,601.0
48.249954,8.172409,Schorenkopf,725.0
48.254597,8.1899395,Beerbergweg,679.0
48.253628,8.192452,Michelsberg,619.0
48.236004,8.223052,Hasenköpfle,478.0
48.236946,8.205369,Katzenstein,511.0
48.238205,8.195321,Heidbühl,522.0
48.250206,8.244241,Rappenstein,753.0
48.247574,8.287102,Waldhäuser,864.0
48.256718,8.296572,Moosenkapf,872.0
48.24089,8.301201,Mooswaldkopf,881.0
48.245472,8.366034,Teufelskopf,667.0
48.252663,8.364932,Leichbenberg,615.0
48.14988,8.075111,Eckle,766.0
48.15644,8.00792,Wolfenbühl,554.0
48.169422,7.79608,Schneckenberg,261.0
48.16709,7.8212104,Vögelisberg,320.0
48.17079,7.82849,Fronberg,294.0
48.168053,8.02937,Stromberg,563.0
48.171524,8.134283,Ruttenbühl,995.0
48.175545,8.177072,Sturlekapf,974.0
48.160732,8.212862,Kolbenkopf,934.0
48.1733,8.247163,Storeck,894.0
48.166332,8.318683,Sommerberg,879.0
48.09981,8.098329,Kapf,878.0
48.10396,8.0851145,Höllkopf,921.0
48.092564,8.057208,Eckle,606.0
48.10702,8.015312,Elmlesberg,670.0
48.09767,7.944599,Hohe Tanne,516.0
48.096252,7.6251717,Eichberg,269.0
48.10213,7.6203523,Käsleberg,259.0
48.114613,7.5871425,Humberg,235.0
48.109554,7.596951,Haberberg,291.0
48.109932,7.664087,Staffelberg,446.0
48.137913,8.076899,Schöneck,945.0
48.13396,8.080501,Schönecklebühl,976.0
48.125835,8.161269,Ochsenberg,982.0
48.12916,8.267681,First,859.0
48.07569,8.211607,Spitzberg,1058.0
48.081013,8.28303,Schlegelberg,1009.0
48.071926,8.497321,Hohe Mark,773.0
48.074795,8.480452,Wieselsberg,763.0
48.086952,8.484828,Tonisbühl,785.0
48.053314,8.176101,Staatsberg,1059.0
48.059452,7.61307,Böhmischberg,274.0
48.081432,7.627081,Steingrubenberg,306.0
48.08113,8.034532,Wolfsgrubenkapf,1112.0
48.075474,8.0604,Kleiner Hornkopf,998.0
48.071144,8.11818,Hohe Steig,1004.0
48.022892,8.48389,Hochruck,763.0
48.020714,8.328142,Hohe Wart,968.0
48.022903,8.302741,Dürrenberg,1022.0
48.016945,8.22547,Michelshöhe,1104.0
48.026276,8.093309,Kapfenberg,1039.0
48.01916,7.8926196,Uhlberg,618.0
48.030422,7.8831887,Mühleberg,403.0
48.03496,7.97207,Scherersköpfle,716.0
48.0339,8.1288805,Simmelberg,971.0
48.036854,8.29705,Mühleberg,994.0
48.040382,8.326712,Ochsenberg,972.0
48.04282,8.4854,Stallberg,772.0
48.06721,8.30922,Langenbacher Eck,978.0
48.0522,8.278029,Hirschbühl,1021.0
48.056145,8.234211,Bosberg,1052.0
48.060753,8.214021,Sonnenberg,1037.0
47.997673,8.424509,Kapf,801.0
47.985542,8.366642,Tierstein,868.0
47.997215,8.36657,Hochschirm,871.0
47.991932,8.320843,Hammerköpfle,904.0
47.98012,8.184573,Bossenbühl,1127.0
47.991795,8.138061,Glasberg,1037.0
47.98746,7.960622,Buchbühl,462.0
47.998684,7.9502807,Erlenbühl,545.0
48.001072,8.122459,Aurüttenbühl,960.0
48.003353,8.14467,Scheibenkopf,946.0
48.000416,8.173129,Steinberg,1140.0
48.007732,8.30764,Auf der Streiche,1010.0
48.01928,8.486781,Froschberg,764.0
47.94677,8.146541,Dietschenberg,1098.0
47.972,8.08317,Spirzenkopf,879.0
47.969124,8.170581,Schneeberg,1058.0
47.965233,8.22601,Steinbühl,1140.0
47.971302,8.302931,Fohrenbühl,1033.0
47.9699,8.447021,Eichbuck,782.0
47.916523,7.796708,Schönbuck,470.0
47.92202,7.8285913,Kohlerkopf,733.0
47.928013,7.9335403,Gummenbühl,723.0
47.93081,7.98939,Köpfle,882.0
47.927532,8.172479,Feuerberg,1038.0
47.92773,8.19703,Schottenbühl,958.0
47.932693,8.21131,Fehren,1064.0
47.91881,8.227339,Tennenberg,1024.0
47.9477,8.458399,Schellenberg,820.0
47.95504,8.183559,Wintersberg,1063.0
47.944283,8.181778,Die Rauh,1077.0
47.89272,8.04992,Kaspelskopf,1176.6
47.528126,8.1157465,Cheisacher Bergkuppe,698.0
48.3643,7.9324784,Rauhhörnle,481.0
48.355145,7.913005,Mahlbuck,434.0
48.362118,7.9540443,Schnaigbühl,582.0
48.365837,7.9215097,Auf dem Schutz,467.0
48.33988,7.9205303,Gieseneck,330.0
48.321754,7.9855886,Rebio,555.0
48.332363,7.9804654,Hohengeroldseck,524.0
48.314285,7.9201727,Lauenberg,450.0
47.88722,8.180057,Kuhberg,1000.0
48.421844,8.31711,Bärleichkopf,872.0
48.439182,8.302201,Winterbergkopf,895.0
48.431778,8.284612,Absbachhöhe,921.0
48.434116,8.257836,Lettstädter Höhe,966.0
48.456116,8.266171,Bauernkopf,949.0
48.42577,8.345072,Roßhardt,851.0
48.435604,8.329807,Kreuzkopf,824.0
48.45543,8.298236,Heimenberg,879.0
48.4648,8.287065,Eichelberg,918.0
48.40166,8.286011,Teuscheneck,866.0
48.375256,8.320304,Sulzerköpfle,814.0
48.368385,8.31516,Torkopf,777.0
48.36133,8.3190565,Bocksecke,811.0
48.353138,8.31038,Schwarzer Bühl,832.0
48.338207,8.276988,Staufenkopf,851.0
48.404106,8.237268,Großer Hundskopf,948.0
48.396847,8.24103,Kleiner Hundskopf,927.0
48.379147,8.014749,Auf der Schanze,385.0
48.38975,8.0087185,Martinsberg,290.0
47.758083,8.203807,Staufenkopf,1037.0
47.780304,7.9449973,Tunauer Schweine,1154.0
47.630703,8.12256,Estelberg,668.0
47.660786,8.202828,Hungerberg,721.9
47.783432,7.7171397,Stockberg,1074.0
47.892002,8.025297,Schweizerwald,1315.0
47.847668,8.106407,Kapellenkopf,1180.0
47.804142,8.179335,Seehalde,1020.0
47.799107,8.140721,Unterer Habsberg,1208.0
47.794724,8.19428,Wagnersberg,1105.0
47.72557,8.201697,Berneck,893.0
47.731407,8.184358,Lerchenberg,972.0
47.742813,8.176494,Labacherberg,958.0
47.772373,8.20219,Eck,1058.0
47.786377,8.211053,Hochstaufen,1094.0
47.708363,8.028163,Sonnenmatt Kopf,989.0
47.745705,8.07278,Ramse,1079.0
47.7414,8.079032,Hochkopf,1106.0
47.739594,8.112743,Hoheck,1040.0
47.637707,8.265462,Glockenberg,432.0
47.712646,7.6871424,Burberg,608.0
47.711807,7.653713,Böscherzen,413.0
47.708492,7.6764674,Lichsen,493.0
47.70287,7.680927,Juchskopf,572.0
47.71697,7.6938343,Friedrichstannen,609.0
47.72451,7.673222,Mohrensattel,556.0
47.741383,7.6251545,Stocken,453.0
47.743874,7.642104,Rüttenen,543.0
47.712795,7.592937,Rüttibuck,364.0
47.721634,7.6048384,Löhle,438.0
47.718544,7.611201,Hohe Schule,472.0
47.709023,7.6157284,Hüppberg,375.0
47.721207,7.6422553,Schorner,420.0
47.73118,7.6505966,Hohfohren,529.0
47.711353,7.699254,Sandelkopf,709.0
47.695694,7.666654,Heuberg,550.0
47.68635,7.683882,Gugelhut,600.0
47.681896,7.708125,Günglert,580.0
47.67897,7.7018566,Hochstand,574.0
47.676117,7.676961,Grüneberg,482.0
47.679802,7.659445,Buchholen,466.0
47.697243,7.6104345,Fehrbachbuck,314.0
48.248905,8.312757,Boschel,790.0
47.64912,7.6835895,Berg,445.0
47.643993,7.6860766,Lingert,429.0
47.79724,7.7002025,Beim alten Schloss,716.0
47.658012,7.607023,Läufelberg,393.0
47.65584,7.600562,Reckholder,354.0
47.67846,7.5816836,Katzenberg,397.0
47.662346,7.5531964,Schafberg,387.0
47.721138,7.7007155,Esele,626.0
47.732788,7.736878,Federlisberg,981.0
47.75352,7.70388,Hundsrücken,848.0
47.761242,7.710094,Ammelenköpfle,863.0
47.674473,8.203677,Kühbuck,752.0
47.66543,8.164984,Samlischbuck,768.0
47.798588,8.093798,Steppberg,1221.0
47.79067,8.111575,Kuhkopf,1075.0
47.836002,7.8423176,Heidstein,1274.0
47.833817,7.8607283,Hohtannen,1249.0
47.855373,7.840762,Breitnauer Kopf,1121.0
47.85247,7.8183923,Schindelkopf,861.0
48.24302,7.801107,Heuberg,282.0
48.13056,7.6141467,Eichert,267.0
48.110035,7.6235023,Enselberg,261.0
48.131622,7.6790094,Galgenberg,327.0
48.12274,7.6722074,Spitzbuck,378.0
48.1037,7.5920916,Burgberg,257.0
48.083706,7.6208487,Kirchberg,296.0
47.87692,7.974872,Schmaleck,1287.0
47.870552,7.9087825,Langeck,1192.0
47.86512,7.903504,Köpfle,1235.0
47.842663,7.9083133,Lailehöhe,1134.0
47.83152,7.917905,Hasbacher Höhe,1149.0
47.826653,7.9131947,Knöpflesbrunnen,1124.0
47.862988,8.13515,Hohspirn,1074.0
47.534107,7.85718,Chleine Sunneberg,579.0
48.328068,8.302712,Weberhöhe,817.0
48.333675,8.303659,Allmendhöhe,836.0
48.33409,8.28615,Schlegelsbühl,723.0
47.77018,7.9223094,Gscheidkopf,1064.0
47.77078,7.90948,Schneckenkopf,997.0
47.625694,8.0234995,Hoheneck,826.0
47.78777,7.7885356,Köhlgarten Ostgipfel,1224.0
47.816055,7.703147,Lausberg,689.0
47.80767,7.7309337,Dreispitz,891.0
48.289375,7.9946237,Auf der Schanz,570.0
47.944466,8.080188,Rossberg,1120.0
48.045803,7.9183044,Flissertkopf,506.0
48.02613,7.918519,Hasenkopf,608.0
48.083588,8.062005,Hornbühl,788.0
48.18589,7.855681,Auberg,438.0
48.203136,7.860439,Holderhau,469.0
48.217537,7.8632607,Fohrenbühl,435.0
48.196606,7.940171,Hohe Eck,601.0
48.206806,7.962433,Heuberg,646.0
48.192482,7.9717455,Hockenbühl,740.0
48.15599,7.9518876,Holzstein,629.0
47.81422,7.696274,Kalkmättlebuck,663.0
47.796432,7.714797,Rüttekopf,767.0
47.59443,7.6807227,Maienbühl,477.0
48.49767,8.281695,Hechliskopf,925.0
48.162113,8.230463,Hippensbachhöhe,736.0
48.191933,8.21638,Heidebühl,716.0
48.197025,8.184799,Hauenstein,968.0
47.566998,7.978339,Spitzbühl,400.0
48.095993,7.692805,Haselschacher Buck,472.0
47.521152,8.251097,Iberig,512.0
47.86616,7.834853,Brandenspitze,987.0
47.56665,7.731538,Hirzenleck,523.4
47.6272,7.860249,Schachbühl,465.9
47.57302,7.6801763,St. Chrischona,522.0
47.635036,7.785444,Mauerhaldebuck,493.3
47.579857,7.738944,Eichberg,477.7
48.113853,8.106713,Ibichkopf,1145.0
47.77822,8.06131,Rechberg,1086.0
48.103176,8.24084,Mosenberg,1039.0
47.720104,7.9726515,Scheuerkopf,1011.0
47.9933,8.270795,Winterberg,1110.0
47.894707,8.121707,Winterhalde,1036.0
47.905914,8.068074,Bistenkopf,1118.0
47.97052,8.286946,Kapf,1025.0
48.013382,8.26254,Rufeneck,1090.0
48.018425,7.9391437,Hohstegkopf,706.0
48.496387,8.332155,Kienberg,892.0
48.417492,7.9741645,Geißkopf,359.0
48.164642,7.9606676,Schwarzenberg,685.0
48.201416,7.829829,Fohreneck,326.0
48.20828,7.9401646,Ruhbühl,542.0
48.232536,7.921529,Heubachbühl,474.0
48.250534,7.963358,Brandbühl,443.0
48.312073,8.009555,Niederbacher Eck,499.0
48.2458,8.3447,Hartskäpfle,825.0
48.2269,8.3708,Schlossberg,683.0
48.3164,8.307499,Ruxenkopf,792.0
48.316074,8.2631645,Ippicher Höhe,720.0
48.2375,8.243598,Schondelhöhe,859.0
48.063972,8.266211,Rappeneck,1047.0
48.0286,8.275002,Kesselberg,1051.0
48.01436,8.214352,Kohlwasen,1112.0
47.903015,7.8138385,Streitbanner Kopf,698.0
47.972775,7.680573,Tuniberg,314.0
47.93055,8.109887,Hinterberg,1046.0
47.97184,8.208024,Hochberg,1116.0
47.99322,8.425163,Ochsenberg,803.0
48.000942,8.33589,Geschwend,913.0
48.137966,8.297729,Hochwälder Höhe,966.0
48.18401,8.3538065,Mittelberg,843.0
48.087803,7.776084,Nimberg,253.0
48.3383,8.412797,Reutiner Berg,713.0
48.332703,8.377038,Nollenberg,734.0
48.4028,8.269199,Gausberg,838.0
48.34184,8.2939205,Spitzkopf,830.0
48.434998,8.389198,Schöllkopf,843.0
47.648724,8.474942,Napberg,641.0
47.606777,8.442328,Kalter Wangen,671.0
47.614193,8.419397,Birnberg,636.0
47.6979,7.8228407,Tannenbühl,727.0
47.70083,7.8106055,Kläfferbuck,660.0
47.714207,7.8348913,Gebetsbühl,699.0
47.685818,8.290745,Homberg,707.0
47.691902,8.342498,Daxenberg,619.0
47.709652,8.326343,Bühl,715.0
48.481205,8.066771,Wolfenkopf,504.0
47.77061,7.6717677,Grüneck,705.0
47.7786,7.598099,Hurrberg,371.0
47.801468,7.609828,Luginsland,343.0
47.81285,7.6710825,Steinberg,530.0
47.60907,7.712156,Mezelhöhe,485.0
47.57523,7.7512584,Nettenberg,445.0
47.5981,7.6982965,Buttenberg,485.0
47.6342,7.7091985,Schindelberg,418.0
47.73805,7.6889563,Sausenberg,665.0
47.59393,7.905304,Krähenbühl,404.0
47.598602,7.8955984,Eichbühl,459.0
47.5928,8.338598,Kernenwieden,494.0
47.638054,8.131106,Stubenberg,706.0
47.652195,7.966436,Abhau,1018.0
47.656902,7.9336,Häuelkopf,787.0
48.271408,8.182738,Am hinteren Stein,533.0
47.99606,7.940826,Klorerberg,533.0
47.824165,7.702036,Hörnle,661.0
47.733646,8.1213665,Katzenkopf,1008.0
47.889385,8.330376,Galgenbühl,836.0
47.876694,8.403353,Wolfgalgen,769.0
47.82549,8.3411875,Wacht,893.0
48.12448,8.400003,Höhe,825.0
47.905678,8.15256,Hirschbühl,945.0
47.89763,8.131951,Bühlberg,977.0
47.878006,8.077489,Steiertenkopf,1073.0
47.884144,8.070519,Ramselehöhe,1112.0
47.79759,7.6308846,Rötebuck,326.0
47.81051,7.6552124,Innerberg,406.0
48.06704,8.287736,Schöneck,966.0
48.269276,8.164371,Winterberg,490.0
48.31935,8.26621,Käppelehöhe,735.0
48.22198,8.20256,Grubkopf,664.0
48.35096,8.28845,Baierseck,611.0
48.34421,8.30023,Stirnle,801.0
48.34894,8.303963,Sättelekopf,814.0
48.41126,8.22585,Schulterberg,707.0
48.3879,8.28017,Kupferberg,734.0
48.37357,8.214,Finkkopf,616.0
48.36623,8.20871,Gütschleebel,601.0
48.36806,8.23146,Fegersköpfle,710.0
48.35557,8.23612,Kohlbühl,553.0
48.35396,8.229054,Wassereck,625.0
48.3549,8.21627,Höllköpfle,454.0
48.4476,8.2434,Kreuzkopf,692.0
48.4615,8.18748,Rakopf,607.0
48.476646,8.455213,Forchenkopf,674.0
48.49747,8.17598,Hauskopf,645.0
48.48947,8.22182,Hornkopf,823.0
48.097443,8.29824,Schlossberg,981.0
48.0638,8.281,Buchsberg,959.0
48.37414,8.42617,Weiler Berg,712.0
48.39292,8.44524,Höhe,695.0
48.4242,8.49659,Laiberg,668.0
48.48916,8.2924,Tannschachen,928.0
48.48918,8.3283,Hinterer Heinzelberg,897.0
48.48031,8.33893,Rossköpfle,776.0
48.32716,8.25423,Schillingerskopf,640.0
48.435318,8.483191,Hummelberg,624.0
48.43518,8.406037,Masselkopf,812.0
48.32527,8.27681,Langenberg,715.0
48.32972,8.26224,Gütschberg,680.0
48.31932,8.23143,Katzenkopf,623.0
48.33039,8.22925,Lachenköpfle,557.0
48.327637,8.23997,Kohlbühl,614.0
48.32792,8.23477,Lachenberg,673.0
48.342678,8.23386,Webersköpfle,459.0
48.33616,8.24275,Landeck,705.0
48.36643,8.25994,Buchkopf,699.0
48.3556,8.31795,Hilsenbühl,802.0
48.34523,8.32177,Buchhöhe,795.0
48.34306,8.34522,Kapellenberg,671.0
48.3719,8.33562,Gütschkopf,773.0
48.4874,8.04965,Hornbühl,448.0
48.4946,8.0342,Etzleskopf,351.0
48.45644,8.04457,Kräheneck,594.0
48.4621,8.0589,Enderleskopf,470.0
48.46085,8.00261,Fußberg,522.0
47.735844,8.079456,Halden,1076.0
47.97631,8.26447,Grundberg,1044.0
47.60169,8.397626,Wannenberg,690.0
47.68577,8.333309,Hopfenberg,621.0
47.728462,8.249684,Erlenberg,843.0
48.29114,8.36501,Zellersberg,546.0
48.287037,8.352579,Simonskapf,523.0
48.460407,8.495617,Hohwiel,643.0
47.57373,7.6653075,Linsberg,430.0
48.144333,8.080148,Raucheneck,864.0
48.237236,8.134296,Nautenberg,615.0
48.21007,8.162692,Gissübel,925.0
48.239292,8.163407,Haldenberg,548.0
48.41667,7.9287734,Hohhölzle,260.0
48.114635,8.1287365,Griesbacher Eck,1172.0
47.559814,8.457202,Ämperg,514.0
