latitude,longitude,name,elevation
69.693054,61.152946,Морпипэ,185.0
69.611115,61.226574,Нядэйпэ,210.0
69.62116,61.129066,Няруйпэ,184.0
69.577484,61.288715,Пеюмпэ,143.0
69.68614,60.888935,Сывыпэ,129.0
69.603935,60.814754,сопка Нганосиседа,55.0
