latitude,longitude,name,elevation
-24.53296,123.85059,Belt Pinnacle,486.0
-24.53761,123.85558,Eberle Hill,476.0
-25.42183,124.4207,Mount Johnson,533.0
-25.26806,124.4423,Mount Lampe,497.0
-24.51233,123.95667,Mount Madley,487.0
-25.42289,123.78362,Mount Nossiter,519.0
-25.3993,124.08622,Mount William Lambert,515.0
