latitude,longitude,name,elevation
-34.206123,-54.310474,Cerro de las Mulas,130.0
-33.734085,-53.718723,Cerro de los Difuntos,60.0
-33.70799,-53.56685,Cerro Picudo,110.0
-33.71845,-53.593025,Cerro de la Carbonera,130.0
-33.710793,-53.580795,Cerro Vigía,152.0
-33.71031,-54.35151,Cerro de las Averías,179.0
-34.26651,-54.11376,Cerro Vichadero,155.0
