latitude,longitude,name,elevation
-10.033809,-39.793552,Serra do Macaco,835.0
-10.250483,-39.804283,Morro Branco,536.0
-10.160223,-39.859707,Serra de Santa Rosa,879.0
-10.100534,-40.228615,Serrote da Umburana,616.0
-10.13418,-40.162926,Morro do Urubu,901.0
