latitude,longitude,name,elevation
54.40506,-123.96916,Mount Prince,1236.0
53.81647,-123.97337,Sinkut Mountain,1471.0
54.358707,-124.42328,Mount Rosetti,1012.0
53.99387,-124.3619,Bearhead Hill,878.0
53.588932,-124.26229,Iron Knoll,1272.0
53.505676,-124.203514,Tatuk Hill,1319.0
