latitude,longitude,name,elevation
-24.20716,131.56583,Carmichael Crag,906.0
-23.98184,132.44292,Figtree Point,843.0
-23.79964,132.31625,Gosses Bluff North,914.0
-24.13678,132.29231,Mount Bowson,786.0
-23.60919,131.76097,Mount Musgrave,1151.0
-23.52132,132.44562,Mount Razorback,1274.0
-23.71928,131.52574,Mount Solitary,799.0
-23.6031,131.52538,Mount Stirling,1006.0
-23.61743,131.63727,Mount Tate,1191.0
-23.95401,132.1747,Pine Point,837.0
-24.2175,132.04665,Tent Hill,647.0
