latitude,longitude,name,elevation
43.17999,-102.323494,Porcupine Butte,1117.0
43.363323,-102.31933,Bell Butte,960.0
43.43944,-101.537094,Buzzard Butte,978.0
43.464165,-101.6557,Eagle Nest Butte,1035.0
43.430553,-101.929596,Snake Butte,968.0
42.69805,-102.280174,Lone Butte,1115.0
42.888042,-102.469055,Mount Maria,1148.0
42.926376,-102.47739,Rattlesnake Peak,1203.0
42.700832,-102.04628,Rock Hill,1083.0
