latitude,longitude,name,elevation
19.73587,102.347855,Phou Pha Vi,1976.0
19.981388,101.96694,Phou Nangvang,1647.0
19.731766,102.490364,Phou Houay Po,1393.0
19.664778,102.33583,Phou Kong Kung,1628.0
19.713753,102.33857,Phou Pha Banh,2212.0
19.722599,102.39973,Phou Sam Soum,1330.0
