latitude,longitude,name,elevation
68.7053,23.67341,Termisvaara,615.0
68.77652,23.94559,Sáhpánoaivi,530.0
68.7171,24.207447,Valkamapää,600.0
68.712204,24.32471,Báršoaivi,560.0
68.626915,24.173382,Porrastunturi,525.0
68.619095,24.187489,Jäkälä-Porrastunturi,555.0
68.60338,24.254833,Suinavaara,540.0
