latitude,longitude,name,elevation
46.4652,7.9932117,Aletschhorn,4195.0
46.411602,8.468433,Basòdino,3273.0
46.39157,7.8508196,Bietschhorn,3934.0
46.42591,8.307772,Blinnenhorn/Corno cieco,3374.0
46.488895,7.7725115,Blümlisalphorn,3663.0
45.945076,8.208915,Cima di Capezzone,2421.0
45.96998,7.605035,Dent d'Hérens,4171.0
46.468555,7.734963,Doldenhorn,3638.0
46.431355,8.0942335,Eggishorn,2926.0
46.493397,8.097329,Grosses Wannenhorn,3906.0
46.304794,8.191695,Helsenhorn,3272.0
45.96441,7.5027504,L'Evêque,3716.0
45.976425,7.658602,Matterhorn,4478.0
45.945667,8.452914,Mont'Orfano,794.0
45.88154,8.453891,Mottarone,1491.0
45.715633,7.820296,Mont Nery/Becca Frudiera,3075.0
45.873013,7.9706993,Monte Tagliaferro,2964.0
46.41245,7.924273,Nesthorn,3822.0
46.26472,8.238055,Pizzo Diei,2905.0
46.179276,8.196594,Pizzo Giezza,2658.0
46.32417,8.223053,Pizzo Cervandone,3210.0
46.023132,7.8839607,Rimpfischhorn,4198.0
46.18238,8.115863,Seehorn,2439.0
46.03607,8.001038,Stellihorn,3436.0
45.830803,7.7866154,Testa Grigia,3314.0
46.461945,7.6,Vordere Loner,3049.0
46.101234,7.716143,Weisshorn,4505.0
46.127632,8.012057,Weissmies,4017.0
46.42498,7.6935544,Balmhorn,3698.0
46.37133,8.015915,Riederhorn,2230.0
46.021484,7.797586,Unterrothorn,3103.0
45.989014,7.802229,Hohtälli,3286.0
45.93836,7.729889,Klein Matterhorn,3883.0
46.11255,7.853883,Hohberghorn,4219.0
46.117764,7.876531,Ulrichshorn,3925.0
46.428436,7.7442355,Hockenhorn,3293.0
46.05819,8.475734,Cima della Laurasca,2193.0
45.631477,7.539424,Mont Glacier,3185.0
45.97728,7.50772,Mont Collon,3637.0
46.41792,8.08259,Bettmergrat,2871.0
45.742054,7.930455,Cima Morticci,2726.0
45.92721,7.87708,Punta Gnifetti / Signalkuppe,4554.0
45.996002,7.989027,Joderhorn,3036.0
45.996967,7.908696,Schwarzberghorn,3609.0
46.01199,8.012397,Ofentalhorn,3059.0
46.100853,8.034723,Pizzo d'Andolla,3654.0
46.226154,8.138883,Punta Valgrande,2856.0
46.01315,7.90217,Strahlhorn,4190.0
46.046085,7.894584,Allalinhorn,4027.0
46.451744,7.946368,Schinhorn,3796.0
46.441032,8.005631,Geisshorn,3740.0
46.47794,8.020157,Dreieckhorn,3811.0
46.37863,7.810894,Wilerhorn,3307.0
46.10888,7.8640604,Nadelhorn,4327.0
46.083435,7.8571944,Täschhorn,4490.0
46.11965,7.848225,Dirruhorn,4035.0
45.91497,7.8619766,Corno Nero,4322.0
45.92085,7.7932734,Castor,4228.0
45.927807,7.7853103,Pollux,4092.0
46.064827,7.690124,Zinalrothorn,4221.0
45.941055,7.74768,Breithorn Occidentale / Westgipfel,4164.0
45.932167,7.8714075,Zumsteinspitze,4562.0
46.15087,7.58661,Corne de Sorebois,2895.0
46.478477,7.877245,Breithorn,3780.0
46.009182,7.8889604,Adlerhorn,3988.0
45.982162,7.7579417,Riffelhorn,2927.0
45.99882,7.7669625,Gugle,2702.0
46.055668,7.741677,Mettelhorn,3410.0
46.052197,7.6782417,Trifthorn,3737.0
46.038597,7.6680403,Ober Gabelhorn,4073.0
46.03372,7.6505094,Mont Durand,3712.0
46.02721,7.630463,Pointe de Zinal,3790.0
45.986588,7.5753264,Tête Blanche,3710.0
45.994396,7.6104403,Stockje,3097.0
45.926483,7.823249,Liskamm Westgipfel,4479.0
46.062504,7.591746,Pointe de Bricolla,3573.0
46.05213,7.611567,Grand Cornier,3969.0
46.02619,7.696781,Unter Gabelhorn,3398.0
46.02754,7.8127956,Oberrothorn,3413.0
46.03828,7.8029685,Bösentrift,3253.0
45.94932,7.708419,Theodulhorn,3472.0
45.937183,7.939742,Pizzo Bianco,3215.0
45.916714,7.863483,Ludwigshöhe,4344.0
45.91979,7.871055,Parrotspitze / Punta Parrot,4443.0
45.952564,7.8771753,Jägerhorn,3815.0
45.950554,7.826214,Blattje,2990.0
46.021214,7.9154778,Fluchthorn,3802.0
45.985653,7.8378158,Stockhorn,3532.0
45.999226,7.974963,Monte Moro,2985.0
46.084587,7.9377275,Mittaghorn,3143.0
46.38829,7.6028447,Daubenhorn,2941.0
46.42896,7.678601,Altels,3629.0
45.93691,7.866751,Dufourspitze,4634.0
46.461838,7.808954,Petersgrat,3202.0
46.458935,7.7988896,Rote Tätsch,3165.0
46.452477,7.7872214,Birghorn,3242.8
46.48908,7.82163,Mutthorn,3035.0
46.235134,7.7951355,Augstbordhorn,2972.0
46.243042,7.792038,March Violenhorn,2876.0
46.22227,7.762215,Dreizehntenhorn,3052.0
46.21666,7.756748,Schwarzhorn,3201.0
46.409416,7.533561,Mittelgipfel,3242.0
46.40051,7.528433,Wildstrubel,3244.0
46.053707,7.736399,Platthorn,3345.0
46.413544,7.6543245,Rinderhorn,3448.0
46.283817,7.991528,Glishorn,2525.0
45.934135,7.708073,Testa Grigia,3480.0
46.43753,7.704805,Gasteräspitz,2821.0
46.059597,7.93739,Klein Allalin,3070.0
46.322598,8.070597,Fülhorn,2738.0
46.32649,8.080721,Chleine Huwetz,2918.0
46.336777,8.093723,Bättlihorn (Nord),2951.0
46.32578,8.085098,Grosse Huwetz,2923.0
46.341007,8.108273,Letihorn,2663.0
46.364643,7.507751,Mont Bonvin,2995.0
45.856747,8.378991,Monte Cregno,684.0
46.220493,7.940902,Ochsehorn,2912.0
46.12535,8.048036,Tossenhorn,3225.0
46.113075,8.009365,Dri Horlini,3209.0
46.12845,8.069283,Schijenhorn,2980.0
46.156822,7.5696864,Les Lauchellets,2178.0
46.46297,8.154469,Risihorn,2875.0
46.030384,8.465887,Cima Sasso,1916.0
46.11792,7.714961,Bishorn,4153.0
46.062878,7.863855,Alphubel,4206.0
45.84711,8.481713,Monte del Falò,1080.0
46.498177,8.091362,Schönbühlhorn,3854.0
46.483154,8.10468,Kleines Wannenhorn,3706.0
46.483604,8.39425,Chilchhorn,2784.0
45.987362,8.4527235,Monte Faiè,1352.0
46.496532,8.22016,Gross Chastelhorn,2842.0
46.104073,8.492705,La Cima,1810.0
46.09352,7.82039,Grabenhorn,3372.0
46.103638,7.841063,Hohgwächte,3740.0
46.1115,7.8595023,Stecknadelhorn,4241.0
46.12226,7.847176,Chli Dirruhorn,3890.0
46.13378,7.831864,Gugla,3377.0
46.10368,7.883894,Eggfluh,3429.0
46.109585,7.8824773,Schwarzhorn,3619.0
46.100403,7.8932433,Guglen,2966.0
46.109554,7.899333,Oberes Distelhorn,2806.0
46.107838,7.901453,Unteres Distelhorn,2638.0
46.11266,7.8992953,Tällihorn,2749.0
46.118553,7.9092402,Mällig,2700.0
46.122196,7.8871503,Gemshorn,3548.0
46.12253,7.90454,Senggflüe,2764.0
46.143166,7.898582,Chäste,2855.0
46.14899,7.890541,Schilthorn,3402.0
46.15075,7.9007163,Guglu,2951.0
46.244274,7.643247,Rothorn,2998.0
46.472576,8.161046,Täschehorn,3008.0
46.487446,8.196824,Ritzihorn,2891.0
46.10923,7.549138,Pointe du Tsaté,3078.0
46.155907,7.734092,Üssers Barrhorn,3610.0
46.149715,7.7372766,Inners Barrhorn,3583.0
46.486977,7.910079,Grosshorn,3754.0
46.467552,7.964313,Sattelhorn,3744.0
46.467537,7.976501,Kleines Aletschhorn,3755.0
46.382244,7.8785677,Stockhorn,3211.0
46.400837,7.8827877,Jägihorn,3407.0
46.401974,7.9105244,Baltschiederhörner,3202.0
46.387405,7.9395237,Grisighorn,3177.0
46.418976,7.89374,Breithorn,3784.0
46.423405,7.888623,Gletscherspitza,3063.0
45.87746,7.6627436,Becca d'Aran,2953.0
45.98714,7.8124533,Rote Nase,3247.0
45.98664,7.823404,Stockhorn,3405.0
46.195213,7.5380425,Roc d'Orzival,2852.0
45.705482,7.627882,Monte Lyan,2178.0
45.698868,7.631291,Testa Del Filone,1928.0
45.646072,7.609216,Cima Piana,2512.0
45.650116,7.6090145,Monte Grimon,2523.0
45.65995,7.610159,Bec di Nona,2331.0
45.65281,7.5520997,Monte Belpla,2829.0
45.67678,7.555119,Mont Avic,3007.0
45.655678,7.562974,Monte Orso,2717.0
45.654076,7.6087036,Mont Pertse,2408.0
45.662346,7.5453463,Monte Iverta,2939.0
45.69696,7.566367,Monte Giron,2699.0
45.68887,7.5647697,Monte Ruvic,2922.0
45.70231,7.5978966,Monte Barbeston,2482.0
45.671783,7.542658,Raye Chevrère,2837.0
45.70098,7.5689816,Cima Nera,2698.0
45.709938,7.6266084,Monte Bec,2088.0
45.733883,8.154497,Monte Barone,2044.0
45.620316,7.9446607,Monte Mucrone,2335.0
45.64483,7.9443326,Monte Camino,2391.0
45.635616,7.936268,Monte Rosso,2374.0
46.048615,7.883385,Feechopf,3888.0
46.412895,7.5625396,Grossstrubel,3243.0
46.374638,7.526984,Les Faverges,2968.0
46.415688,7.599845,Rote Totz,2848.0
46.41764,7.583274,Steghorn,3146.0
46.021427,7.522321,Aiguille de la Tsa,3668.0
46.028603,7.5227985,Pointe de Tsalion,3512.0
46.024117,7.5232186,Dent de Tsalion,3589.0
46.435364,8.001418,Rotstock,3699.0
46.43077,7.9977875,Grosses Fusshorn,3627.0
46.45157,8.000975,Vorderes Geisshorn,3634.0
46.41464,7.746385,Hockuchriz,2593.0
46.26298,7.616216,Illhorn,2717.0
46.384464,8.181519,Eggerhorn,2503.0
46.405685,7.9393806,Unterbächhorn,3554.0
45.921738,7.8436885,Cima di Scoperta,4335.0
45.92248,7.8355694,Liskamm Ostgipfel,4527.0
46.404274,7.984086,Sparrhorn,3021.0
45.88657,8.351023,Monte Mazzoccone,1424.0
46.239063,7.653608,Bella Tola,3025.0
46.43344,7.524722,Ammertenspitz,2613.0
46.168217,7.518985,Becs de Bosson,3143.0
46.4677,8.311145,Brudelhorn,2791.0
45.90811,7.861307,Piramide Vincent,4215.0
45.905807,7.868142,Punta Giordani,4046.0
46.252335,7.638449,Schwarzhorn,2790.0
46.075184,7.930129,Egginer,3367.0
46.109028,7.8640084,Nadelhorn Vorgipfel,4325.0
46.0436,7.942731,Schwarzbergschopf,2870.0
46.04116,7.93657,Üssere Turu,3030.0
45.893173,7.5256605,Monte Poudzo,3094.0
45.974617,7.581665,Tête de Valpelline,3802.0
45.95495,7.5383577,Mont Brûlé,3591.0
45.956505,7.528082,Punta Kurz,3498.34
45.78401,7.791526,Punta Valnera,2754.0
46.38634,8.318743,Punta d'Arbola,3235.0
46.302143,8.140893,Punta Mottiscia,3158.0
46.279663,8.105511,Punta di Aurona,2984.0
46.26651,8.085911,Punta di Terrarossa / Wasenhorn,3246.0
46.351826,8.26577,Geisspfadspitzen - Südgipfel,2772.0
46.258476,8.07041,Mäderhorn,2900.0
46.208237,8.005979,Schilthorn,2795.0
46.238514,8.083813,Breithorn,3438.0
46.157063,8.003104,Lagginhorn,4010.0
45.59345,7.5044694,Bec Costazza,3092.0
45.96269,7.518038,La Vierge,3232.0
45.647533,7.511353,Mont Rafrey,3146.0
45.524754,7.783436,Monte Gregorio,1955.0
45.942764,7.5132513,Becca de la Vanette,3361.0
45.9362,7.524201,Grande Vanne,3361.0
45.934242,7.586108,Punta Budden,3631.0
45.918255,7.585325,Mont Blanc du Créton,3409.0
45.948616,8.344212,Eyehorn,2131.0
45.94681,8.337908,Monte Massone,2161.0
45.95667,8.354515,Cima delle Tre Croci,1872.0
46.370224,7.572203,Trubelstock,2998.0
46.230972,7.751111,Schwarzi Blatte,2975.0
46.237026,7.740468,Ginalshorn,3027.0
46.272934,7.73535,Ergischhorn,2526.0
46.25519,7.746133,Signalhorn,2911.0
46.26184,7.7395053,Ergischalphorn,2851.0
46.246017,7.7507567,Altstafelhorn,2839.0
46.25555,7.759501,Rinderhorn,2629.0
46.07614,8.373381,Testa di Menta,2202.0
46.044548,8.4481945,Cima Pedum,2111.0
46.024662,8.395367,Pizzo Proman,2098.0
46.08486,8.373544,Pizzo Tignolino,2246.0
46.101395,8.42196,Pizzo Ragno,2289.0
46.06303,8.402169,Pizzo Mottac,1802.0
46.05979,8.491847,Cima Marsicce,2135.0
46.077385,8.458736,Pizzo Stagno,2183.0
46.09707,8.412951,Pizzo Nona,2271.0
46.065765,8.351825,Punta Pozzolo,2081.0
46.476387,7.6162376,Hindere Loner,2778.0
46.4695,7.609409,Mittlere Loner,3002.0
45.74918,7.804585,Punta Regina,2388.0
45.586006,7.893007,Colma di Mombarone,2371.0
45.518913,7.7986426,Le Colme,1653.0
45.516506,7.7725625,Monte Betogne,1602.0
45.941994,7.8699284,Nordendspitze,4609.0
46.49201,8.419475,Forcella,2845.0
46.212223,8.008572,Wyssbodehorn,2623.0
46.452084,8.387408,Piccolo Corno Gries,2930.0
46.42614,7.5897145,Tierhörnli,2894.0
46.31771,8.136553,Gibelhorn,2698.0
46.184364,7.9955506,Gamserchopf,3403.0
46.334503,8.224019,Schwarzhorn,3108.0
46.47669,7.7574644,Fründenhorn,3368.0
46.403587,8.309012,Hohsandhorn / Punta del Sabbione,3182.0
46.408333,7.7072577,Ferdenrothorn,3180.0
46.294567,8.12565,Punta del Rebbio,3193.0
46.496346,8.385454,Mittaghorn (Nufenen),3015.0
46.361008,8.2609825,Grosses Schinhorn,2939.0
46.49685,8.435963,Poncione di Manió,2925.0
46.458588,8.41493,Punta di Elgio / Helgenhorn,2837.0
46.339897,8.268736,Pizzo Crampiolo Sud,2766.0
46.262398,8.020408,Staldhorn,2463.0
46.45165,8.392901,Corno Gries / Grieshorn,2969.0
46.445564,7.5929475,Tschingellochtighorn,2735.0
46.20275,8.001348,Griessernuhorn,2970.0
46.30307,8.14044,Hillehorn,3181.0
46.495285,7.792174,Morgenhorn,3627.0
46.465214,8.49919,Poncione di Vallegia,2873.0
46.492523,8.410997,Pizzo Nero,2904.0
46.499943,8.370624,Blashorn,2779.0
46.3384,8.272388,Pizzo Fizzi,2757.0
46.069645,8.0217285,Augstkummenhorn,3419.0
45.7881,7.6635933,Monte Zerbion,2722.0
45.689472,8.018808,Cima delle Guardie,2007.0
45.678852,8.01669,Cima del Bonom,1878.0
45.70353,7.704986,Flambeau D'Arlaz,1160.0
45.712143,7.7095675,Monte Ros,1408.0
45.74463,7.722411,Testa Comagna,2105.0
45.737637,7.776058,Cleve di Moulaz,2233.0
45.690544,7.7859006,Becca Torché,3015.0
45.696373,7.7753677,Becca Mortens,2735.0
45.69057,7.760105,Becca Chalex,2359.0
45.663414,7.7850156,Monte Crabun,2711.0
45.654625,7.5470977,Punta di Medzove,2845.0
45.849197,7.6846004,Becca di Nana,3010.0
45.883728,7.6020713,Monte Pancherot,2614.0
45.893276,7.7132134,Palon di Tzere,2671.0
45.857998,7.6762805,Becca Trecaré,3032.0
45.86865,7.7043214,Monte Croce,2895.0
45.887226,7.6809936,Mont Roisetta (Punta Nord),3334.0
45.8045,7.7884846,Corno Vitello,3057.0
45.79313,7.784182,Punta Valfredda,2944.0
45.794,7.753731,Punta del Lago,2816.0
45.79567,7.73671,Corno Bussola,3023.0
45.746254,7.79311,Punta della Garda,2208.0
45.7425,7.8092446,Monte Rena,2512.0
45.7419,7.8152227,Monte Taille,2561.0
45.735725,7.819296,Monte Taf,2523.0
45.77359,7.7788515,Anticima Monte Bieteron,2586.0
45.871204,7.6872563,Grand Tournalin - Punta Sud,3370.0
45.86518,7.684261,Petit Tournalin,3207.0
45.80073,7.535674,Becca d'Aver,2469.0
45.694122,7.8025765,Monte Voghel,2925.0
45.691578,7.79195,Becca di Vlou,3032.0
45.624737,7.7565346,Tête de Cou,1410.0
45.781948,7.736178,Punta Guà,2777.0
45.79383,7.7665124,Punta Palasina,2782.0
45.670616,7.783255,Corno del Lago,2747.0
45.816765,7.647235,Mont Tantané,2734.0
45.598465,7.843812,La Ciarma,1927.0
45.602318,7.8496776,Bec di Nona,2085.0
45.597275,7.8649187,Punta Cressa,2051.0
45.845276,7.791384,Piccolo Rothorn,3035.0
45.84411,7.7852616,Rothorn,3152.0
45.864033,7.7799444,Monte Bettaforca,2980.0
45.81937,7.744613,Mont de la nouha,2544.0
45.88326,7.7650404,Monte Rosso Di Verra,3034.0
45.818573,7.7265644,Croce di Bequet,2236.0
45.80555,7.7312493,Punta Piure,2907.0
45.797962,7.7277136,Punta Ruines,2822.0
46.4422,7.5042934,Rägeboldshore,2193.0
46.441498,8.350977,Bättelmatthorn / Punta dei Camosci,3044.0
46.09393,7.8588715,Dom,4545.0
45.883297,7.834698,Alta Luce,3184.0
45.621223,7.5672903,Bec Raty occidentale,2417.0
45.60038,7.564147,Cima Rousse,2566.0
45.938774,7.7567725,Breithorn Centrale,4159.0
45.9375,7.76711,Breithorn Orientale / Ostgipfel,4139.0
45.932705,7.775131,Roccia Nera,4075.0
45.935837,7.7703576,Gemello del Breithorn,4106.0
46.39128,7.6888,Majinghorn,3054.0
46.37746,7.6789274,Torrenthorn,2997.9
46.118923,7.6451893,Roc de la Vache,2581.0
46.478806,7.848212,Tschingelhorn,3562.0
46.498207,7.9326577,Mittaghorn,3892.0
46.23304,8.468761,Pizzo di Madèi,2551.0
46.244644,8.463899,Pizzo di Porcaresc,2466.0
46.250145,8.474634,Pizzo della Cavegna,2281.0
46.251453,8.442925,Pizzo dell'Alpe Gelato,2613.0
46.253246,8.494625,Pianca,2376.0
46.261402,8.448455,Tramalitt,2395.0
46.344772,8.464163,Pizzo Bièla - Wandlfuhhorn,2863.0
46.35325,8.461521,Hireli,2786.0
46.443848,8.4656,Pizzo Fiorina,2925.0
46.448498,8.462535,Marchhorn,2962.0
46.45477,8.402304,Punta di Valrossa,2968.0
46.45559,8.467752,Pizzo San Giacomo,2924.0
46.459557,8.484777,Pizzo Cavagnöö,2836.6
46.463398,8.484526,Pizzo Grandinagia,2774.0
45.922005,7.7932863,Castor Nordgipfel,4205.0
45.92403,7.735114,Gobba di Rollin,3899.0
45.92701,7.8204265,Liskamm westlicher Vorgipfel,4447.0
45.93673,7.8685613,Grenzgipfel,4618.0
45.95811,7.8755383,Fillarjoch,3586.0
45.959732,7.8778925,Kleines Fillarhorn,3621.0
45.963745,7.881128,Grosses Fillarhorn,3676.0
45.968502,7.5444946,Pointe de la Grande Arête,3355.0
45.970264,7.879048,Cima Brioschi,3616.0
45.98088,7.894397,Cima di Jazzi,3803.0
45.988728,7.90356,Neue Weisstorspitze,3639.0
45.9926,7.9061074,Neue Weisstorspitze,3641.0
45.995903,7.9190626,Roffelhorn Westgipfel / Cima di Roffel occidentale,3563.0
45.996,7.9326186,Steinchalchhorn / Cresta di Stenigalchi,3345.0
45.99692,7.9373994,Steinchalchhorn,3333.0
45.997147,7.927574,Roffelhorn Ostgipfel / Cima di Roffel orientale,3478.0
45.997173,7.951157,Rothhorn / Corno Rosso,3230.0
46.00372,7.996239,Pizzo Mondelli/Punta Mondelli,2958.0
46.012196,8.001105,Spechhorn/Pizzo di Antigine,3189.0
46.02516,8.0171,Pizzo Cingino Sud,3104.0
46.031204,8.011896,Jazzihorn/Pizzo Cingino Nord,3227.0
46.0484,8.0316925,Vorder Latelhorn/Pizzo di Camposecco,3193.0
46.05232,8.030559,Punta Loraccio,3238.0
46.05239,7.899585,P3596,3596.0
46.05868,8.026191,Pizzo Scarone,3342.0
46.06244,8.024804,Punta Banella,3330.0
46.067978,7.5903506,Dent des Rosses,3613.0
46.07327,7.8206024,Leiterspitzen,3409.0
46.074215,8.0224,Pizzo Bottarello - Sonnighorn,3487.0
46.077106,7.833943,Kinhorn,3750.0
46.084427,7.7049465,Schalihorn,3974.0
46.08707,8.030245,Pizzo di Loranco - Mittelrück,3363.0
46.10455,7.8686566,Lenzspitze,4294.0
46.104523,7.557259,Pointe du Bandon,3074.0
46.106003,8.078995,Cima Dora,2454.0
46.106197,8.028549,Portjenhorn,3567.0
46.108418,8.09715,Pizzo del Büsin,2553.0
46.11511,8.109972,Cima del Rosso,2624.0
46.11819,7.544429,Pointe du Prélet,3000.0
46.11865,7.984284,Trifthorn,3396.0
46.121525,8.017918,P3597,3597.0
46.12182,8.021921,P3526,3526.0
46.123627,8.037664,Tällihorn,3448.0
46.12491,8.002703,Rottalhorn,3815.0
46.129562,8.114545,Ricca,2534.0
46.1322,8.120699,Pizzo Straciugo,2713.0
46.135147,7.88026,Balfrin,3795.0
46.135822,8.138149,Cima d'Azoglio,2611.0
46.138756,7.8750844,Balfrin Nordwestgipfel,3783.0
46.138817,7.5249853,Sasseneire,3253.0
46.14247,7.6709385,Les Diablons,3609.0
46.146336,7.6668077,Sommet Nord (Les Diablons),3592.0
46.154987,8.152051,Cima Mattaroni,2236.0
46.155544,7.8587523,Färichhorn,3292.0
46.15891,7.9805346,Jegiturm,3361.0
46.162582,8.149754,Cima del Tirone,2202.0
46.166374,7.861234,Platthorn,3246.0
46.167107,8.002495,Fletschhorn,3985.0
46.171204,7.8585005,Gabelhorn,3136.0
46.174866,8.159781,Camoscellahorn,2612.0
46.176388,7.8628535,Seetalhorn,3037.0
46.176563,7.9624367,Äusser Rothorn,3151.0
46.179073,7.9953704,Senggchuppa,3606.0
46.182865,8.165067,Pizzo L'Omasca,2238.0
46.186,7.870724,Distelhorn,2830.0
46.19238,7.8734694,Wannehorn,2669.0
46.198807,7.9555507,Mattwaldhorn,3246.0
46.198933,7.992907,Böshorn,3269.0
46.199272,7.9422383,Simelihorn,3124.0
46.20434,7.7542133,P3114,3114.0
46.210213,7.9843597,Simpeler Weizstadel,2854.0
46.21569,7.531818,La Brinta,2658.0
46.222363,7.982952,Galehorn,2797.0
46.233665,7.980447,Magehorn,2621.0
46.24686,7.6620045,Borterhorn,2971.0
46.248867,7.984681,Straffelgrat,2633.0
46.249508,8.110159,Monte Leone,3552.0
46.254414,7.6661406,Brunnethorn,2952.0
46.256504,8.0008,Tochuhorn,2661.0
46.264538,7.9806495,Spitzhorli,2737.0
46.264565,7.6727242,Emshorn,2633.0
46.33278,8.225253,Punta Gerla,3087.0
46.345974,7.7837553,Christehorn,2700.0
46.361145,7.7123876,Einigs Alichji (Niwen),2769.0
46.367264,7.9079795,Alpjuhorn,3144.0
46.38606,7.908662,Strahlhorn,3200.0
46.390785,7.8296976,Schafbärg,3240.0
46.403908,8.248364,Holzjihorn,2987.0
46.40804,8.280224,Turbhorn,3247.0
46.42413,8.251226,Chummehorn,2754.0
46.428696,8.305394,Klein Blinnenhorn,3116.0
46.432827,8.251204,Grathorn,2672.0
46.43929,8.309544,Merezebachschije,3181.0
46.448032,8.32356,Ritzhörner,3107.0
46.4565,8.291447,Stockji,2604.0
46.469017,8.034316,Kleines Dreieckhorn,3639.0
46.47368,8.3284445,Teltschehorn,2744.0
46.47599,8.16079,Setzehorn,3061.0
46.47802,8.351435,Bochtehorn,2473.0
45.996685,8.432906,Sassarut,1474.0
45.998898,8.427661,Cima Corte Lorenzo,1574.0
46.03815,8.351848,Pizzo della Rossola,2087.0
46.12575,7.7458954,Brunegghorn,3833.0
46.138268,7.7377076,Schöllihorn,3500.0
45.880108,7.549158,Dome du Tsan - Sud,3324.0
45.889137,7.5535774,Pointe de Balanselmo,3316.0
45.876404,7.5505576,Pointe du Tsan,3322.0
45.882565,7.551485,Dome du Tsan - Nord,3349.0
45.86714,7.5245366,Becca des Crottes,3000.0
45.879284,7.526913,Monte Redessau - Pointe Nord,3253.0
45.88586,7.5535746,Pointe de Tsignana,3311.0
45.881264,7.551301,Dome du Tsan - Centrale,3348.0
45.887707,7.5536013,Pointe Gianett,3270.0
45.863663,7.526166,Tours des Crottes,2859.0
45.88497,7.553139,Pointe Innomee,3302.0
45.873665,7.537121,Pointes de Chavacour,3191.0
45.877754,7.529277,Monte Redessau - Pointe Sud,3237.0
45.852997,7.5320945,Cima Bianca,3008.0
45.895462,7.5549016,Pointes de Valcorniere - Nord,3238.0
45.891033,7.55382,Pic Innomee,3281.0
45.906567,7.5566583,Pointes des Fontanelles - Centrale,3358.0
45.89334,7.5544477,Pointes de Valcorniere - Centrale,3265.0
45.905956,7.5556173,Pointes des Fontanelles - Sud,3384.0
45.90819,7.557157,Pointes des Fontanelles - Nord,3379.0
45.911934,7.561842,Mont Dragon,3351.0
45.918194,7.554912,Petit Mont Dragon,2856.0
45.892544,7.5544386,Pointes de Valcorniere - Sud,3264.0
45.588943,8.014642,Bric di Burcina,828.0
45.90699,7.5852995,Mont Rous,3240.0
45.704548,7.9276137,Colle Bosa,2150.0
46.034176,7.6119304,Dent Blanche,4358.0
46.497326,7.542483,Schwandfeldspitze,2026.0
45.633217,7.9152846,Monte Mars,2600.0
46.23672,8.055136,Hübschhorn SW,3190.0
46.370125,7.6691036,Schafberg,2848.0
45.64094,7.5893,La Torretta,2539.0
45.92121,7.9235315,Punta Grober,3497.0
45.93039,8.1246395,Pizzo del Moro,2334.0
45.985397,7.999176,Battel,2928.0
46.003258,8.040419,Cresta delle Lonze,2829.0
46.049095,8.429517,Pizzo Lazzaretto,1465.0
46.09006,8.229003,Moncucco,1902.0
46.097713,8.132964,Pizzo Montalto,2705.0
46.10376,8.116247,Monte della Preja,2514.0
46.14963,8.2367525,Cima Lariè,2144.0
46.156147,8.22955,Loccia dei Balmetti,2133.0
46.159157,8.229444,Monte Rondo,2179.0
46.174683,8.246573,Pizzo Albiona,2431.0
46.181267,8.185187,Il Dosso,2562.0
46.182236,8.234415,Pizzo del Mezzodi,2383.0
46.184982,8.214763,Pizzo del Rovale,2456.0
46.229202,8.466674,Pizzo del Fornale,2490.0
46.287773,8.398769,Bancuraà,2690.0
45.76232,8.152024,Montà,1842.0
45.76337,8.162474,Cima della Carega,1689.0
45.765106,8.157119,Punta del Cugnolaccio,1840.0
45.768604,7.9484296,Becco di Cossarello,2631.0
45.6604,7.8119283,Mont Du Prial,2411.0
45.603794,7.8906837,Mont Roux,2318.0
45.589493,7.89581,Punta dei Tre Vescovi,2347.0
45.71125,8.159512,Monte Tovo,1279.0
45.73924,8.380744,Monte Tre Croci,674.0
45.69853,8.374456,Croce del Teso,712.0
45.69404,8.374258,Motto della Capretta,680.0
45.703037,8.371451,Punta Bucciolini,787.0
46.49249,7.6203823,Bunderspitz,2546.0
45.708645,8.356942,Monte Calvario,849.0
45.710094,8.3161,Monte Fenera,899.0
45.62228,8.36068,Le Castelle,360.0
45.69963,8.352551,Sasso Bianco,708.0
45.56707,7.6940713,Mombrignon,2360.0
45.571564,7.6988077,Mont de Pousseuil,2214.0
45.734715,7.9270744,Pointe Lazouney,2579.0
45.84348,7.6997757,Monte Facciabella,2621.0
45.81106,7.778308,Gran Cima,3025.0
45.807518,7.770196,Monte Perrin,2974.0
45.719467,8.177861,Monte Gemevola o Cornebecco,1588.0
45.72155,7.8034787,Monte Soleron,2890.0
45.725143,7.7884464,Punta Champlong,2673.0
45.742706,8.14568,Cima Lavazzola,1910.0
46.075344,8.488844,Cima Fornaletti,1903.0
46.098186,8.493379,Testa del Mater,1846.0
45.604145,7.649112,Quota 2095,2095.0
45.602436,7.6460886,Quota 2101,2101.0
45.997444,7.5389833,Dent Nord de Bertol,3547.0
46.03929,7.5231905,Dent de Perroc,3676.0
46.029766,7.6106443,Grand Gendarme,4097.0
45.66335,7.7674527,Monte Aquila,2582.0
45.69212,8.401099,Montalbano,442.0
45.706173,8.358638,Monte Lovagone,857.0
45.71026,8.380774,Monte Ovagone,729.0
45.709526,8.374608,Motto Ciafera,772.0
45.701035,8.398281,Motto Cicogno,525.0
45.70178,8.405978,Motto Portula,431.0
45.713047,8.388991,Motto Salvapaglia,605.0
45.7118,8.405978,Motto Tondo,522.0
45.70316,8.339201,Punta Ceresola,713.0
45.715122,8.3825035,Cima Misocco,681.0
45.57706,7.5193768,Punta dell'Asgelas,3021.0
45.577106,7.532095,Rosa dei Banchi,3163.0
45.605827,7.5417066,Monte Dondena,2543.0
45.600063,7.5319333,Monte Rascias,2783.0
45.956818,7.681258,Furggen,3492.0
45.80055,8.483701,Monte La Guardia,823.0
45.895576,8.459749,Monte Zughero,1230.0
45.85611,8.4927025,Motto Piombino,817.0
45.862015,8.481282,Motton Salè,1087.0
45.754196,8.21798,Monte Tovo,1386.0
46.11869,7.7180243,Punta Burnaby,4135.0
45.861183,8.294703,Cima Camossaro,1436.0
45.880844,8.328355,Monte Congiura,1386.0
45.84426,8.353603,Monte Mazzone,1234.0
45.84545,8.324973,Monte Novesso,1409.0
45.870556,8.302896,Monte Ostano,1509.0
45.828793,8.335625,Monte Piogera,1246.0
45.823536,8.345328,Monte Trevigno,1117.0
45.916515,7.6664815,Motta di Pleté Orientale,3018.0
45.65433,8.319693,Cima Rimottina,489.0
45.64914,8.320433,Cima Accatta,451.0
45.645313,8.346874,Cima Scalvai,548.0
45.64377,8.336464,Rusca Randa,554.0
45.634117,8.363418,Colle San Lorenzo,544.0
45.64147,8.35505,Pietra Romanasca,522.0
45.64203,8.323985,Cima Strusa,430.0
45.63261,8.310005,il Collinone,482.0
46.082935,7.610763,Pigne de la Lé,3396.0
46.084194,7.576833,Pointe de Moiry,3303.0
46.07243,7.586095,Pointes de Mourti,3563.0
45.913837,7.8581343,Balmenhorn,4167.0
46.08688,7.9942102,Almagellerhorn,3327.0
45.664986,8.295679,Pietra Groana,699.0
45.855503,7.639727,Punta Fontana Fredda,2513.0
45.733486,7.903328,Mont de Pianeritz,2550.0
45.911636,7.7936797,Punta Perazzi - Perazzispétz,3906.0
45.82469,7.5464764,Anticima del Monte Meabé,2565.0
45.567947,7.9122314,Bric Paglie,1859.0
45.791584,7.5204754,Cima Longhede,2416.0
45.644905,8.298417,Monte della Gallina,528.0
45.636494,7.9909716,Monte Becco,1730.0
45.623676,7.9067836,Punta della Sella,2315.0
45.670322,7.977149,Becco di Beccara,1178.0
45.671318,7.973267,Punta Pietraccia,1153.0
45.665333,7.973568,Cima Truggetta,1509.0
45.910522,8.238685,Monte Capio,2172.0
45.7016,7.9120626,Punta Chaparelle,2372.0
45.717598,7.92864,Monte I Gemelli,2427.0
45.719448,7.9632206,Punta La Ronda,2191.0
45.718296,7.955761,Monte Rosso del Croso,2304.0
46.145096,7.8704815,Gross Bigerhorn,3626.0
46.145943,7.8569846,Klein Bigerhorn,3182.0
45.87045,7.8238626,Punta Telcio,2833.0
45.65962,7.9712696,Monte Mazzaro,1739.0
45.711426,8.0035925,Punta del Manzo,2463.0
45.709503,7.9874945,Cima del Bergamasco,2290.0
45.70615,7.9831886,Punta delle Gule,2021.0
45.703342,8.00813,Punta del Cravile,2384.0
45.707676,8.006305,Cima d'Ala,2329.0
46.050873,7.988227,Nollenhorn,3185.0
46.038227,7.9957356,Stelli,3357.0
46.023285,7.828311,Fluehorn,3317.0
46.01649,7.847678,Pfulwe,3314.0
46.059067,7.842313,Wissgrat,3195.0
46.046352,7.8038483,Sattelspitz,3162.0
46.017822,7.8408456,Spitzi Flue,3260.0
46.38418,7.580191,Schwarzhorn,3105.0
45.79313,8.316923,Monte Briasco,1183.0
46.446186,8.492974,Pizzo dell'Arzo,2755.0
45.501366,7.888256,Monte Margut,414.0
46.36041,7.5826054,Tschajetuhorn,2776.0
46.35948,7.5870194,Jägerchrüz,2711.0
46.381668,7.5681434,Rothorn,3103.0
46.384193,7.596184,Leeshörner,2974.0
46.42569,7.6432033,Chli Rinderhorn,3003.0
46.403095,7.634016,Grosses Plattenhorn,2855.0
46.406364,7.5717025,Lämmernhorn,2862.0
46.407207,7.588191,Lämmerengrat,2674.0
46.38897,7.555279,Schneehorn,3178.0
46.39403,7.546413,Kleines Schneehorn,3146.0
46.3949,7.6105223,Daube,2340.0
46.42857,7.610215,Felsenhorn,2782.0
46.351288,7.6691675,Horlini,2452.0
46.382393,7.7027497,Restirothorn,2969.0
46.387077,7.701597,Mauerhorn,2944.0
45.784775,8.34611,Monte Avigno,1136.0
45.751095,8.35181,Monte Tre Croci di Rastiglione,830.0
45.77072,8.353366,Monte Vaiga,936.0
45.767666,8.357196,Monti di Prerro,957.0
45.506912,7.881626,Punta Montesino,516.0
45.51147,7.874027,Cima del Rosello,399.0
45.68831,8.153952,Punta della Civetta,1198.0
45.835373,8.285725,Cima della Rabbiosa,1042.0
45.835003,8.310799,Monte Massucco,1208.0
45.821114,8.294033,Monte Quarone,1220.0
45.698532,8.388637,La Pelosa,658.0
45.55886,7.52819,Monte Fautenio,2072.0
45.568066,7.54778,Punta della Borra,2646.0
45.59156,7.5677414,Punta Laris,2756.0
45.586334,7.5919404,Pointe Vercoche,2617.0
45.536045,7.6140885,Punta Henragherd,2554.0
46.395317,8.3789,Corno Maggiore di Nefelgiù,2954.0
45.856247,7.906812,Il Torru,2508.0
45.82773,7.9933105,Cengio Alto,2109.0
45.83627,7.9331894,Cima Mutta,2135.0
45.80577,7.934933,Cima Tre Croci,2078.0
45.796303,7.9404874,Cima del Palone,2530.0
45.8021,7.9468083,Cima di Ianzo,2449.0
45.80878,7.957692,La Bruciata - Cima di Alzarella,2418.0
45.792587,7.9330297,Monte Palancà,2685.0
46.3529,7.94944,Foggenhorn,2569.0
45.75582,7.93059,Berretta del Vescovo,2730.0
45.851524,7.6579933,Punta Falinère,2763.0
45.83207,8.0372925,Punta Massarei,2071.0
45.80952,8.0565195,Punta dei Quattro Bricchi,1968.0
45.794956,8.064779,Cima Voccani,1907.0
45.78392,8.068129,Monte Il Castello,1796.0
45.805912,7.9842634,La Cona,2212.0
45.783504,7.9678216,Punta Sivella,2523.0
45.758984,7.9238634,Frate della Meja,2812.0
46.05079,7.5280056,Grande Dent de Veisivi,3418.0
46.058064,7.518288,Petite Dent de Veisivi,3184.0
46.03711,7.525939,Pointe des Genevois,3674.0
45.769726,7.9579887,Punta Ventularo,2495.0
45.838696,8.030143,Punta Sajunchè,2344.0
45.73226,7.961268,Cima dell'Artorto,2343.0
45.731853,7.950379,Monte Altorre,2373.0
45.746765,7.982491,Cimaron della Piana,2044.0
45.741943,8.023265,Colma Colora,2018.0
45.74658,8.022478,Monte Bo di Valsesia,2070.0
45.73438,8.015778,Punta Scalaccia,2029.0
45.73791,8.022058,Testone delle Tre Alpi,2047.0
45.72129,7.9865646,Punta Rusca,2463.0
45.73839,8.086777,Monte Camparient o Talamone,1739.0
45.79569,8.0770235,Monte Ventolaro,1833.0
45.81025,8.100451,Colma Masset o di Gaggia,1571.0
45.814617,8.107036,Punta della Terruggia,1498.0
45.893322,8.024907,Cima Lampone,2585.0
45.875896,8.045366,Monte Cervero,2061.0
45.846973,8.003892,Cima dei Caretti,2363.0
45.879707,8.034678,Colma Bella,2232.0
45.86019,8.129073,Massa dei Ratei,1927.0
45.92117,8.086384,Il Cimone,2451.0
45.818863,8.255777,Sacro Monte di Varallo,612.0
45.937725,8.162072,Corno del Sole - cima Ovest,2149.0
45.62385,7.943025,Anticima Monte Mucrone,2148.0
45.920994,7.8516774,Entdeckungsfelsen,4178.0
45.91665,7.8039904,Felikhorn,4087.0
45.925404,7.8289804,Sattelkuppe,4430.0
45.91671,7.8350673,Naso del Liskamm,4272.0
45.889626,8.287874,Monte La Mazza,1816.0
45.860893,8.087771,Cima Castello,1985.0
45.823586,8.265445,Le Tre Croci,919.0
46.149723,7.5514474,Sex de Marinda,2906.0
45.84067,8.49134,Motta Inva,815.0
45.74064,8.059454,Cima d'Ometto,1912.0
45.73683,8.072205,Monte Bimella,1722.0
45.793594,8.294287,Monte Carrue,981.0
45.691185,7.906498,Punta della Vecchia,2387.0
45.670444,7.9110303,Monte Pietra Bianca,2491.0
46.314884,8.2988615,Monte del Sangiatto,2387.0
45.55747,7.6883006,Monte Debat,2623.0
45.55628,7.6943765,Monte Vailet,2613.0
45.557274,7.666328,Punta Dondogna,2550.0
46.066307,8.061911,Punta Turiggia,2811.0
45.82255,7.878678,Corno Bianco,3320.0
46.258427,8.253603,Monte Cistella,2880.0
46.067753,8.0239105,Cimone di Camposecco,3398.0
46.04447,8.0347805,Latelhorn/Punta di Saas,3204.0
46.038933,8.046035,Punta della Rossa,2911.0
46.069557,8.073786,Cima di Pozzuoli,2701.0
46.076836,8.084972,Il Segnale,2545.0
46.074684,8.075859,Cime di Pozzuoli,2602.0
46.063606,8.023681,Cima dello Spigolo,3361.0
46.00769,8.022141,Punta Giavin,2973.0
46.002934,8.032303,Punta Laugera,2995.0
46.00274,8.05919,Pizzo Lamè,2794.0
46.01266,8.090758,Pizzo San Martino,2733.0
46.003304,8.083364,Pizzo Lamè,2470.0
46.00443,8.096539,Pizzo Torrigia,2535.0
46.0956,8.143332,Pizzo del Fornalino,2562.0
46.14698,8.156371,Cima Verosso,2444.0
45.758865,8.140798,Il Badile,1922.0
45.85062,8.098063,Cima Massero,1696.0
46.383625,7.8140864,Schwarzhorn,3126.0
45.67306,7.690144,Monte Conge,723.0
45.94694,7.59891,Punta Lioy,3816.0
45.873108,7.867761,Corno del Camoscio,3024.0
45.947575,7.9544983,Pizzo Nero,2738.0
45.90682,7.942785,Corno di Faller,3128.0
45.90969,7.941311,Punta Calderini,3145.0
45.912247,7.938688,Punta Rizzetti,3196.0
45.90319,7.9700937,Piccolo Altare,2627.0
45.929375,8.014918,Palone del Badile,2675.0
45.939777,8.008303,Pizzo dei Vittini,2454.0
45.948734,8.010514,Pizzo del Camino,2006.0
45.941322,8.07409,Monte Roncastello,2401.0
45.935406,8.065077,Pizzo Tignaga,2652.0
45.936424,8.044315,Pizzo della Moriana,2631.0
45.947853,8.083283,Cima Passet,2283.0
46.00351,8.126815,Quota 1731,1731.0
45.937176,8.097569,Cima dei Turni,2110.0
45.950493,8.183061,Cima Cresta,2324.0
45.95084,8.191846,Monte Mora,2313.0
46.490005,8.1004095,3807,3807.0
46.47695,8.1031275,Wannenzwillinge,3430.0
46.450974,8.095207,Strahlhorn,3026.0
45.95463,8.109393,Pizzetto,1879.0
46.024292,8.161023,Croce del Cavallo,1904.0
45.985523,8.18473,Cima dell'Ovac,1850.0
45.88431,7.963222,Corno di Mud,2802.0
45.876472,8.435259,L'Omo,1243.0
45.853966,8.448639,Monte Mazzarone,1146.0
46.4694,7.690488,Inn. Fisistock,2787.0
46.4695,7.695148,Inn. Fisistock,2772.0
46.44008,7.748325,Märbegg,2380.0
46.473484,7.7043543,Üssere Fisistock,2945.0
46.469933,7.7272587,Kleindoldenhorn,3475.0
46.483715,7.767624,Oeschinenhorn,3486.0
46.03038,8.244725,Croce di Propiano,1129.0
45.93308,8.385645,Monte Cerano,1701.0
45.914085,8.381507,Monte Zuccaro,1338.0
45.934937,8.376469,Poggio Croce,1759.0
46.080193,8.002996,Kanzilti,3308.0
46.080894,8.007498,Plattenhorn,3324.0
46.492855,7.7831683,Wyssi Frau,3650.0
46.146282,8.127237,Irgilihorn,2461.0
46.14128,8.136171,Tschawinerhorn,2496.0
46.13784,8.075926,Balmahorn,2870.0
46.156948,8.085175,Furmulegrat,2472.0
46.148323,8.086728,Galihorn,2577.0
46.14509,8.061772,Grauhorn,2637.0
46.16498,8.088243,Guggilihorn,2351.0
46.136784,8.055339,Muttetosse,2590.0
46.091373,8.146718,Pizzo Cardo,2451.0
46.105232,8.150642,Punta della Forcoletta,2135.0
46.0717,8.185555,Testa dei Rossi,2026.0
46.17147,8.089419,Tschuggmatthorn,2313.0
46.124138,8.06024,Zibelenfluehorn,2985.0
46.021046,7.9820194,Galmenhorn,2846.0
46.044025,8.035351,Latelhorn Italienergipfel,3197.0
45.994522,7.9828124,Punta San Pietro,2905.0
46.18988,8.037808,Bodmerhorn,2335.0
46.163704,7.981327,Inner Rothorn,3455.0
46.170174,8.030533,Rothorn,3108.0
46.12534,7.983731,Schwarzmies,3185.0
46.178417,8.050305,Wenghorn,2588.0
46.08984,8.394638,Monte Togano,2301.0
46.261864,7.944435,Chrizer Horlini,2297.0
46.26985,7.9362082,Gibidum,2317.0
46.24836,7.9384093,Rothorn,2338.0
46.27688,7.9848385,Fülhorn,2678.0
46.26383,7.988425,Ärezhorn,2680.0
46.028168,8.10795,Pizzo del Ton,2675.0
46.038513,8.108012,q2247,2247.0
46.08285,8.087322,i Ton Cima Sud,2484.0
46.076042,8.455713,Pizzo Sergio,2079.0
45.62628,8.260949,Cima Terla,436.0
45.634727,7.557707,Gran Rossa,2865.0
45.63636,7.5696254,Bocon Damon,2792.0
45.633266,7.5513334,Quota,2827.0
45.63754,7.5810547,Tête des Hommes,2619.0
45.82807,7.5464683,Monte Meabé,2615.0
46.04119,8.112082,Punta di Trivera,2144.0
46.077168,8.1555195,Pizzo Ciapè,2394.0
46.367214,8.379354,Punta Clogstafel,2967.0
46.159626,8.497692,La Colma,1673.0
46.07422,8.192905,Quota1856,1856.0
46.178974,8.489876,Schegge di Muino Cima S,2034.0
45.654522,8.300016,Cima Frascheia,625.0
45.85659,8.136687,Pizzo Tracciora di Cervatto,1917.0
45.9833,7.9496775,Faderhorn,2475.0
46.074825,8.4446535,Pizzo dei Diosi,2163.0
46.073307,8.462985,Cimone di Straolgio,2151.0
45.61539,7.50422,Mont Mussaillon,3073.0
46.32104,8.066563,Folluhorn,2657.0
46.321083,8.094529,Graus Horli,2631.0
46.314095,8.103247,Seewjihorn,2733.0
45.93345,8.145914,Pizzo Nona,2245.0
46.415638,8.46555,Pizzo di Cavergno,3223.0
46.298294,8.427718,Pizzo Quadro,2793.0
46.24891,8.4444685,Pizzo del Lago Gelato,2617.0
46.184196,8.415112,Pizzo la Scheggia,2466.0
45.874775,7.910668,Corno d'Olen,2556.0
46.31168,8.129996,Rothorn,2813.0
45.520947,7.8090644,Monte Cavallaria,1478.0
45.77697,8.189375,Castello di Gavala,1827.0
45.771484,8.280999,Monte Tucri,791.0
46.37068,7.793325,Hohgleifa,3279.0
45.88272,8.191426,Cima Turrio,1601.0
45.76584,8.294628,Monte Tre Croci di Breia,986.0
45.67497,8.084936,Monte Massaro,1494.0
45.66558,8.081582,Monte Marca,1616.0
45.66662,8.087495,Monte Cerchio,1621.0
45.92554,8.212761,Punta del Pizzo,2232.0
46.43986,7.7660275,Sackhorn,3204.0
46.447136,7.780656,Elwertätsch,3208.0
45.94725,7.897618,Crestone Marinelli,2675.0
45.9182,7.7981462,Punta Felik,4174.0
45.972897,7.879467,Torre di Castelfranco,3627.0
46.11853,7.690336,Tête de Milon,3693.0
46.110806,7.6663785,Pointe d'Arpitetta,3132.0
46.386665,8.235953,Gandhorn,2462.0
45.914345,7.677043,Gran Sometta,3166.0
46.07776,7.6587806,Besso,3667.0
46.12107,7.597567,Garde de Bordon,3310.0
46.151463,7.9702587,Jegihorn,3206.0
46.041992,7.6778636,Wellenkuppe,3903.0
45.919594,7.6405864,Bec Pio Merlo,2620.0
45.912457,7.6487427,Motta di Plété Occidentale,2840.0
46.17708,7.851811,Durlochhorn,2723.0
46.154438,7.894518,Lammenhorn,3190.0
46.222275,7.8565392,Pheich,996.0
46.169064,7.8733697,Rihorn,2916.0
46.17765,7.878671,Seebodenhorn,2798.0
46.189644,7.8776574,Stock,2490.0
46.170223,7.8639627,Torleten,3008.0
46.332977,8.216619,Fleschhorn,3004.0
46.346,8.214301,Stockhorn,2585.0
46.344864,8.2066,Hirlihorn,2492.0
46.329308,8.205075,Wannihorn,2868.0
46.39217,8.252119,Holzerspitz,2665.0
46.38515,8.198795,Chlis Fülhorn,2544.0
46.38894,8.212101,Grosses Fülhorn,2677.0
46.143555,7.830014,Breithorn,3178.0
46.09843,7.819769,Chli Haupt,3098.0
46.095905,7.8620467,Grand Gendarme,4468.0
46.164696,7.822134,Grathorn,2273.0
46.098717,7.8150897,Gross Haupt,2872.0
46.073383,7.813003,Horn,3214.0
46.154583,7.8257027,Mittelberg,2718.0
46.08339,7.798502,Troäre,2396.0
46.00985,7.944725,Grünberghorn,3074.0
45.987774,7.977417,Ruppenstein,2501.0
45.996487,7.959061,Seewjinenhorn / Corno di Seewjinen,3205.0
46.017303,7.946482,Signal,3015.0
46.340546,8.248967,Rothorn,2887.0
46.346066,8.262714,Grampielhorn,2764.0
45.936893,7.868074,Dunantspitze,4632.0
45.90138,8.286859,Poggio Corciole,1654.0
46.060402,8.484158,Cimone di Cortechiuso,2183.0
46.362457,8.341145,Monte Minoia,2800.0
46.349293,8.338849,Pizzi del Busin,2737.0
46.358326,8.34367,Pizzi della Satta,2830.0
46.36149,8.387913,Monte Giove,3009.0
46.267647,8.465953,Pizzo Paina,2239.0
46.251045,8.454376,Pizzo Stanga,2410.0
45.562466,7.608779,Monte Marzo,2756.0
45.70645,8.265173,Monte Aronne,667.0
45.76707,7.8805175,Corno Rosso,2979.0
45.791687,7.861778,Corno di Valdobbia,2761.0
46.272102,7.8578763,Chastel,1625.0
46.200108,7.7195196,Gigihorli,2749.0
45.895283,8.277147,Massa del Turlo,1959.0
45.907314,8.267946,Monte Forcolaccia,2034.0
45.734356,8.237556,Cima Piccio,945.0
46.227116,8.497924,Goletta di Medaro,2271.0
46.2004,8.4509535,Pizzo del Corno,2280.0
46.20586,8.450905,Pizzo della Forcola,2265.0
46.21359,8.448773,Pizzo di Campolatte,2306.0
46.223362,8.459287,Punta di Pezza Comune,2429.0
46.21909,8.486353,Monte Castello,2141.0
45.586037,8.092802,Brich di Zumaglia,669.0
46.277473,8.069936,Hohture,2409.0
46.231308,8.185084,Monte Teggiolo,2385.0
46.057545,7.904877,Mittelallalin,3456.0
46.450565,7.5464764,Fitzer,2458.0
46.442158,7.537686,Rotstock,2637.0
46.34725,7.8153253,Schwarzhorn,2659.0
46.181767,8.484541,Schegge di Muino Cima Centrale,2163.0
46.185234,8.481921,Schegge di Muino Cima N,2170.0
46.295135,8.237387,Monte Cazzola,2330.0
46.207397,7.6500473,Le Toûno,3018.0
46.20437,7.661834,Pointe de Tourtemagne,3080.0
46.19181,7.6596346,Le Boudry,3070.0
46.174397,7.6603446,Omen Roso,3031.0
46.17048,7.66628,Frilihorn,3144.0
45.76598,8.204877,Monte Luvot,1597.0
45.780598,8.01126,Becco della Guardia,1817.0
45.99024,7.69688,Hirli,2890.0
45.916126,7.577048,Château des Dames,3489.0
45.83271,8.323321,Monte Vesso,1257.0
46.160416,8.414248,Monte Margineta,2017.0
46.13352,7.674167,P. 3405,3405.0
45.74827,8.216336,Cima Alagni,1254.0
45.755898,8.289965,Monte San Grato,914.0
45.718185,7.9973583,Punta del Talamone,2494.0
45.913307,8.084071,Piovatte d'Egua,2469.0
45.80834,8.231593,Il Pizzo,1198.0
45.79399,8.216334,Bec d'Ovaga,1638.0
45.836548,8.230332,Cima di Vaso,1327.0
45.786602,8.28089,Poggio Pianale,619.0
46.091705,7.5706472,Couronne de Bréona,3159.0
46.078167,7.573308,Tsa de l'Ano,3368.0
46.162395,7.5086246,Pointe de la Tsevalire,3026.0
46.22798,7.6606045,Meidspitz,2934.0
46.349457,7.7296104,Heruhubel,2293.0
46.410545,8.269617,Ober Rappehorn,3176.0
46.41502,8.267488,Rappehorn,3158.0
46.41487,8.264131,Mittaghorn,3141.0
46.438248,8.299661,Rote Schije,2984.0
46.44686,8.300866,Sädelhorn,2781.0
46.48669,8.32317,Chietalstock,2328.0
46.459206,8.352413,Fülhorn,2863.0
46.48063,8.318995,Mossmattestock,2475.0
46.466736,8.387634,Nufenenstock,2866.0
46.032486,8.346444,Cima Saler,2020.0
45.595505,7.8224874,Monte dell'Orso,1302.0
46.242867,8.262636,Testa dell'Orso,2368.0
46.035065,8.325882,Pizzo delle Pecore,2018.0
46.031666,8.339407,Pizzo di Cortetto Est,1935.0
46.032,8.3384285,Pizzo di Cortetto Ovest,1941.0
45.974285,7.6537094,Pic Tyndall,4241.0
46.48318,8.340235,Chietalnolle,2467.0
46.24691,8.150002,Pizzo Valgrande,2529.0
45.897243,7.9613404,Corno Piglimò,2894.0
45.93662,8.203865,Altemberg,2394.0
45.932636,8.193154,Corno di Vegliana,2102.0
45.93008,8.210281,Q. 2278,2232.0
45.91823,7.6538477,Motta di Pleté Centrale,2870.0
46.35265,7.98562,Blindbergji,1449.0
46.360218,7.9920135,Burge,1511.0
46.373737,7.940154,Hofathorn/Schene Bärg,2845.0
46.366886,8.272893,Bochtehorn,2770.0
46.36537,8.276791,Corno di Valdeserta,2765.0
46.362976,8.262452,Kleines Schinhorn,2917.0
46.358494,8.264571,Mittelberg - Cima Orientale,2891.0
46.357105,8.264997,Mittelberg,2878.0
46.36362,8.283411,Albrunhorn,2885.0
46.34449,8.265733,Punta Walter,2685.0
46.339794,8.240528,Rothorn - Westgrat,2813.0
46.353195,8.26499,Geisspfadspitzen - Zentralgipfel,2808.0
46.354153,8.264568,Geisspfadspitzen - Nordgipfel,2750.0
46.360695,8.252252,Unter Schinhorn,2898.0
46.33247,8.268789,Pizzo Stange,2415.0
46.35594,8.28507,Pizzo Ton,2612.0
46.445976,8.398198,Corno Brunni / Brunnihorn,2862.0
45.764214,7.7981462,Mont Ciosè,2647.0
45.84404,8.17974,La Cassa,1137.0
45.93677,7.56969,Petite Tête de Bella Tsa,2917.0
45.576748,7.887529,Monte Cavalpiccolo,2190.0
45.581005,7.892477,Monte Cavalgrosso,2227.0
45.57153,7.8815513,Monte La Torretta,2179.0
45.88475,7.678897,Mont Roisetta (Punta Sud),3324.0
45.61458,7.959122,Poggio Frassati,1966.0
46.315033,8.182111,Vordere Helse,3106.0
45.871502,7.687901,Grand-Tournalin - Punta Nord,3379.0
45.784492,7.751619,Monte Quiapa,2684.0
45.68196,7.6927905,Belvedere,960.0
46.151512,8.37442,Cima la Sella,1712.0
46.086475,8.45797,Moncucco,1963.0
46.056736,8.448138,Motta di Campo,1720.0
45.77735,7.782367,Monte Bieteron,2764.0
45.512196,7.624948,Monte Giavino,2766.0
45.520798,7.618054,Monfandì,2820.0
45.60812,7.7537565,Truc Chaveran,718.0
45.527145,7.6186996,Punta Liamau,2734.0
45.813435,8.024027,Cima Pariet,1325.0
45.791775,8.0638,Cima delle Balme,1930.0
45.540806,7.7459106,Cima Vallone,2135.0
45.625816,7.7839403,Croix Courma,1966.0
45.863678,8.125541,Testun,1929.0
45.651615,7.8147116,Lose Bianche,2435.0
45.680534,7.9105096,Monte Cresto,2546.0
45.536102,7.7726603,Cima Biolley,1986.0
45.538628,7.761253,Cima Bracca,1925.0
45.54583,7.607227,Cima delle Chiose,2495.0
45.501667,7.69274,Monte Lion,2009.0
45.62412,7.5293183,Mont Delà,3139.0
45.754135,8.40777,Colle della Guardia,541.0
45.56513,7.758126,Bec Renon,2265.0
45.624393,7.7026043,le Grand Château,1634.0
45.712837,7.514022,Bec Tolomont,1805.0
45.589954,7.906831,Truc del Buscajun,2110.0
45.85498,7.9698644,Cima Carnera,2741.0
45.899345,8.012299,Cima del Tiglio,2546.0
46.195644,8.448039,Pioda di Crana,2430.0
45.83479,7.542086,Monte Miracolo,2601.0
46.47097,7.5179644,Sillerenbühl,1976.0
46.323677,8.231061,Pizzo Bandiera,2817.0
46.32022,8.215155,Punta Devero,3011.0
46.316265,8.215013,Pizzo Cornera,3083.0
45.502678,7.6371975,Punta Bordevolo,2622.0
46.412712,7.8806276,Breitlauihorn,3655.0
46.411858,7.9096975,Gredetschhorli,3646.0
46.42452,7.9067144,Lonzahörner,3547.0
46.423508,7.903745,Lonzahörner,3560.0
46.431618,7.9150124,Beichspitza,3208.0
46.40693,7.9629703,Hohstock,3226.0
45.6353,7.650406,Bec de Nona,1917.0
45.608547,7.8944983,Mont Bechit,2320.0
45.948902,8.3193,Cima Scaravini,2119.0
45.87347,7.6546297,Mont de Molar,2502.0
45.872433,7.65227,Mont de Molar Ovest,2485.0
45.620888,7.571065,Bec Raty centrale,2398.0
45.62079,7.5752225,Bec Raty orientale,2382.0
45.625515,7.5829396,Bec Barmasse,2302.0
45.629215,7.589236,Mont Ros,2288.0
45.85375,7.8738933,Punta Straling,3115.0
45.700253,8.112647,Cima di Foggia,1538.0
45.734825,8.114112,Cima di Bors,1959.0
45.954674,8.221021,Montagna Ronda,2414.0
45.83984,7.7641463,Monte Sarezza,2787.0
46.288914,8.320317,Loccia del Robbi,2450.0
46.295338,8.323858,Monte Forno o Gorio,2593.0
46.281315,8.32315,La Pizzetta,2054.0
46.13727,7.6720223,Diablon des Dames,3538.0
45.69678,7.5268755,Punta Chermontane,2680.0
45.83668,8.319465,Monte Massaro,1276.0
45.63823,7.6377964,Pointe d'Arcomy,1990.0
45.667637,8.104555,Rocca d'Argimonia,1610.0
46.30812,8.295597,Corona Troggi,2230.0
45.753338,7.752289,Monte di Chamousira,1755.0
45.96884,7.506404,Mitre de l'Eveque,3672.0
45.98754,7.5447593,Dents des Bouquetins - Sommet Nord,3779.0
45.97784,7.5421605,Dents des Bouquetins - Sommet Sud,3670.0
45.60133,7.6430206,Mont Digny,2134.0
45.594723,7.632903,Mont Giavin,2438.0
45.585144,7.6298347,Punta di Chenessy,2630.0
46.068424,8.356983,Testa del Parise,2092.0
46.49473,8.392294,Pizzo Gallina,3061.0
45.867195,7.86893,Corno Rosso,3022.7
45.982887,7.545802,Dents des Bouquetins - Faux Sommet,3824.0
45.98638,7.564795,Tête de Chavanne,3671.0
46.028603,7.558198,Mont Miné,2914.0
46.003628,7.5261955,Pointe de Chamois,3387.0
46.009583,7.5282235,Pointe de Bertol,3499.0
46.015335,7.5210114,Pointe Sud des Douves Blanches,3642.0
46.01819,7.5214906,Pointe Nord des Douves Blanches,3664.0
46.135387,7.6966105,Stier,3507.0
45.8438,8.369348,Monte (Pizzo) Castello,781.0
45.777878,7.6819563,Mont Jetire,2145.0
45.65938,7.640002,Bec Gavin,2002.0
45.744137,8.465489,Motto della Croce,471.0
45.8968,7.878255,Punta Vittoria,3435.0
45.82348,7.79143,Monte Pinter,3132.0
45.90526,7.7384005,Rocca di Verra,3321.0
46.08587,8.490804,Cima della Forcola,1850.0
45.947594,8.252862,Cima Ravinella,2117.0
45.952396,8.246821,Punta dell'Usciolo,2187.0
46.158253,8.39718,Monte Alom,2011.0
45.84245,7.9912214,Cima delle Croci,2501.0
45.829178,7.9212847,Corno d'Otro,2494.0
45.719784,8.102645,Cima della Bondala,1770.0
45.540413,7.702168,La Trucca,1777.0
45.876774,7.914547,Corno di Stofful occidentale,2466.0
45.87658,7.9223027,Corno di Stofful orientale,2385.0
45.84434,7.8653607,Corno Grosso,3042.0
46.152122,8.381773,Croce di Rovareccio,1767.0
46.173122,8.493266,Cima Trubbio,2062.0
46.162796,8.477184,la Cima,1803.0
46.18366,8.4771805,Cima Alta,2056.0
46.19966,8.4664955,Pizzo di Fontanalba,2200.0
46.193092,8.4213705,Cima dei Casaletti,2417.0
46.181015,8.411614,Pizzo Locciabella,2340.0
46.165207,8.406764,Monte Loccia di Peve,2127.0
46.1681,8.406576,Pizzo Cazzola,2074.0
46.16137,8.426803,Monte Mater,2026.0
46.151783,8.397502,Monte Corgiolo,1768.0
45.846542,8.163279,Cima Lavaggio,1594.0
46.116215,8.445908,Monte Bassetta,1672.0
46.10844,8.444111,La Porcella,1829.0
45.751186,8.061215,Monte Ovago,1757.0
46.101208,8.390143,Pizzo Marcio,1924.0
46.090405,8.356048,Punta i Pisoni,1910.0
45.80865,7.9954114,Punta Sparone,1852.0
46.19284,8.482759,Pizzo Ruggia,2289.0
45.83892,8.22835,Cima di Grignano,1342.0
45.892433,7.9632683,Punta Chiara,2747.0
45.83304,8.103404,Torre delle Giavine,1060.0
45.85643,8.213156,Cima del Falò,1055.0
45.858803,8.199139,Galerno di Cravagliana,1248.0
45.802982,8.094587,Sasso delle Gaie,1608.0
45.81514,8.056637,Cima dei Laghetti,2064.0
45.79002,8.084461,Testa di Frasso,1642.0
45.893925,8.197191,Cima Kaval,1895.0
45.79183,8.19296,Monte Massale,1744.0
45.80377,8.221246,Bric delle Galline,1431.0
45.914436,8.474971,Croce Monte Camoscio,865.0
45.86505,8.173225,Cima Scarcione,1430.0
45.88046,8.360805,Monte Saccarello,1228.0
45.883545,8.309428,Monte Croce,1643.0
46.146416,7.7004256,Adlerflüe,2922.0
45.83016,7.8918476,Cornello di Tailly,2708.0
45.83513,7.901325,d'Sender Houre,2272.0
45.823586,7.887041,Corno di Puio,3031.0
45.85827,7.873247,Corno Foric,3018.0
46.02072,7.653581,Äbihorn,3472.0
45.912827,7.9994836,Pizzo Montevecchio,2789.0
45.92311,8.007532,Pizzo Quarazzola,2798.0
45.510124,7.665183,Punta Palit,2161.0
45.621098,7.783389,Mont de Beuby,1725.0
45.784306,8.484506,Motto Cassinaro,710.0
45.789845,8.478846,Monte Tessera,759.0
45.773067,8.4557085,Motto Alto,631.0
45.782562,8.122944,Il Mazzuccaccio,1127.0
45.792805,8.157275,Punta di Sella Boera,1654.0
45.7764,8.1673155,Denti di Valmala,1763.0
45.797264,8.147776,Dente Centrale,1676.0
45.7838,8.154123,Turio del Ghiaccio,1540.0
45.785847,8.159474,Punta delle Gule,1690.0
45.52734,7.511935,Cima Fer,2646.0
45.802032,7.8661127,Cresta Rossa,2986.0
45.58947,7.7146554,Bec di Cormoney,2143.0
45.514088,7.774184,Torretta delle Cime,1564.0
46.354877,7.718601,Dri Alichji,2476.0
45.509205,7.994194,Trucco Briengo,441.0
46.02566,8.461142,Cima Tuss,1735.0
45.530025,7.902294,Poggio Castellazzo,823.0
45.84092,8.20456,Galerno di Vocca,1176.0
45.839058,8.209401,Monte Pizze,1272.0
45.841938,8.186506,Cima Sion,1142.0
46.038162,8.2237425,Pizzo Castello,1607.0
46.033886,8.467999,Cima Nord,1900.0
45.914345,8.156899,Monte Tracciora,1857.0
45.880135,8.0483465,La Cuna,1929.0
45.873394,8.050637,Cima Triola,1889.0
45.74348,7.976852,Testa d'Ambrogiore,2050.0
45.736084,7.9526424,Cimone della Gronda,2400.0
45.753475,7.9883857,Cimaron dei Giurà,1928.0
45.90868,8.2525625,Cima Rimeo,2072.0
45.909935,8.247097,Cengio dell’Omo,2120.0
45.90963,8.243687,Cima dei Rossi,2134.0
46.428314,8.328018,Corno Rosso,3289.0
45.9411,8.205038,Cima Lago,2401.0
45.945854,8.174871,Chastal,2242.0
45.946407,8.175009,Cima del Forno,2205.0
45.93937,8.1640215,Corno del Sole o Sonnehorn,2163.0
46.408035,8.2144165,Ärnergale,2483.0
45.831467,7.872015,Punta dell'Uomo Storto,3014.0
45.819916,7.861992,Punta di Ciampono,3233.0
45.82603,7.873695,Punta di Netscio,3280.0
45.78472,7.9293604,Pala d'Erta,2633.0
45.916172,8.026301,Cengio del Badile,2132.0
45.81446,7.9577055,Becco Gianaccia,2274.0
45.817635,7.9575286,Cima dell'Otgnoso,2112.0
46.49699,8.230433,Stockji,2610.0
46.493195,8.221658,Chly Chastelhorn,2683.0
45.62935,7.66439,Tête du Mont,1897.0
45.976295,7.5414743,Pointe Barnes,3612.0
45.98226,7.545454,Dents des Bouquetins - Sommet Central,3838.0
45.994137,7.5362887,Dent Sud de Bertol,3524.0
46.01592,7.503308,La Maya (d'Arolla),3040.0
46.00405,7.527319,Pointe de la Crête du Plan,3375.0
46.006786,7.527518,Clocher de Bertol,3343.0
46.04168,7.523403,Blanche de Perroc,3648.0
45.90702,7.6785393,Bec Carre',3003.0
45.903225,7.6792645,Pointe Sud,2973.0
45.91464,7.7086077,Punta di Rollin,3296.0
45.745693,7.9146395,Punta Cornaccio,2534.0
45.74725,7.908369,Punta di Casera Nuova,2589.0
46.23368,7.8100033,Schwarzhorn,2776.0
46.234295,7.8167,Mällich,2670.0
45.7097,7.9251914,Punta Serange,2337.0
45.65422,7.9271784,Punta Gran Gabe,2337.0
45.62454,8.131372,Monte Rovella,889.0
46.377,8.466197,Pizzo Fiorèra,2921.0
45.600033,7.5852532,Bec de Laris,2427.0
45.591335,7.5800056,Bec Mulére,2646.0
45.79596,8.449302,Monte Bargheja,566.0
45.739487,8.473642,Motto Grande,465.0
45.733562,8.4722395,Motto Dűno,423.0
45.846973,8.485277,Monte Falò,1073.0
45.815693,7.756616,Monte Castello,2657.0
45.817486,7.752898,Monte Pezzei,2617.0
45.83204,7.9951015,Q.2244,2244.0
45.92274,8.433165,Poggio Molla,281.0
45.904015,8.006086,Cima Trasinera,2620.0
45.808784,7.9697094,La Loccia,2173.0
46.007515,7.6344895,Gemsspitz,3182.0
45.77632,7.92383,Punta del Tillio,2675.0
45.77236,7.9224944,Punta del Cortese,2711.0
45.954483,8.284291,Mazza dell'Inferno,1921.0
45.68022,7.534349,Testa di Pian Fret,2715.0
45.726837,8.167799,Punta delle Camosce,1699.0
45.72259,8.168431,Punta Pissavacca,1659.0
46.334244,8.341759,Punta di Tanzonia,2683.0
45.738243,8.1195545,Scala di Bors,1872.0
45.676014,8.249573,Tre Croci,505.0
45.730747,8.105403,Cima della Mora,1937.0
45.66853,8.252173,Massucco del Turlo,561.0
45.74982,8.134785,Monte Talamone,1915.0
45.95717,8.274921,Monte Ventolaro,1892.0
46.25506,8.266312,Corno Cistella,2689.0
46.27654,8.257305,Pizzo Brumei,2166.0
45.7412,7.934023,Pala della Gronda,2703.0
45.970592,8.306087,Monte Turi,1677.0
45.956245,8.308458,Monte Crotta,1965.0
46.415283,8.374279,Punta di Morasco,2831.0
45.977463,8.234275,Pizzo Camino,2148.0
45.984,8.249433,Punta l' Ottone,1697.0
46.235218,8.391217,Pizzo di Locciastesa,2203.0
46.21257,8.35895,Cima degli Uccelli,2107.0
45.81916,7.899937,Punta delle Pisse,2759.0
45.820564,7.9071317,Punta della Croce,2617.0
45.825417,7.9187307,Punta Balmone,2487.0
46.417347,7.516486,Ammertenhorn,2666.0
45.787163,7.99742,Punta Vasnera Orientale,2035.0
45.783314,7.978809,Punta Salarua,2229.0
45.78387,7.986754,Punta Vasnera Occidentale,2042.0
46.444588,8.448397,Rupe del Gesso,2438.0
46.446823,8.408632,Corno Mutt,2782.0
46.41442,8.3604145,Pizzo del Vallone,2912.0
46.41782,8.36106,Corno di Ban / Bannhorn,3027.0
45.812412,7.8922567,Punta delle Pile,2815.0
45.82125,8.1945,Punta Pisciole,1150.0
45.818043,8.188565,Punta Caminei,1252.0
46.30075,8.197739,Punta di Boccareccio,3207.0
46.297825,8.180047,Cima delle Piodelle,3081.0
46.237717,8.150601,Punta del Lago delle Streghe,2406.0
46.266262,8.174757,Torri di Veglia,2424.0
46.41148,8.362083,Gemelli di Ban cima Nord,2949.0
46.40956,8.361973,Gemelli di Ban cima Sud,2946.0
46.394634,8.378249,Corno Occidentale di Nefelgiù,2934.0
46.353874,8.402887,Corno Creil,2593.0
46.264034,8.338167,Sasso di Premia,851.0
46.401646,8.438092,Corno Talli,2708.0
46.41079,8.422799,Monte Castello,2220.0
45.811863,8.177819,Massucco Terragnolo,1190.0
45.800697,8.186445,Cima del Vallè,1467.0
46.422543,8.457519,Corno Castello / Kastelhorn,3128.0
46.39595,8.471141,Pizzo della Medola,2957.0
46.386524,8.460833,Pizzo Calba,2805.0
46.388596,8.393065,Cima della Freghera,2728.0
46.365337,8.404347,Monte Reti,2415.0
46.35828,8.464738,Pizzo Cazzola,2756.0
46.398163,8.343062,Punta Lebendun,2935.0
45.66866,8.226077,Colle Naccio,671.0
46.392628,8.379604,Corno orientale di Nefelgiù,2871.0
46.135338,7.754277,Schwarzhorn,3137.0
46.11682,7.756219,Gross Kastel,2893.0
46.113377,7.753322,Chli Kastel,2786.0
46.22083,7.7813673,Rieberg,2961.0
46.27109,7.744047,Distelhorn,2451.0
46.23242,7.7408686,Borthorn,2993.0
46.22554,7.764008,Borterhorn,2900.0
46.20076,7.735067,Ritzuegg,2976.0
46.18363,7.724086,Hungerlihorli,3007.0
46.16844,7.7287693,Pipjispitz,3078.0
46.169876,7.7147517,Längi Egga West,3028.0
46.169987,7.7085614,Signal,2932.0
46.18355,7.7692113,Sparruhorn,2988.0
46.177063,7.7659125,Festihorn Ost,3092.0
46.175793,7.7599363,Festihorn Mitte,3195.0
46.17651,7.756594,Festihorn West,3248.0
46.17337,7.749084,Wasuhorn,3343.0
46.204742,7.7918506,Twära,2661.0
46.204628,7.7878275,P2703,2703.0
46.202354,7.7790112,Horn,2892.0
46.201717,7.7651978,P3095,3095.0
46.203785,7.760324,Steitalhorn,3164.0
46.19898,7.748403,Wyssegga,3168.0
46.19774,7.73995,Wyssegga West,3137.0
46.19396,7.7353435,Furggwanghorn,3162.0
46.183598,7.73526,Rothorn Nord,3259.0
46.181282,7.7327642,Rothorn,3278.0
46.176525,7.735841,Inners Rothorn,3258.0
46.17225,7.7399263,Brändjihorn,3308.0
46.16977,7.737427,Üssers Stellihorn,3405.0
46.16704,7.73905,Inners Stellihorn,3410.0
46.161484,7.73557,Gässispitz,3411.0
46.156445,7.7354374,Üssers Barrhorn Nord,3592.0
46.145107,7.72425,Chanzilti,3075.0
46.152805,7.746284,Distulberg,3285.0
45.710285,8.130741,Cima dell'Inferno,994.0
46.32833,8.460033,Martschenspitz,2689.0
46.28425,8.402694,Pizzo dei Croselli,2709.0
45.55967,7.748507,Cime Battaglia,2298.0
45.55056,7.7298174,Cima Bonze,2516.0
45.802654,7.8778467,Corno Rosso,2740.0
46.264835,8.168098,Punta Maror,2323.0
46.273155,8.195309,Cima di Valtendra,2693.0
46.255066,8.244132,Cima di Valle,2575.0
46.25229,8.245953,Pizzo Boni,2588.0
46.248436,8.246305,Scheggia di Marsasca,2472.0
46.256245,8.233176,Pizzo del Balzo,2513.0
46.03695,7.7345037,Wisshorn,2936.0
46.20657,8.354142,Pizzo Osbarino,2008.0
45.818718,8.063705,Colma Finestrolo,1950.0
46.04405,8.315891,Pizzo Colla Bassa,1710.0
46.027317,8.380319,Moncucco,1970.0
46.00874,8.391122,Mot Gianin,1049.0
46.01549,8.388229,Piz d'la Vugia,1611.0
45.71205,8.030572,Punta dello Scaletto,2046.0
45.725437,8.007283,Punta del Corteis,2243.0
45.72871,8.011612,Punta del Campanile,2145.0
45.720024,7.9900193,Monte Cambra,2492.0
45.72112,7.9716306,Punta La Cascinaccia,2069.0
45.759342,7.8883457,Corno del Pallone,2874.0
45.782944,7.8690767,Punta Plaida,2689.0
45.812557,7.863599,Punta di Rissuolo,3102.0
45.70598,7.923685,Punta della Gruvera,2319.0
46.004566,8.391901,Sasso Grande,878.0
46.021248,8.40685,Pizzo del Lesino,1990.0
46.004314,8.425536,Torrione di Bettola,1578.0
45.820873,7.881407,Cima del Forno,3171.0
45.923275,8.053781,Corno della Busacca,2083.0
45.7607,7.9952464,Pizzo del Randaloro,1728.0
45.663628,8.047579,Monticchio,1696.0
45.819294,8.190561,Cima Varda,1247.0
45.813507,8.188565,Turrio,1232.0
45.816887,8.188414,Il Dirupato,1251.0
45.820675,8.199709,Torreggia,998.0
45.64801,7.8298326,Bec-Fourà,1832.0
46.16002,8.245453,La Colma della Croce,1959.0
46.140804,8.253068,Pizzo Crogna,1740.0
46.212357,8.40129,Cima d'Agaro,2160.0
46.137245,8.176274,Monte del Dente,1999.0
45.62502,8.014158,Cima Cucco,1287.0
45.664715,7.9225197,Punta della Gragliasca,2397.0
45.83859,8.225627,Punta Morigiore,1285.0
45.8374,8.2181635,Punta Rascalina,1254.0
45.690067,8.361109,Colle Orlaccio,416.0
45.715103,8.103947,Bondala della Mora,1700.0
45.87314,8.231583,Cima della Gavosa,1384.0
45.83079,7.9215674,Corno d'Otro2,2485.0
45.761898,8.32903,Monte Tre Croci,899.0
45.74813,8.392669,Monte Gaggio,562.0
45.644753,8.290115,il Gruppo,448.0
45.65913,8.262395,Cima Rubattini,532.0
45.658382,8.306575,Bric Galletto,517.0
45.83121,7.9231353,Cima il Craco,2463.0
45.86751,7.9739585,Dosso Grinner,2761.0
45.852287,7.979455,La Mezzana,2611.0
45.679577,8.268676,Colma Vasselloni,754.0
45.660496,8.2322645,La Colma,723.0
45.63761,8.066048,Monte Casto,1139.0
45.789906,8.326198,Cima Soliva,1130.0
45.659878,8.221586,Cima La Guardia,785.0
45.64342,7.9396396,Punta della Barma,2379.0
45.72459,7.9374003,Punta Tre Vescovi,2501.0
45.64501,7.961949,Monte Tovo,2230.0
45.5957,7.7157674,Testa Tomè,1665.0
45.593803,7.7147946,Bec Sant Jean,1847.0
45.887775,7.8867264,La Malfatta,2912.0
45.926018,7.90709,Punta Tre Amici,3425.0
45.66536,8.152349,Monte Cattivo,872.0
45.647587,8.185331,Monte Capoposto,650.0
45.668934,8.130245,Monte Massaro,1413.0
45.67357,8.132306,Monte Rubello,1410.0
46.327892,8.249488,Monte Croce,2331.0
45.66518,8.123703,Cima della Ragna,1413.0
45.686985,8.144633,Monte Tirlo,1303.0
45.68721,8.088868,Cima della Balmetta,1362.0
45.663094,8.076553,Monte Marchetta,1558.0
45.6684,8.114071,Poggio Canajone,1421.0
45.651463,8.091069,Monte Bricche,1171.0
45.653328,8.069726,Monte Cavajone,1293.0
45.653015,8.078737,Monte Terlo,1171.0
45.87785,8.224551,Cima delle Locce,1594.0
45.871548,8.222074,Sasso Nero,1407.0
45.609035,8.078877,Monte Turlo,835.0
45.606255,8.1510315,La Colma,508.0
45.692078,8.258486,Colle di Brione,535.0
45.61767,8.219931,Bric Mazzero,395.0
45.621384,8.225583,Bric Montuoso,417.0
45.630795,8.221963,La Fornatta,581.0
45.64922,8.204302,Monte Bacco,616.0
45.643215,8.214243,Monte Locala,678.0
45.63414,8.219156,Cima le Pietre,596.0
45.616634,8.24996,Monte Pendina,432.0
46.270424,8.391377,Pizzo di Pioda,2676.0
46.25833,8.388726,Pizzo del Forno,2696.0
46.252254,8.38562,Pizzo di Bronzo,2502.0
45.603714,8.257318,Monte Pilone,408.0
45.62278,8.264731,Cima Granone,429.0
45.590965,8.109734,Bric Moncucco,533.0
45.61556,8.083578,Colle Nelis,764.0
45.600033,8.063301,Bric della Randolina,726.0
45.88582,8.119728,Punta Castello,2096.0
45.764614,7.9476066,Becco di Cossarello 2,2665.0
45.74079,8.223002,Cima Tortignaiga 1,1177.0
45.741806,8.222111,Cima Tortignaiga 2,1176.0
45.88832,8.13385,Croce Garei,1846.0
45.87607,8.20199,Cime di Lagarej,1295.0
45.864838,8.197185,Cima Colora,1105.0
45.88418,8.222662,Cima di Razzarola,1714.0
46.372074,8.335855,Punta di Curzalma,2743.0
46.374294,8.334074,Cresta di Curzalma,2785.0
46.40049,8.357769,Punta del Ghiacciaio di Ban,2975.0
46.401268,8.350934,Pizzo del Costone,2950.0
46.381405,8.321285,Cima Cust,3045.0
46.370102,8.336638,Monte del Sasso,2712.0
46.36948,8.3411875,Punta della Scatta,2720.0
45.79435,8.080864,Montagna Forata,1713.0
45.883526,8.150627,La Volpera,1384.0
45.882202,7.86528,Stolemberg,3202.0
45.8165,8.216145,Massucchetto,846.0
45.808987,8.18711,Punta Chiosone,1282.0
45.797478,8.19104,Massa,1557.0
46.20767,8.414419,Cima di Canogia,2350.0
45.64,7.895665,Mont de Leretta,1994.0
45.633026,7.900677,Punta Fillieux,2181.0
45.713734,8.01607,Punta del Canalaccio,2246.0
45.715023,8.062597,Poggio le Rosette,1530.0
45.706715,8.0568905,Punta Dormiolo,1764.0
45.789047,7.848569,Tréchtéspétz,2729.0
45.814163,8.32208,Moncucco,1066.0
45.81566,8.326861,Monte di Carcegna,1023.0
45.801743,8.356319,Monte Cregn,748.0
45.86669,8.218452,La Tureggia,1304.0
45.765644,8.460401,Motto della Rocchetta,566.0
46.07132,7.5079575,Roc Vieux,2213.0
45.619625,7.8841386,Mont Portola,1986.0
45.815502,8.379207,Monte Camosino,648.0
45.774525,8.3816185,La Colmetta,503.0
45.768948,8.387085,Monte Curlera,450.0
45.867386,8.393424,Monte Zuoli,501.0
45.70522,8.27936,Cima Croce,582.0
45.681316,8.0686655,Poggio Selletto Grosso,1222.0
45.68631,8.053456,Colma della Quara,1644.0
45.69071,8.0539255,Piana del Calcinone,1703.0
45.69759,8.047498,Colma del Balmello,1926.0
45.91514,8.357813,Poggio Buzzone,1159.0
45.86883,7.9940944,Moncucco,2414.0
46.360126,7.911966,Schilthorn,3122.0
46.343906,7.9167814,Gärsthorn,2926.0
45.942326,8.334837,Monte Cucco,1831.0
46.35479,7.8561473,Wiwannihorn,3001.0
45.877396,8.383482,Monte Castellaccio,899.0
45.9426,8.256685,La Bandiera,1733.0
45.917183,8.25251,Massa dei Sesiani,1962.0
45.915493,8.269738,I Paiosei,1840.0
45.914436,8.2867155,Sasso Respore,1338.0
45.89558,8.099777,Cima Colmetta o Rosso,2459.0
45.78347,8.02225,Cima Brione,1661.0
46.36419,7.8980703,Rothorn,2953.0
46.301712,8.213215,Guglie di Cornera,2729.0
46.297806,8.202674,Pizzo di Boccareccio,3027.0
45.83732,7.670931,Gran Dent,2834.0
45.99523,8.433112,Carbunisc,1475.0
46.467625,7.589751,Mittaghore,2677.0
45.778744,7.8834763,Punta Oro,2599.0
45.85007,8.026609,Cima di Faut,2028.0
46.323788,8.308946,Monte Corbernas,2578.0
46.332584,8.3280735,Punta della Valle,2667.0
45.783653,7.8835535,Punta del Kin,2472.0
45.52379,7.641388,Punta di Mariasco,2412.0
45.843384,8.012644,Punta del Laghetto,2385.0
45.84574,8.013464,el Mill,2312.0
45.841194,8.024433,Massa di Grega,2339.0
45.78134,8.481868,Motto Comune,675.0
45.798756,8.46344,Monte Rossaccio,726.0
45.880123,8.105505,Cima Preronda,2140.0
46.2386,8.434496,Pizzo d'Apteggia,2548.0
45.887196,8.104731,Massa della Sajunca,2314.0
45.890354,8.101643,Massa del Castello,2435.0
45.512768,7.8481994,Monte Buono,350.0
45.884052,8.084515,Cima Cacciorello,1917.0
45.801033,8.218388,Il Paretone,1501.0
46.47351,7.720685,Doldenstock,3232.0
46.250233,8.436836,Pizzo Mattignale,2530.0
46.219063,8.362453,Monte Larone,2237.0
46.309452,8.294875,Pizzo Troggi,2309.0
45.824306,8.3260565,Bric Cortaccio,1055.0
45.782654,8.307968,Poggio Ruvo grande,1076.0
45.774952,8.306893,Cima Ruvo pitta,1010.0
45.780903,8.280128,Poggio Cerei,600.0
45.769352,8.270949,Poggio Roncacci,526.0
46.24071,8.381589,Pizzo dei Quattro Pilastri,2439.0
46.246174,8.388346,Pizzo Cortefreddo,2499.0
46.1874,8.370662,Monte Navone,1602.0
45.839897,8.159183,Sasso della Colma,1565.0
45.80146,8.166324,La Finestra,1160.0
45.892776,8.180762,Mai-höru,1210.0
46.495895,8.440368,Poncione di Manió (anticima est),2890.0
46.497906,8.44976,Poncione di Cassina Baggio (anticima ovest),2813.0
46.4643,8.480948,Pizzo Grandinagia (anticima ovest),2699.0
46.46696,8.497543,Poncione Cavagnolo,2820.0
46.40435,8.463395,Punta di Tamia,3086.0
46.29111,8.237045,Pizzo Creggio,2310.0
46.26335,8.27433,Pizzo di Croppo Cerino,2210.0
46.082264,8.129762,Cavallo di Ro,1895.0
46.089737,8.086362,Monte Forcolaccia,2149.0
46.084534,8.086432,i Ton Cima Nord,2499.0
45.89473,8.206336,Il Castello,1943.0
45.99351,8.230763,Cima Strighet,1899.0
45.862057,8.212828,Li Dornaj,1283.0
46.424644,7.690312,P3667,3667.0
46.439537,7.6219316,Wyssi Flue,2472.0
46.261032,8.073027,Maderhorn cima N-E,2946.0
45.91002,8.074985,Cima Pianone,2354.0
45.93398,8.1312475,I Tre Pizzi,2267.0
45.769405,7.97612,Bricco del Vallé,1904.0
45.9072,8.470776,Monte Crocino,1021.0
46.06372,7.6535544,Le Mammouth,3100.0
46.071655,7.6669555,Dôme,3650.0
46.073704,7.6644955,Blanc de Moming,3660.0
46.069393,7.687598,L'Epaule du Rothorn,4016.0
45.58667,7.879721,Piano dei Test,2094.0
45.991096,8.437055,Cima Mergozzoni,1384.0
45.999447,8.430848,Pasquetta,1540.0
45.679558,7.690235,Mont de Saint Gilles,920.0
45.81951,8.120986,Cma Selvetto,1241.0
45.562744,7.5216722,Monte Diavolo,2308.0
45.570625,7.5368333,Punta della Balma,2961.0
45.556374,7.549349,Punta dell'Orletto,2499.0
45.54228,7.549834,Cima di Chiali,2010.0
45.550716,7.5573125,Cima Orletto,2258.0
46.30359,8.415683,Corno di Cramec,2729.0
46.30803,8.414762,Pizzo di Leur,2659.0
45.618885,7.6899314,Mont Charvatton,1786.0
45.799,8.143147,anticima Reinauda,1615.0
45.798794,8.144571,Reinauda,1650.0
45.798256,8.144837,Pizzo Piccolo,1660.0
45.798237,8.145485,Pozzo,1667.0
45.797832,8.146458,Ometto,1671.0
45.80024,8.148256,Mognetta Storta,1577.0
45.801117,8.148369,Orello Arioso,1501.0
45.802513,8.148791,Mognetta Grossa,1473.0
45.804886,8.148855,Turlo,1458.0
45.807724,8.148757,Cima Scaletto,1414.0
45.946434,8.039343,Pizzo della Caccia,2404.0
45.559048,7.7194815,Bech dle Steje,2544.0
45.96625,8.48111,Monte Castello,785.0
45.704044,8.045465,Cima dell'Asnas,2039.0
46.45367,8.051925,Olmenhorn,3314.0
45.84432,7.997508,La Pala,2372.0
46.043934,8.458535,Cima di Campo,2053.0
46.05441,8.464301,Cima di Binà,2181.0
46.486813,7.6446214,Alpschelehubel,2247.0
46.035618,8.3719225,Cima Sciarina,1978.0
46.040882,8.374484,Monte di Grassino,1922.0
46.2648,8.391688,Satta del Forno,2507.0
46.298717,8.418102,Corona di Groppo,2792.0
46.244183,8.436188,Pizzo Locciatenera,2580.0
46.251545,8.376368,Cima di Meri,2211.0
45.97039,8.186579,Corno di Scarpignano,2267.0
46.33928,8.26512,Punta Esmeralda,2616.0
46.229767,8.277265,Croce della Torriggia,1726.0
45.879974,7.570456,Becca de Salé,3107.0
45.875954,7.518171,Tetes de Livourneyaz,3037.0
46.30433,8.440284,Monte Madone,2748.0
46.31948,8.4437065,Monte Rizo,2591.0
46.450447,8.4461355,Colle di Randolo,2364.0
46.422935,8.371908,Monte Immel,2807.0
46.420612,8.362247,Punta della Sabbia,2949.0
45.812073,8.42385,Monte di Carcegna,611.0
46.38988,8.338525,Torri del Vannino,2752.0
45.714077,7.9988136,Monte Bo,2556.0
45.579548,7.87577,Monte Rasca,1882.0
45.85577,7.9591403,Kamp Houre,2409.0
45.741135,8.483546,Motto Sereia,444.0
45.728985,8.4804945,Colle San Michele,419.0
45.803467,8.242139,Cima Viola,1036.0
46.325188,8.342753,Pizzo Pojala,2773.0
45.84645,8.03922,Cima del Vallè,2110.0
45.852596,8.042177,La Munca,1898.0
46.186092,8.417497,Cima dei Campelli,2448.0
45.740387,7.661346,Mont Tsailleun,677.0
45.570175,7.636125,Monte dei Corni,2778.0
46.34992,8.388705,Pizzo Martello,2711.0
46.289616,8.131081,Pizzo Taramona,2772.0
46.298923,8.133312,Bocca di Mottiscia,2979.0
46.299217,8.292786,Pizzo Nava,2184.0
46.361153,7.7123675,Niwen,2769.0
46.31082,8.331957,Pizzo Topera,2480.0
46.286976,8.435804,Pioda Bagnata,2204.0
46.29108,8.433681,Pioda Rotonda,2377.0
46.251144,8.150182,Pizzo Foralo,2351.0
46.285404,8.117166,Cima di Vallaperta,2857.0
46.27304,8.098178,Cima della Forca,2845.0
46.236435,8.117702,Pizzo d'Avino,2880.0
46.23143,8.124186,Pizzo Fnè,2933.0
46.229675,8.144428,Pizzo Forato,2666.0
46.219387,8.146319,Pizzo Cornacchia,2437.0
45.563602,7.653086,Cima Prel,2609.0
45.504692,7.654791,Cima la Rubbia,2426.0
46.26187,8.218599,Pizzo del Dosso,2551.0
46.285046,8.2164755,Punta d'Orogna Centrale,2447.0
46.2844,8.194719,Pizzo Moro,2943.0
46.270668,8.185541,Punta Salarioli,2667.0
46.17266,8.1818075,Costa del Dosso,2487.0
46.18148,8.170642,Pizzo di Mezzo,2196.0
46.18462,8.237032,Croce del Mezzodì,2230.0
46.247192,8.259626,Costetta,2428.0
46.187572,8.301613,Croce di sasso,1657.0
46.23956,8.265797,Croce dei Meri,2179.0
46.28118,8.442274,Sasso del Pino,1996.0
46.2437,8.302826,Sasso di Gravellona,1208.0
45.86232,8.176691,Monte Stella,1330.0
46.03025,8.322071,Pizzo Lacina,1930.0
45.61162,7.896601,Mont Borrel,2258.0
46.450092,8.3948765,Pizzetta del Corno Gries,2919.0
46.221695,8.283753,Pizzo della Colmine,1622.0
45.86937,8.220849,Cima Lunga,1357.0
45.867985,8.220664,Cima del Nico,1316.0
46.290478,8.203101,Punta delle Caldaie,2853.0
46.288567,8.225046,Punta d'Orogna Orientale,2426.0
46.229656,7.5293336,Crêt du Midi,2332.0
45.50228,7.595325,Monte Canaussa,2492.0
45.582596,7.5879383,Punta Santanel,2722.0
46.01163,8.417072,La Teisa,1688.0
46.041275,8.412717,Cima Loviga,1305.0
46.081223,8.341069,Sasso Miscioi,1516.0
46.067715,8.362082,Pizzo Desen,2071.0
45.85319,8.199124,La Tureggia di Cravagliana,1005.0
45.82428,8.219015,Cima Turletto,630.0
46.07763,7.6997414,Crête Nord de Moming,3862.0
45.563713,7.651643,Tre Denti,2617.0
45.56246,7.6571064,Punta di Pasquere,2463.0
45.573673,7.605735,Mont Facebelle,2655.0
45.567574,7.6483417,Mont Arbeuil,2584.0
45.5559,7.708634,Punta Moriondo,2442.0
45.556087,7.699271,Cima Andelmel,2578.0
45.559437,7.7160497,Ponton del Camoscio,2498.0
45.59027,7.5593157,Bec Pragelas,2909.0
45.575214,7.632503,Mont de la Fricolla,2675.0
45.58695,7.546647,Cime Beccher,2940.0
45.59248,7.6016264,Pointe Vorea,2542.0
45.581787,7.581915,Mont Noir,2736.0
45.593903,7.5622454,Bec de Pendente,2825.0
45.639908,7.613811,Cime Perche,2380.0
45.849472,8.172562,Monte Mazzucco,1217.0
45.53874,7.643842,Monte Rosso,2187.0
45.5361,7.6388326,Punta di Leitusa,2236.0
45.534046,7.6153193,Cima d'Arlens,2575.0
45.55144,7.605273,Punta Giassetto,2546.0
45.5417,7.6142044,Cima di Candelle,2555.0
45.551758,7.6125073,Punta della Stamberna,2455.0
46.30464,8.497081,Pizzo Bombögn,2331.0
45.959694,7.5451856,Punta di Tsa de Tsan,3292.0
45.95415,7.6995034,Furgghorn,3451.0
45.970577,7.6132197,Punta Bianca,3918.0
45.97134,7.6159716,Punta Carrel,3841.0
45.97222,7.620369,Punta Maria Cristina,3704.0
45.97131,7.6436596,Testa del Leone,3715.0
45.971302,7.6170015,Punta Maquignaz,3801.0
45.5977,7.832953,Monte Perassone,1799.0
45.648914,7.931477,Punta Lej Long,2386.0
46.41435,8.080203,Bettmerhorn,2857.0
45.65092,7.509179,Bec de Viot,3051.0
45.780502,7.501168,Mont Auder,1933.0
45.80894,7.5350814,Mont de la Fenêtre,2304.0
45.902943,7.531396,Monte Charvin,2888.0
45.88694,7.5266757,Mont Arpettaz,3235.0
45.882153,7.5240254,Punta Chanoux,3250.0
45.867043,7.5766077,Monte d'Ersaz,2787.0
45.846954,7.780227,Bloabhóre,2912.0
45.87275,7.5795956,Monte Saleron,2823.0
45.876167,7.781088,Punta Bettolina,2996.0
45.87562,7.752107,Palon di Résy,2673.0
45.61417,7.621061,Bec de Monpey,1985.0
45.61445,7.628504,Bec Colinas,1751.0
45.608986,7.6000953,Pointe Champchévry,2213.0
45.894985,8.204384,Garibaldi,1855.0
45.56377,7.6134944,Cit Pontalonet,2616.0
45.565147,7.618722,Punta Grand,2626.0
45.62785,7.6760974,Pointe de Bechet,1917.0
45.634644,7.6470423,Mont Dandace,1869.0
45.543053,7.732303,Punta Cavalcurt,2352.0
45.547222,7.7093043,Bric della Miassa,1832.0
45.899204,8.219915,Cima di Rondo,1980.0
45.592175,7.654509,Bec Raty,1903.0
45.578064,7.6450915,Mont Blanchet,2558.0
45.584465,7.661455,Pointe Veraz,2230.5
45.579815,7.6534724,Mont de la Corna,2398.0
45.597958,7.716297,Tete Toine,1656.0
45.588093,7.71344,Cime Cocore,2142.0
46.087788,8.3706045,Tignolino di Trontano,2210.0
46.026054,8.386254,Cima della Quana,2020.0
45.666374,7.733752,Cima Granlà,1899.0
45.581882,7.539393,Cima delle Fontane,3066.0
45.58289,7.561784,Cima del Rospo,2737.0
45.573013,7.7330427,Mont Bo,2027.0
45.573902,7.582428,Punta di Belvedere,2494.0
46.094944,8.428448,il Castello,1870.0
45.774364,8.246852,Cima Solivello,878.0
45.795914,8.1571045,Becco della Finestra,1583.0
45.7969,8.156641,Ciarun,1555.0
45.62946,8.005241,Monte Cucco,1515.0
45.765465,7.896455,Punta Pater,2414.0
45.85111,7.6241803,Monte Charvaz,2257.0
45.81532,7.571675,Monte Chatelard,1844.0
45.94791,7.9324245,Punta Battisti,2754.0
45.81127,7.856994,Corno Carro,3026.0
45.80638,7.8490334,Monte Rezza,2830.0
45.84013,7.83279,Punta Jolanda,2238.0
45.78474,7.8404546,Punta della Bandiera,2470.0
45.781303,7.8386545,Punta Schilte,2180.0
45.820972,7.800454,Monte Tijatz,2887.0
45.82091,7.8044453,Punta Miravalle,2580.0
46.161373,7.673167,Wängerhorn,3096.0
45.78479,8.161208,Punta del Ghiaccio,1709.0
45.79429,8.156222,Gulia Boera,1635.0
45.78837,8.15928,Colma Ruschera,1654.0
46.092865,8.415507,Sasso Bianco,2220.0
46.086544,8.425426,Costa Nera,2008.0
45.768417,8.139298,Denti della Foscala,1713.0
45.899487,7.597191,Mont Seriola,2752.0
46.332714,8.093925,Bättlihorn (Süd),2991.0
45.840416,8.02552,Le Torrette,2318.0
45.84626,8.000429,Punta di Balmanera,2335.0
45.845566,8.007278,Punta delle Ratte,2357.0
46.014065,8.478699,Monte Spigo,1439.0
45.83083,7.995685,Punta Parete,2238.0
46.49839,8.383592,Galmihorn,3001.0
46.001312,8.42727,Punta dal Piciocch,1505.0
46.033367,8.236372,Testa del Frate,1258.0
46.028915,8.178148,La Colma,1747.0
46.495842,7.7615237,Blüemlisalp Rothorn,3297.0
46.005833,8.421175,Pizzo delle Tre Croci,1638.0
46.330666,8.283212,Montorfano,1937.0
46.327435,8.320079,Cima del Lago,2611.0
46.36105,8.284572,Pizzo di Pianboglio,2730.0
46.399883,8.364256,Punta dei Camosci,2928.0
45.916748,8.085858,Cima la Mattolina,2430.0
46.091675,8.222217,Punta di Barzasca,1831.0
45.673527,7.507982,Mont d'Orgère,2097.0
45.727814,7.6410236,Mont Avi,1117.0
45.71718,7.6587744,Mont Ouille,1072.0
45.938423,7.521708,Pointe Merendi,3334.0
45.926136,7.585287,Tour de Créton,3584.0
45.768368,7.5851398,Puy de Saint-Evence,1674.0
45.931767,7.5864406,Poite des Petites Murailles,3566.0
45.845562,7.7516966,Mont de Saler,2313.0
45.85321,7.7561383,Mont Cavallo,2467.0
45.71237,7.852392,Weiss Weib,2517.0
45.772903,7.687313,Cime Botta,2041.5
45.764317,7.6998014,Mont de Fremies,1856.0
45.765747,7.857059,Tallespetz,2451.0
45.74027,7.876371,Tallespetz,2527.0
46.35006,7.52626,Petit Mont Bonvin,2412.0
45.587635,7.599872,Punta Chelett,2535.0
45.576763,7.601353,Punta Santanel,2585.0
45.949482,7.576242,Tête des Roèses,3216.0
45.94995,7.601439,Punta dei Cors,3849.0
45.838318,7.7822447,Bec Forcü,3106.0
45.775978,8.177773,Patrìc,1693.0
45.79366,8.16591,Cima Costa Portone,1353.0
45.842686,8.229331,Tono di Nona,1248.0
45.843773,8.230636,Tono Piatto,1179.0
45.848553,8.234096,Tono della Selva,1015.0
45.846043,8.232428,Tono dei Turchi,1145.0
45.879036,8.201439,Turio,1126.0
45.875885,8.199086,Punta del Miarel,1283.0
46.007572,8.418819,Pizzo Sautì,1677.0
45.983604,7.784337,Gornergrat,3100.0
45.837395,7.994283,Cima del Costone,2387.0
45.77262,7.881757,Punta del Solivaccio,2887.0
46.27794,7.593419,Gorwetschgrat,2025.0
45.912758,7.9888105,Il Vè,2606.0
46.284615,8.213483,Punta d'Orogna,2474.0
46.23802,8.057227,Hübschhorn,3192.0
46.39593,7.9375935,Gänderhorn,3294.0
45.752213,7.929277,Colma del Lago,2716.0
45.994995,8.071097,Marigal,2601.0
45.9312,8.032628,Cima delle Pisse,2572.0
46.476948,7.7238703,Bim spitze Stei,2975.0
46.256306,8.402895,Pizzo del Lago di Matogno,2513.0
46.423508,7.7793694,Spalihorn,2456.0
45.721283,7.828263,Marienhorn,2766.0
45.850548,7.8437715,Corno del Lago Gabiet,2581.0
45.949306,7.517886,Pointe du Laurier Noir,3373.0
45.936993,7.5450788,Becca des Noires,2973.0
45.942825,7.5386195,Pointes des Noires,3355.0
45.94564,7.597199,Punta Giordano,3878.0
45.935467,7.57576,Grande Tête de Bella Tsa,2917.0
45.94184,7.5915637,Becca de Guin,3802.0
45.72727,8.191439,Massola,922.0
45.73381,8.165664,Masso della Farina,1712.0
45.747665,8.159415,Il Troc,1369.0
45.762184,8.164327,Cima di Celogn,1671.0
45.74362,8.174958,La Scaia,1448.0
45.886738,8.171979,Monte Selva,1251.0
46.443645,8.007803,Sattelhorn,3724.0
45.877186,8.195789,Turio,1372.0
45.97856,8.13502,Motto del Balmo,1069.0
45.536266,7.7329373,Becchi di Bertolino,2193.0
45.540592,7.73283,Bec dei Binej,2268.0
45.875935,8.22249,Sasso Alto,1536.0
45.970287,8.170839,Ul ZüKar,1860.0
45.956604,8.3298235,Cima Vineggio,1773.0
45.746063,8.152375,Piramide del Molinaccio,1486.0
45.882893,8.2228775,Balma Rossa,1711.0
45.879803,8.224428,Preia Rossa,1605.0
45.87226,8.211365,La Schiena,1139.0
45.866673,8.223664,Or dal Feru,1243.0
46.0264,8.120111,Mottone o Monte Cigina,2422.0
45.766296,7.918844,La Ciapej,2645.0
45.781357,7.9279375,La Busa,2662.0
45.824642,7.914497,Costa Balmone,2534.0
46.38006,8.495851,Pizzo Solögna,2697.0
46.305508,8.481397,Grosshorn,2149.0
46.301323,8.473602,Sasso Rosso,2177.0
46.302208,8.469011,Kleinhorn,2171.0
46.364162,8.483734,Madone di Formazöö,2510.0
45.861954,7.706653,Palon di Nana,2764.0
45.93076,8.10741,Spiz Becco,2043.0
46.25271,8.499303,Pianca,2377.0
45.923203,8.0912,Ul Pasctròn,2355.0
45.929863,8.07396,Cimonetto,2494.0
46.285187,8.101179,Spitzhörnli,2606.0
46.31465,8.113896,Oberblatthorn,2756.0
46.33429,8.157946,Meiggerhorn,2338.0
46.323364,8.145311,Witentir,2450.0
45.553104,7.674691,Punta Vallera,2435.0
46.45209,7.5194917,Hüendersädel,2031.0
45.952854,8.16806,Crus dul Jacam,1991.0
45.955315,8.166704,Piz di Galìn o Cima Jacumin,1963.0
45.781555,8.190553,Galerno,1778.0
46.094643,8.180336,Cima Camughera,2249.0
45.792603,8.217792,Cima di Bracco,1478.0
46.26921,8.212116,Pizzo della Sella,2464.0
45.80863,8.214005,Berra,1106.0
45.861862,8.382981,Monte Zuoli,501.0
46.44325,8.392484,Punta del Lago Brunni,2810.0
46.44586,8.411532,Torre Mutt,2650.0
46.395145,8.3876295,Punta di Balma Rossa,2818.0
46.405014,8.39242,Punta Innominata,2531.0
46.40044,8.390753,Zucco di Balma Rossa,2640.0
46.387253,8.396051,Nackberg,2566.0
45.522514,7.601962,La Montaleine,2527.0
45.521774,7.610413,Monte Gojassa,2674.0
45.527443,7.5835614,Cima La Rocco,2270.0
45.91498,8.471946,Monte Camoscio,890.0
45.75028,8.137074,Prinai,1911.0
45.76033,8.164883,Dente della Garavanna,1590.0
45.54405,7.570195,Cima Brenvetto,1802.0
45.520985,7.5665812,Punta Vallon,1861.0
46.442013,8.465468,Pizzo Fiorina SüdGipfel,2885.0
45.531116,7.786119,La Cima,1707.0
45.921295,8.230348,Cima Penninetto,2045.0
45.916374,8.236058,Pizzo del Crac,2060.0
45.9224,8.222259,Gratischer,2023.0
45.993908,8.458012,Il Pizzone,1055.0
45.99211,8.039537,Cresta di Capia,2325.0
46.347504,8.436717,Krampa,1715.0
45.93208,8.071605,Cimone d'Olocchia,2488.0
46.089947,8.229261,Moncucco,1899.0
46.20246,8.092106,Rothorn,2514.0
46.213158,8.069415,Glatthorn,2582.0
46.212555,8.084687,Chellihorn,2934.0
46.218197,8.081294,Chesselhorn,2981.0
46.356647,8.138693,Breithorn,2599.0
46.043564,8.444923,Corno del Pedum,2032.0
46.204384,7.529031,Sex de la Brinta,2693.0
46.097424,7.561261,Cherra Neire,2985.0
46.06325,7.9206114,Hinter Allalin,3330.0
46.4257,7.7407985,Kleinhockenhorn,3161.0
45.87392,8.369911,Monte Gioco,930.0
46.05831,7.71487,Unter Äschhorn,3617.0
46.06056,7.7076745,Ober Äschhorn,3668.0
46.05398,7.7222056,Furgghorn,3391.0
45.955605,8.302537,Croce del Campo,1867.0
45.953762,8.232969,Pizzo delle Rossole,2249.0
46.407776,7.972491,Hülsenhorn,3165.0
46.31099,8.341722,Loccia Lunga,2381.0
45.962185,8.308116,Motto Rondo,1939.0
46.015285,7.995451,Spähnhörner,3146.0
46.45305,7.84452,Chrindelspitza,3016.0
46.35818,7.8532352,Chrütighorn,3020.0
46.435318,7.7868943,Tennbachhorn,3013.0
46.42875,7.95638,Unterer Torberg,3023.0
46.450672,8.329759,Ritzhörner,3046.0
46.365242,7.817977,Jegihorn,3077.0
46.141293,7.546995,Diablon,3053.0
46.411564,7.8614416,Chiehorn,3054.0
46.37315,7.859408,Tieregghorn,3072.0
46.18665,7.6589155,Hirsihorn,3077.0
46.451416,7.8168445,Tellispitza,3081.0
46.020824,7.7975445,Unterrothorn,3103.0
46.363075,7.7916603,Wannihorn,3116.0
46.469017,7.911618,Jegichnubel,3124.0
46.44104,7.968709,Distelberg,3127.0
46.389137,7.9087143,Herdhorn,3200.0
46.36739,7.7930393,Strahlhorn,3194.0
46.375683,7.7959533,Chastlerhorn,3185.0
46.370636,7.81414,Jolihorn,3201.0
46.373867,7.8145366,Gletscherhorn,3222.0
46.48621,7.8501267,Wätterhoren,3233.0
46.04253,7.80279,Bösentrift,3248.0
46.369755,7.7931867,Adlerspitza,3244.0
46.433075,7.9558997,Mittlerer Torberg,3240.0
46.43514,7.955571,Oberer Torberg,3324.0
46.434895,8.036611,Rothorn,3271.0
46.396755,7.84051,Kleines Nesthorn,3335.0
46.093838,7.7431297,Wisse Schijen,3369.0
46.483322,7.890997,Zuckerstock,3383.0
46.40512,7.860148,Älwe Rigg,3381.0
45.83334,8.4095335,Monte Barro,641.0
46.477905,7.8435006,Kleines Tschingelhorn,3494.0
46.497845,8.1659,Wasenhorn,3447.0
46.47872,8.103542,Wannenzwillinge,3480.0
46.439537,7.9535594,Südliches Wysshorn,3481.0
46.44321,7.95434,Wysshorn,3545.0
46.00193,7.6018987,Wandfluehorn,3589.0
46.41485,7.884682,Tyfelsgrat,3621.0
46.47964,7.9493804,Anuchnubel,3589.0
46.446053,7.953563,Nördliches Wysshorn,3625.0
46.02876,7.6499047,Hohwänghorn,3671.0
46.033325,7.6765094,Mittler Gabelhorn,3685.0
46.475792,7.8751025,Kleines Breithorn,3654.0
46.455566,7.9490614,Distlighorn,3723.0
46.057312,7.684578,Pointe du Mountet,3839.0
46.07276,7.695203,Crête Sud de Moming,3963.0
45.963696,8.331276,Zùcaril,1404.0
46.445892,8.47068,Pizzo dei Matörgn,2904.0
46.025585,8.137949,Punta della Cinquegna,2275.0
46.298428,8.435467,Tschörten - Stupa,2441.0
45.867203,8.174781,Giavinà,1373.0
46.270477,8.094681,Tunnelspitz,2902.0
45.828033,8.270073,Cima della Bonda,919.0
46.34805,7.78482,Chistehorn,2787.0
46.206528,7.6682987,Gälus Häupt,2917.0
46.42182,7.750793,Schilthorn,2788.0
46.27547,8.084805,Isenwegg,2714.0
46.32743,8.078409,Chleine Huwetz,2837.0
45.979378,7.831883,Stockchnubel,3047.0
46.358192,7.8162103,Grosshorn,2995.0
46.355312,7.5589094,Gitzitotz,2495.0
45.9859,7.7443876,Gagenhaupt,2568.0
46.351364,7.785959,Üssers Läghorn,2815.0
46.478756,8.044957,Drittes Dreieck,2952.0
46.487682,8.03564,Viertes Dreieck,3016.0
46.488853,7.6547217,Hellhore,1792.0
46.467598,7.546997,Höchsthorn,1912.0
46.353138,7.7853723,Inners Läghorn,2878.0
46.400608,7.933233,Gries Stockji,3023.0
46.41731,7.7460194,Schwarzi Simmla,2612.0
46.2741,8.059633,Chastelegga,2270.0
46.379906,7.6871095,Klein Torrenthorn,2996.0
46.354977,7.7846956,Turelli,2905.0
46.430305,7.7721257,Stieltihorn,2750.0
46.485336,8.325002,Chietalstock,2328.0
46.06516,7.751279,Getschung,2863.0
46.4309,7.892136,Dischlighorn,2588.0
46.18258,7.7169447,Brändjispitz,2852.0
46.235348,7.681785,Tällispitze,2862.0
46.433094,7.5920367,Chindbettihore,2692.0
46.43925,8.028276,Zenbächenhorn,3385.0
46.473812,8.100592,Senfspitze,3353.0
46.336006,8.106174,Saflischhorli,2843.0
46.0531,7.5710006,La Maya,2867.0
46.477356,8.123293,Distelspitz,3071.0
46.44217,7.6718173,Obers Tatelishore,2961.0
46.426594,8.092717,Fiescherhorli,2893.0
46.34868,7.8515434,Chlys Öugstchummuhorn,2881.0
46.136585,7.5567355,La Madeleine,2776.0
46.421448,8.277127,Bockbiel,2506.0
46.39916,7.7285843,Uf Fersyn,2607.0
46.006905,7.6370487,Unterer Blausatz,3066.0
46.48969,8.33871,Unnerchietalnolle,2262.0
46.467842,8.054976,Erstes Dreieck,2995.0
46.417393,7.7714615,Arbächnubel,2239.0
46.38827,8.279281,Mittlebärg,2537.0
46.43583,7.8021903,Tellihorn,2662.0
46.42998,8.037699,Sattelhorn,2954.0
46.257122,7.8434577,Goldbiel,2125.0
46.242725,7.6729107,Chessihorn,2679.0
46.393265,7.9091268,Grüebhorn,3192.0
46.206814,7.678315,Meidhoru,2876.0
46.391193,7.710692,Schwarzhorn,2931.0
46.392445,8.045384,Sparrhorn,2289.0
46.390766,7.7918525,Wilerchnubel,2224.0
46.452312,8.384753,Kleines Grieshorn,2928.0
46.00827,7.8668046,Strahlchnubel,3243.0
46.460323,7.578992,Luser,2182.0
46.34738,7.7961826,Blummhorn,2499.0
46.09222,7.9778676,Unters Horn,2811.0
46.188305,7.5244017,Roc de la Tsa,2911.0
46.15509,7.581162,Pointe de Tsirouc,2777.0
46.240414,7.6193833,Le Rotsé,2632.0
46.46481,8.173543,Honeggerhorn,2728.0
46.16439,7.5381007,Pointe de Lona,2931.0
46.367542,7.8567677,Dübihorn,2983.0
46.432865,7.727866,Burstegge,2423.0
46.37979,7.7769117,Gattunmandli,2450.0
46.050472,7.696804,Eseltschuggen,3359.0
46.35599,7.792978,Mällischhorn,2821.0
46.45475,8.318957,Ritzberge,2861.0
46.229767,7.6709757,Rotighorn,2959.0
46.23923,7.6867676,Pletschuhorn,2750.0
46.44199,7.8297663,Bliejenduspitza,2652.0
46.363506,8.25196,Chollerhorn,2741.0
46.485455,8.394656,Chilchhorn,2789.0
46.237736,7.658292,Runds Horli,2959.0
46.455597,7.574216,Bündihore,2039.0
46.195995,7.623343,Bec de Nava,2668.0
45.996563,7.7335796,Dossen,1954.0
46.350307,7.8511534,Gross Öugstchummuhorn,2923.0
46.488792,7.8837633,Wärmietenhoren,2848.0
46.266743,7.645464,Meretschihorn,2568.0
46.367527,7.56173,Nuseyhorn,2839.0
46.092514,7.751655,Schwarzhörnli,2963.0
46.478,7.6114607,Nünihore,2717.0
46.49308,7.898074,Brunnenhoren,2744.0
46.487164,8.340557,Murmetebärge,2347.0
46.333076,8.077346,Tunetschhore,2620.0
46.473537,8.048427,Zweites Dreieck,2880.0
46.34423,7.86259,Roti Chüe,2475.0
46.473602,7.6162643,Hindere Loner,2928.0
46.366882,8.263251,Seewischhorn,2758.0
46.224964,7.531937,Mont Major,2374.0
46.355335,7.889986,Rots Stockji,2291.0
46.439995,8.291884,Holöüwibiel,2513.0
46.48355,7.7418437,Mittelchnubel,2561.0
46.4707,7.672258,Jegertosse,2157.0
45.885612,7.9857078,Corno di Rima,2122.0
46.090343,7.743758,Wisse Schijen Südgipfel,3264.0
45.85326,7.826853,Stoccohopt,2289.0
46.101,8.149024,Mascia at l'ors,2352.0
46.33904,8.34095,Dossone di Valle,2684.0
45.85552,8.256788,Mazza Fontanelle,1278.0
45.666946,7.9028554,Cima di Marmontana,2403.0
45.890476,8.4441595,Cima Cusio,1360.0
45.891144,8.443515,Cima Delle Guide,1338.0
46.001232,8.483795,Puzzech,929.0
45.634888,7.73659,Corma di Machaby,794.8
