latitude,longitude,name,elevation
-20.494581,146.81184,Mount Cooper,490.0
-20.414154,147.12202,Mount Glenroy,508.0
-19.678734,146.76505,Black Mountain,428.0
-19.608055,146.74529,Flagstone,591.0
-19.662094,147.31345,Kelly Mountain,186.0
-19.554867,146.98662,Sharp Elliot,1183.0
-19.528498,146.9953,Shoulder,1022.0
-20.284399,147.18478,Leichhardt Range,355.0
-19.722597,146.82169,Sait Georges Tree,564.0
-19.713118,146.78893,Mt Ellenvale,678.0
-19.611036,146.677,Ross River Mtn,589.0
