latitude,longitude,name,elevation
-33.02531,147.136,Mount Tilga,329.0
-33.21957,147.3301,Erronwallong Mountain,279.0
-32.62295,146.93327,Mount Susannah,485.0
-32.74927,146.5527,Mount Tallebung,458.0
-32.635906,146.80309,Mount Tinda,399.0
-33.20376,147.44331,Mulguthrie Mountain,313.0
