latitude,longitude,name,elevation
19.791119,105.77193,Núi Mật Sơn,104.0
19.823324,105.739815,Núi Viện Sơn,160.0
19.874247,105.73246,Núi Đọ,158.0
19.72346,105.8967,Núi Trường Lệ,78.0
20.026981,105.79075,Đồi Thung Thi,163.0
19.586857,105.55528,Núi Đầu Lớn,304.0
19.753157,105.56505,Núi Nưa,537.0
20.119673,105.88851,Núi Tam Điệp,185.0
20.328753,106.07638,Núi Gôi,64.0
20.271532,105.86685,Núi Đính,160.0
20.37785,105.88166,Núi Đồng Quyển,300.0
