latitude,longitude,name,elevation
61.3056,152.98099,Заросший,1046.0
61.475994,153.44463,Сосед,1170.0
61.49522,153.31929,Розовая,1166.0
61.36632,153.3874,Старший Брат,1349.0
61.391544,153.36752,Младший Брат,1068.0
60.605637,152.92917,Осадочный,1280.0
