latitude,longitude,name,elevation
-31.083538,145.31184,Mount Booroondara,437.0
-30.690145,144.58742,Campamooka Mountain,144.0
-31.18811,145.3252,Mount Buckwaroon,439.0
-30.86852,144.64731,Mount Edwards,109.0
-30.60427,144.51425,Mulyah Mountain,161.0
-30.756884,144.64342,Pats Sandhill,91.0
-30.631535,145.00285,Rocky Hill,94.0
-31.300232,145.32265,Mount Grenfell,361.0
-31.241829,145.15631,North Gap,352.0
