latitude,longitude,name,elevation
-27.90536,125.53938,Middle Hill,405.0
-27.98707,125.51054,Mount Brown,424.0
-27.62072,126.1545,Point Sandercock,443.0
-27.7037,126.10513,Point Trim,422.0
-27.77087,125.87359,Point Waulfe,430.0
-27.85236,125.6335,Saunders Point,418.0
-27.78171,125.52369,Westwood Bluff,430.0
