latitude,longitude,name,elevation
29.40306,56.814713,لاله زار,4374.0
29.375534,57.18893,سرمشک,4081.0
29.38998,56.74681,کوه شاه,4371.0
29.15869,57.322876,بحرآسمان,3895.0
29.456993,56.966415,پر عشق,3550.0
29.214758,57.14429,بختیاری,2900.0
