latitude,longitude,name,elevation
6.0750666,116.5587,Gunung Kinabalu,4095.2
6.2041054,116.659805,Mount Tambuyukon,2579.0
6.1869774,116.51325,Gunung Nopungguk,1605.0
5.5521517,116.514435,Mount Trusmadi,2642.0
6.039201,116.58577,Maragang Hill,2232.0
