latitude,longitude,name,elevation
60.45569,22.284119,Yliopistonmäki,39.0
60.448784,22.277428,Vartiovuori,51.0
60.415512,22.224588,Hirvensalon alpit,55.0
60.482914,22.259472,Nunnavuori,64.0
60.44691,22.310984,Satulamäki,38.0
60.336563,22.004282,Uutiskuuvanvuori,56.0
60.476242,22.274593,Valkiaisvuori,50.2
60.46083,22.331999,Virmuvuori,49.7
60.422825,22.208368,Pirttivuori,41.7
60.420734,22.20807,Peurakallio,35.2
60.179855,21.828295,Husbergen,60.0
60.49355,22.142391,Kuuanvuori,50.0
60.49056,22.14804,Pikku-Kuuanvuori,50.0
60.46499,22.12827,Temppelivuori,35.0
60.4982,22.206202,Käärmekallio,55.0
60.446457,22.269226,Samppalinna,39.0
60.404667,22.377731,Veitenmäki,53.2
60.135323,21.78667,Vargberget,46.1
60.4818,22.336048,Pitkäsaarenmäki,45.0
60.477386,22.356915,Kieterinmäki,55.4
60.40185,22.49823,Pyhävuori,49.0
60.41756,22.47296,Rojolanmäki,48.0
60.48059,22.302813,Prusin Linnasmäki,41.8
60.40605,22.465572,Kappelinmäki,58.0
60.458546,21.837029,Munavuori,40.0
60.456932,21.833084,Kaasavuori,50.0
60.466427,21.824112,Myllykallio,35.0
60.455555,22.224627,Muhkurinmäki,27.2
60.454945,22.355745,Varisvuori,63.8
60.447216,22.332647,Pääskyvuori,61.0
60.45492,22.23848,Härkämäki,27.9
60.437786,22.248808,Vilkkilänmäki,31.6
60.462646,22.346125,Säkömäki,47.0
60.465153,21.648016,Pyytinvuori,45.0
60.489544,22.273338,Runosmäki,58.1
60.483875,22.27646,Pallivaha,55.4
60.491734,22.28329,Orjasmäki,54.5
60.490402,22.291513,Munttismäki,46.1
60.416878,22.236956,Killivuori,47.7
60.479446,22.30964,Hamaronvuori,46.2
60.479496,22.318136,Korkiakallio,51.1
60.430195,22.314459,Skanssinmäki,48.8
60.420044,22.290895,Pisuvuori,33.0
60.47043,22.334003,Pähkinämäki,45.0
60.296986,21.721447,Haukkavuori,40.0
60.428173,22.281702,Luolavuori,64.4
60.470764,22.250023,Ruohomäki,36.5
60.471645,22.242834,Kalmasvuori,51.0
60.477142,22.338333,Häämäki,44.4
60.48054,22.330027,Kynnysmäki,24.3
60.44306,22.317987,Mikkolanmäki,47.7
60.465115,22.314787,Virnamäki,34.1
60.4339,22.236988,Korppolaismäki,36.0
60.443108,22.243317,Kakolanmäki,42.0
60.45239,22.363443,Erovuori,59.4
60.459038,22.344383,Vainuvuori,51.0
60.150223,21.906229,Smörasken,45.0
60.444347,22.136017,Mikkolanvuori,39.3
60.4686,22.251684,Pirunmäki,43.3
60.44399,22.243134,Korkeavuori,43.0
60.440895,22.287624,Kurjenmäki,33.2
60.45821,22.296337,Kuuvuori,46.0
60.212048,22.050545,Kasberget,65.4
60.067272,22.057934,Högskär,25.0
60.058083,22.008749,Marskärs berget,25.0
60.450176,22.284298,Hirsipuumäki,27.7
60.44867,22.282124,Kerttulinmäki,33.0
60.436485,22.251717,Tonttumäki,30.0
60.441765,22.254704,Sotalaistenmäki,26.0
60.441246,22.260773,Velkaistenmäki,30.0
60.456287,22.273872,Parkinmäki,23.0
60.452778,22.290932,Kiinamyllynmäki,34.0
60.42225,22.339193,Korsuvuori,52.7
60.47296,22.197344,Huhkonkallio,32.0
60.452274,22.242092,Myllymäki,19.0
60.41136,22.22806,Hamppuvuori,31.8
60.42085,22.285732,Ilpoistenmäki,34.5
60.4168,22.288357,Pulkkavuori,46.0
60.411076,22.279488,Laukkavuori,31.3
60.412796,22.278261,Kivikkomäki,21.9
60.40994,22.271152,Kuusimäki,35.5
60.40992,22.244379,Vaahemäki,16.5
60.406513,22.249062,Sorttamäki,25.7
60.386143,22.275877,Kulhon linnavuori,38.4
60.406044,22.237036,Halvarinmäki,18.3
60.42043,22.23056,Taipaleenmäki,31.9
60.413975,22.210522,Myllyvuori,32.0
60.42856,22.21879,Retivuori,32.3
60.42459,22.213575,Paltuksenmäki,35.5
60.4163,22.167023,Seulunmäki,43.9
60.40907,22.152477,Kaasavuori,38.4
60.458157,22.204239,Jyrkkälänmäki,35.3
60.465473,22.194065,Myllymäki,27.3
60.463833,22.196833,Härkämäki,27.9
60.458397,22.24991,Kähärinmäki,30.0
60.461334,22.258238,Tikkumäki,29.0
60.458103,22.254753,Juhannuskukkula,35.8
60.461624,22.272816,Ylikonsanmäki,28.0
60.464737,22.279764,Raunistulanmäki,30.0
60.466694,22.281092,Virusmäki,26.1
60.46624,22.271378,Kaniikinmäki,31.4
60.469902,22.271967,Laihasmäki,40.4
60.468258,22.262379,Laureninmäki,38.3
60.472385,22.258404,Kukkavuori,41.9
60.48207,22.344236,Pyörämäki,27.0
60.477192,22.349192,Linnavuori,41.4
60.463448,22.325333,Ristimäki,39.0
60.46673,22.35955,Muikunvuori,65.1
60.445686,22.349129,Marjavuori,49.6
60.441025,22.330023,Laukkavuori,46.4
60.4547,22.299936,Viinamäki,39.0
60.42949,22.359587,Niinisvuori,49.7
60.426716,22.37108,Valkokallio,52.0
60.434185,22.260706,Pajamäki,22.0
60.21978,22.08749,Kalvbergen,62.0
60.428627,22.260618,Puistomäki,43.5
60.422577,22.256563,Susikallio,30.8
60.36318,22.132141,Turkukallio,42.5
60.36055,22.134645,Pirunvuori,36.6
60.379383,22.132994,Kromovuori,24.1
60.38035,22.169268,Apajankallio,45.3
60.37356,22.188631,Käyrämäki,37.8
60.377014,22.140142,Rakuunavuori,34.0
60.4994,22.300644,Urusvuori,45.4
60.493492,22.32294,Yrjönmäki,35.1
60.491253,22.333254,Vaistenmäki,48.1
60.4871,22.363739,Myllymäki,34.7
60.496296,22.342005,Kullanmäki,36.1
60.461826,22.213892,Mikkolanmäki,37.0
60.467724,22.204582,Varesmäki,23.7
60.470253,22.203224,Pinomäki,27.1
60.46165,22.240208,Villamäki,26.0
60.4566,22.241661,Kähärinmäki,29.0
60.390575,22.196089,Harkkionmäki,32.5
60.39317,22.221289,Viilikellarinmäki,24.2
60.38714,22.212795,Isohaarlanmäki,30.4
60.388416,22.22188,Merituulenmäki,23.0
60.400135,22.264372,Kaistarmäki,25.5
60.405003,22.220493,Sommelonmäki,27.1
60.414246,22.205572,Toijaistenmäki,46.7
60.393196,22.235094,Vastmäki,36.9
60.43746,22.27141,Harakkkakallio,37.3
60.435665,22.266134,Mäntymäki,35.0
60.44079,22.293764,Vasaramäki,37.0
60.412132,22.311708,Kiialanmäki,23.0
60.371773,22.32377,Torpinmäki,41.0
60.37465,22.33227,Palokallio,58.0
60.37304,22.375093,Laumanni,46.5
60.3825,22.36625,Kliistperi,59.3
60.380745,22.385267,Pappilanmäki,38.0
60.389336,22.39752,Rauhalankallio,50.0
60.3931,22.38989,Holokallio,40.0
60.38977,22.387861,Alhonmäki,33.0
60.393726,22.431223,Juurvalli,54.0
60.44162,22.342972,Hurttivuori,48.0
