latitude,longitude,name,elevation
37.36691,126.89237,수암봉,398.0
37.358154,126.89789,꼬깔봉,449.0
37.358627,126.905495,수리봉,428.0
37.35995,126.90721,슬기봉,419.0
37.34775,126.887924,너구리산,309.0
37.37572,126.8952,319봉,320.0
37.413948,127.01334,매봉,369.0
37.40409,127.04377,국사봉,540.0
37.413647,127.046684,이수봉,558.0
37.428017,127.04364,매봉,582.0
37.439186,127.0358,옥녀봉,370.0
37.43987,126.95875,학바위 국기봉,521.0
37.43108,126.929634,학우봉,344.3
37.44514,126.96424,관악산,632.0
37.379467,127.031235,우담산(발화산),427.91
37.36872,127.0271,바라산,428.0
37.353554,127.017006,백운산,567.0
37.34497,127.03451,광교산,582.0
37.328293,127.03808,형제봉,443.0
37.370422,126.9788,모락산,385.0
37.44068,126.86616,구름산,251.99
37.427994,126.8673,가학산,220.0
37.491055,127.25919,용마산,605.0
37.46369,127.2381,노적산,376.96
37.48,127.17606,청량산,497.0
37.445084,127.19564,망덕산(왕기봉),480.0
36.83664,127.12602,노태산,141.0
36.880783,127.088776,용암산,149.6
36.862534,127.086914,용와산,239.2
36.869736,127.13374,옥녀봉,98.5
36.85284,127.03008,둔덕산,226.2
37.25842,127.0837,청명산,191.9
36.837452,127.09766,금마산,110.2
36.72062,127.08064,태화산,460.5
36.74094,127.029686,설화산,440.0
36.7083,127.05848,망경산,600.8
36.687557,127.02757,광덕산,700.0
36.86183,127.06642,연암산,258.9
36.86259,127.01815,국사봉,223.0
36.77942,127.18712,취암산,321.0
36.818714,127.20396,태조봉,420.0
36.96173,127.25491,진령봉,123.0
37.46893,127.06122,구룡산,306.0
37.474823,127.07901,대모산,293.0
37.435913,126.93937,삼성산,480.9
37.473667,127.01005,우면산,293.0
37.421898,127.04322,청계산,618.0
37.49282,126.93986,국사봉,180.9
37.4725,126.60255,월미산,108.0
37.422756,127.04131,망경대,621.0
37.280888,127.41302,설봉산,394.0
37.44515,127.08821,인능산,374.0
37.305534,127.148445,법화산,383.2
36.792187,127.28105,은석산,455.0
37.405754,126.66151,봉재산,104.0
36.50933,127.297844,전월산,260.0
36.51685,127.27754,원수산,251.0
37.431538,126.677086,문학산,217.1
37.419178,126.66115,청량산,172.9
36.833946,126.94537,상투봉,300.4
36.561222,127.48202,국사봉,280.0
36.59134,127.45034,망월산,265.0
37.30528,127.09308,소실봉,186.0
37.4781,126.83246,천왕산,144.0
37.476612,126.82965,건지산,131.4
37.190926,126.92112,건달산,336.0
37.15875,126.94485,서봉산,250.3
37.185905,126.70136,봉화산,168.6
37.1961,126.71174,구봉산,158.1
36.618225,127.46397,구룡산,163.6
37.347443,126.928764,삼각점,131.0
36.844517,126.93404,영인산,363.9
37.43336,126.66804,연경산,176.0
36.7981,127.11238,월봉산,133.0
36.81671,127.12418,봉서산,158.0
36.795097,127.13783,일봉산,133.0
36.796734,127.208176,흑성산,519.0
37.218685,126.74442,매봉산,108.6
37.198826,126.83581,무봉산,138.1
37.19691,126.72962,여치산,130.7
37.36848,127.27745,백마산,460.6
37.37038,127.19096,문형산,497.0
36.82846,127.06846,국사봉,154.0
36.83624,127.04566,꾀꼬리산,271.0
36.837223,127.03298,물한산,284.0
37.474285,126.92665,건우봉,140.0
37.48084,126.9357,장군봉,118.5
37.48659,126.84466,개웅산,125.0
37.46534,126.85718,도덕산,201.0
37.285233,126.99886,숙지산,123.0
37.172638,127.28485,문수봉,403.2
37.36361,126.93511,여우산,102.0
37.340466,126.92705,감투봉,185.0
36.671776,126.62434,덕숭산,495.0
37.480595,127.20408,남한산,522.1
37.318798,126.96866,덕성산,160.0
37.216408,126.99563,화산,108.0
37.214653,127.00467,성황산,132.7
37.344425,126.962204,오봉산,205.4
37.47394,126.94512,청룡산,160.0
37.175476,126.72624,청명산,157.1
37.207355,127.15775,무봉산,257.8
37.215652,126.89668,태행산,295.0
37.13847,126.70862,해운산,143.0
37.19668,126.811,고초봉,143.9
37.210735,127.35748,노적봉,143.8
37.20834,127.36251,나비봉,169.0
37.424866,126.87415,서독산,213.0
37.39666,127.15093,매지봉,275.0
37.39559,127.16888,영장산,414.2
37.044163,127.03286,함박산,56.6
37.235863,127.08984,매미산,158.5
37.247158,127.0857,아람산,147.1
36.942047,126.96066,고등산,157.7
37.027565,126.962006,오봉산,68.5
37.015957,126.95822,삼정대산,73.2
37.003574,126.93591,함봉산,69.2
36.942944,126.922226,옥녀봉,83.6
36.932884,126.92746,원기산,50.3
36.930603,126.94972,마안산,133.0
37.37631,126.82549,관무산,206.0
37.37547,126.75687,본향산,109.6
37.41044,126.72945,오봉산,106.1
37.236115,127.131355,보라산,215.0
37.272873,127.07716,덕암산,152.0
37.25497,127.070755,독침산,109.0
37.47633,126.872826,왕재산,35.0
37.28056,127.010086,팔달산,128.0
36.618782,127.25905,오봉산,262.0
36.596497,127.25799,도봉산,107.0
37.22725,127.15999,부아산,402.0
37.272594,127.17294,석성산,470.0
37.257732,127.13158,용뫼산,175.0
37.282997,127.07216,말무덤산,74.0
37.287918,127.17535,선장산,350.0
37.337833,127.0659,성지바위산,288.0
37.336834,127.03177,비로봉,489.0
37.482857,127.202644,벌봉,514.0
37.213894,127.188896,함박산,348.0
37.1771,127.260864,굴암산,345.8
37.17185,127.26905,바래기산,370.5
37.126507,127.32991,구봉산,464.0
37.08719,127.3409,상봉,353.6
37.053524,127.38083,도덕산,365.9
37.0377,127.39314,관해봉,450.0
37.031002,127.38996,칠장산,492.1
37.33337,126.990425,광교산 범봉,240.0
37.111782,127.33337,달기봉,415.0
37.310852,127.06719,응봉,236.0
37.34526,126.90922,무성봉,250.0
37.389008,126.84555,운흥산,204.0
37.311314,127.18573,향수산,457.0
36.706623,126.60832,가야산 가야봉,678.0
37.26068,126.9323,칠보산,239.0
37.27735,127.0947,신갈도시자연공원,168.0
37.457973,126.93846,돌산,236.0
37.447815,126.93098,장군봉,409.0
37.46283,126.97071,선유천 국기봉,319.5
36.643703,126.64928,용봉산,381.0
36.641613,126.6484,투석봉,350.0
36.645924,126.65048,노적봉,350.0
36.648533,126.6499,악귀봉,368.0
37.037193,127.277435,머린골산,260.0
37.0269,127.27896,오봉산(비봉산),229.0
37.051785,127.26895,샛죽바위산,197.0
37.05448,127.33325,보개산,347.0
37.049313,127.34956,곧트나산,278.0
37.09489,127.33176,모래봉,269.0
37.097805,127.31777,큰봉,242.0
37.176544,126.61985,탑재산,67.0
37.31251,126.93004,구봉산,145.3
36.6248,127.288765,노적봉,107.6
36.56892,127.28361,함박산,84.9
36.573116,127.33253,아미산,139.7
36.649136,127.25668,송학산,209.5
36.650383,127.24536,국사봉,267.1
36.685593,127.242516,운주산,459.9
36.651558,127.22447,고장산,197.4
36.64919,127.20387,작성산,338.8
36.63234,127.20337,금성산,424.1
36.616055,127.20411,수디산,378.0
37.372887,126.91395,태을봉,489.0
37.452194,126.77892,소래산,299.6
37.455513,126.76255,관모산,160.8
37.326435,126.968704,망치봉,199.7
37.454266,126.76555,상아산,150.8
37.37711,126.91872,관모봉,430.0
37.46645,126.76588,거마산,210.3
37.471794,126.7783,성주산,216.5
37.07512,127.34001,국사봉,444.5
36.888035,126.98455,고용산,296.0
37.179188,127.072105,필봉,144.0
37.45805,127.18753,검단산,533.0
37.42858,127.272934,칠사산,363.7
37.012142,127.395874,칠현산,516.0
36.998188,127.39715,덕성산,519.0
36.85382,127.342415,만뢰산,611.0
36.96794,127.06057,부용산,43.6
36.544907,127.28391,당산,150.0
37.322514,126.85228,노적봉,143.2
37.373447,127.080826,태봉산,311.0
37.435406,126.65405,노적봉,150.0
37.430202,126.685585,선유봉,189.0
37.442608,126.68764,승학산,123.1
37.287975,126.84058,항가울산,97.0
37.39785,127.470924,대렴봉,418.8
37.35843,127.442444,천덕봉,632.1
37.330925,127.40815,정개산,433.4
37.31655,127.36148,국수봉,423.8
37.292152,127.293686,태화산,641.1
37.29764,127.28163,마구산,595.0
37.32308,127.28111,정광산,552.0
37.32744,127.28234,노고봉,579.1
37.347492,127.28638,발리봉,511.5
37.387394,127.310585,납들기산,228.0
37.4045,127.33387,무갑산,581.0
37.40166,127.3525,뒷골산,490.0
37.41861,127.35875,관산,559.6
37.41576,127.39815,앵자봉,670.2
37.437737,127.42611,양자산,710.2
37.49156,127.356285,해협산,531.0
36.909847,126.631714,왕지산,61.0
36.92295,126.62753,문절미산,46.0
37.352207,127.44879,원적봉,559.2
37.36707,127.2125,두리봉,278.1
37.229717,127.204384,노고봉,209.5
37.276955,126.67457,계명산,140.0
37.453938,127.138016,영장산,193.7
36.93052,127.29662,서운산,548.0
36.530712,127.21983,국사봉,214.6
36.92146,126.701294,팔아산,110.0
37.339226,126.83741,광덕산,209.0
37.48597,127.49267,칼산,62.9
37.458378,126.823044,성심산,95.9
36.75066,127.055145,배방산,361.6
36.85998,126.977356,금산,286.0
37.0694,127.07857,부락산,149.4
37.40755,127.277954,국수봉,281.0
37.05228,127.48937,마이산(망이산),472.0
37.491306,127.444336,백병봉,423.7
36.71785,126.602264,석문봉,656.7
36.7291,126.63355,서원산,473.2
37.469257,126.73363,만수산,201.0
37.48338,126.83208,천왕산,144.0
37.430706,126.8256,양지산,150.9
37.422066,126.829475,봉재산,147.7
37.364986,126.84821,마산,246.1
37.36003,126.79728,군자봉,198.4
37.423683,126.966,철봉,234.0
37.31099,126.88028,성태산,166.0
37.30259,126.910675,나봉산,135.9
37.222874,126.914345,삼봉산,270.5
37.23894,126.62017,벼랑산,64.8
37.254063,126.592896,황금산,143.2
37.384155,127.05469,응달산,263.0
37.387722,127.16442,응달평산,197.6
37.397614,127.18843,서쪽새봉산,181.0
37.41615,127.176765,고불산,333.0
37.44536,127.21366,두리봉,457.2
37.438755,127.215996,봉배산,265.0
37.43126,127.22805,앞산,232.0
37.426247,127.24803,통미산,154.0
37.445526,127.235115,군두레봉,320.0
37.457306,127.24739,청룡봉,261.8
37.484344,127.23071,안산,240.1
37.473133,127.203964,한봉,418.1
37.405266,127.36933,소리봉,610.0
37.390446,127.35192,고댕이산,361.9
37.374344,127.36247,감투봉,380.0
37.367912,127.362366,국수봉,322.7
37.364525,127.35984,다리미봉,313.0
37.32232,127.26601,다래봉,261.0
37.3166,127.28247,벌덕산,475.0
37.46409,127.23192,약사산,415.9
37.46482,127.21857,약수산,397.0
37.413067,127.222115,국수봉,269.5
37.336735,127.185165,문수산,221.2
37.310352,127.20268,샘배봉,301.2
37.29968,127.21139,시루봉,234.6
37.182472,127.16936,함봉산,306.3
37.17607,127.16392,심산,208.6
37.164753,127.19184,달봉산,206.9
37.153908,127.24576,시궁산,513.9
37.134125,127.25045,갈미봉,332.1
37.116978,127.34673,정배산,282.9
37.118614,127.368195,조비산,296.3
37.073013,127.35765,뒷산,269.3
37.081173,127.32292,감투봉,222.3
36.968254,127.40419,무이산,462.2
36.98861,127.37807,백석봉,395.0
36.98811,127.3723,큰골봉,387.0
36.98844,127.35005,뒷골봉,226.0
37.0161,127.34166,청량산,339.2
36.96804,127.34516,국사봉,311.6
36.893417,127.34714,장군산,441.7
36.94281,127.20634,미양산,91.9
36.851036,127.22683,성거산,573.3
36.84077,127.194855,왕자산,341.6
36.838375,127.19221,벌명당산,257.2
37.189312,126.95281,태봉산,223.8
37.1729,126.95535,상방산,154.4
37.189377,127.02318,양산봉,179.8
37.148544,126.95222,명봉산,170.8
36.72084,127.08697,발장골산,365.0
36.71292,127.10977,청룡산,149.2
36.69826,127.077415,촛대봉,279.6
36.67805,127.020996,서귀봉,581.0
36.698933,126.99479,되박산,275.0
36.679295,126.96769,봉수산,535.2
36.656433,126.96078,천방산,470.1
36.66166,126.95336,지대산,243.2
36.64639,126.955444,부엉산,175.0
36.63009,126.9454,극정봉,421.8
36.622017,126.93579,명우산,367.1
36.62677,126.989944,금계산,574.8
36.623116,126.95875,국정봉,286.4
36.65082,126.789215,팔봉산,207.4
36.596424,126.770615,봉수산,483.0
36.643887,126.623184,홍동산,308.9
36.6063,126.6237,백월산,394.3
36.617825,126.56158,계봉산,202.2
36.57151,126.62292,보개산,274.7
36.556263,126.61375,괴염산,192.5
36.5849,126.77746,내상산,383.9
36.609306,126.98731,법화산,471.0
37.08169,126.83589,남산,107.3
37.083862,126.8411,대남산,90.1
37.10969,126.87806,심술산,104.4
37.129383,126.872856,천덕산,133.4
37.38216,127.3124,국수봉,185.4
37.38448,127.324036,사방산,125.8
37.399597,127.32451,매봉,223.8
36.845467,126.66493,아미산,350.8
36.832363,126.67022,몽산,299.3
36.670666,127.12017,무학산,401.6
36.656296,127.11864,봉수산,366.4
36.618702,127.15017,국사봉,403.4
36.556583,127.15991,천태산,394.1
36.548046,127.18174,시묘산,168.5
36.69644,127.25229,운주산,271.4
36.691574,127.27719,망경대,384.2
36.685028,127.30458,동림산,458.2
36.76367,127.35717,서림산,316.8
36.81529,127.35328,몽각산,398.2
36.930073,127.38228,무제산,574.0
36.904217,127.407845,옥녀봉,455.7
36.8403,127.40699,문안산,415.8
36.83782,127.42118,봉화산,411.7
36.8102,127.46276,양천산,350.9
36.553505,127.44494,봉무산,346.9
36.634216,127.41027,부모산,232.5
36.801163,127.29479,작성산,496.1
36.8177,127.29869,봉황산,427.6
36.818012,127.230385,양달산,237.1
36.727337,127.18963,고려산,307.2
36.57242,127.373695,은적산,205.7
36.574265,127.35776,망덕산,175.7
36.69489,126.88318,안락산,425.0
36.693386,126.875206,토성봉,406.2
36.697224,126.858315,관모산,390.5
36.688446,126.84911,금오산,234.0
36.713856,126.881935,덕봉산,473.9
36.72499,126.89492,도고산,484.7
36.70408,126.8674,용굴봉,414.0
37.300774,127.30099,미역산,613.0
37.04853,127.17488,고성산,298.1
37.06464,127.159134,백련봉,235.1
37.075974,127.174835,천덕산,335.5
37.080162,127.18421,신선봉,322.3
37.029194,127.319176,매봉,180.8
37.0328,127.36526,지치봉,267.0
37.00846,127.374466,갈미봉,279.4
36.908062,127.37798,백석봉,468.1
36.888073,127.28098,부소산,459.0
36.87758,127.25089,위례산,523.0
36.57219,127.35638,학천산,167.5
36.581665,127.41934,팔봉산,297.4
36.520344,127.39454,노고봉,305.5
36.572884,127.43851,용덕산,240.7
37.04745,127.42138,바카프미산,332.8
36.84332,127.38313,태령산,453.0
37.468864,127.057556,국수봉,284.1
36.532795,127.01229,철승산,412.2
37.46587,126.79434,봉매산,128.4
37.25811,127.3152,금박산,424.9
37.28931,127.435005,아리산,180.6
36.548508,127.05895,무성산,613.8
36.508926,127.07332,갈미봉,311.3
36.602787,127.0319,국사봉,592.2
36.60378,127.09771,국사봉,289.9
36.597702,127.15531,국사봉,349.1
37.35855,127.27856,용마봉,502.9
36.589577,127.025116,터골봉,414.0
36.586628,127.03186,부곡봉,529.0
36.58824,126.503975,우심산,169.7
36.59001,126.601814,둑재봉,129.1
36.591545,127.10252,장고개봉,213.0
36.671295,126.659424,수암산,260.1
36.798687,126.60246,비단골산,248.0
36.78112,126.63405,황새바위산,180.0
36.770973,126.66027,월조산,178.0
36.756153,126.62931,수창봉,249.0
36.739674,126.66014,봉명산로,239.0
36.654015,126.57954,삼준산,489.0
36.80404,126.566124,동암산,176.0
36.745728,126.67781,거북미산,79.0
36.76856,126.67139,북통산,151.0
36.799892,126.65061,강터산,151.0
36.813004,126.60938,뒤린골이산,143.0
36.81444,126.6265,웅산,255.0
36.806046,126.638054,동고리봉,221.0
36.80343,126.6404,뒤매봉,191.0
36.799053,126.63505,벼락바위산,181.0
36.730858,126.59543,일락산,521.0
36.7754,126.59376,상왕산,310.0
36.508686,127.35238,부용산,223.0
36.501152,126.79964,비봉산,361.1
36.50594,127.13405,용머리산,36.0
36.51234,126.95734,신풍산,109.0
36.503216,126.51033,두루봉,131.8
36.515587,127.30417,노적산,182.2
36.50694,126.8488,금자봉,369.8
36.51281,127.27233,오산,184.5
36.50437,126.98092,냉정봉,272.0
36.50999,126.943825,봉황산,194.7
36.50839,126.92269,용산,268.1
36.50667,126.97562,정골봉,128.0
36.51564,126.565,갈록산,57.1
36.506832,126.584206,검봉산,133.1
36.51462,127.488365,양성산,300.6
36.50507,127.28229,제실산,46.8
36.504784,126.74034,산성,213.6
36.501602,126.59452,금봉산,62.8
36.535404,126.98304,광덕산,317.7
36.533066,126.526596,왕자산,106.2
36.544792,126.98037,옥녀봉,362.4
36.52869,126.598564,은하봉,224.0
36.5411,126.51111,철마산,65.5
36.54099,127.38548,복두산,281.5
36.53397,126.63805,매성봉,130.4
36.53297,127.28914,등고봉,113.3
36.545517,126.905685,천봉,422.3
36.528107,126.76158,천태산,261.8
36.52597,126.82414,법산,459.1
36.54152,126.80802,시루봉,206.7
36.521515,126.54119,석당산,146.4
36.53477,127.14153,양물직이산,197.1
36.520798,127.35107,안산,110.9
36.530556,126.60603,지기산,324.5
36.538628,127.415535,듬배봉,280.0
36.52613,127.28787,큰목골산,173.5
36.52469,127.42218,갱치뒷산,209.0
36.523663,127.34507,황우산,193.8
36.53053,127.314606,노적산,153.6
36.545254,126.89318,서반봉,395.0
36.53893,127.13115,봉화산,222.5
36.523205,127.47932,작두산,430.1
36.536366,127.32688,출동산,148.9
36.522945,127.35568,용대이산,97.6
36.534412,126.827194,백월산,417.9
36.5404,127.40181,유모산,325.9
36.51785,126.98194,점촌봉,198.0
36.526665,126.89384,국사봉,488.5
36.55976,126.99205,나발봉,417.0
36.55229,127.37876,망산,136.3
36.55081,127.25701,왕자봉,89.0
36.55071,126.89911,천종산,410.0
36.564568,127.41108,말티봉,165.0
36.548527,127.41391,안심봉,287.0
36.562313,126.74814,초롱산,340.1
36.55241,126.5337,청룡산,236.0
36.5474,127.0041,활인봉,417.0
36.561443,126.900345,장학산,380.6
36.565784,126.56323,형산,209.6
36.557804,126.92836,관불산,399.0
36.54742,126.77375,고무레봉,58.0
36.55216,127.17849,가산,82.0
36.57186,127.03044,둥글메,458.0
36.57756,126.64908,남산,221.5
36.57435,127.01289,무위산,349.0
36.57861,126.79376,갈산,56.0
36.56916,127.41264,등등이봉,189.0
36.58228,127.32599,태양,49.5
36.58191,127.02783,아랫말봉,415.0
36.57872,127.43452,공수골봉,248.0
36.58953,127.47925,소바위,109.8
36.58936,126.79309,당산,50.0
36.57771,127.02584,강섬봉,429.0
36.569073,126.59738,태봉산,89.5
36.575672,127.34243,마봉산,173.3
36.5864,127.0081,연종고개,569.0
36.59363,127.33874,석산,58.0
36.58143,126.96459,고모래봉,143.2
36.58187,126.94879,태봉,403.8
36.5772,127.1885,삼각점,325.0
36.588295,126.504,우심산,169.7
36.56965,126.8172,대봉산,145.6
36.57608,127.01647,상원봉,296.0
36.62411,126.88742,국사봉,124.6
36.623547,127.47391,화청봉,142.0
36.61988,127.40886,가포산,102.0
36.61947,126.86402,매봉,91.7
36.61918,126.74333,석산,63.8
36.615673,126.907265,만수봉,243.0
36.61567,126.90726,만수봉,243.0
36.61479,126.93681,절대봉,353.0
36.613457,127.19685,비암산,383.0
36.61373,126.89946,달갈봉,212.0
36.61225,126.72101,철마산,130.8
36.60798,127.406876,가래울봉,86.0
36.60757,127.36888,수타리봉,126.5
36.60741,126.87551,고모래봉,77.0
36.60518,126.87709,상봉,133.7
36.60423,126.53788,삼불산,163.8
36.60382,127.097694,국사봉,289.9
36.600166,127.09513,헌치마봉,341.0
36.60099,126.89031,국사봉,245.4
36.60021,126.87293,산제봉,112.0
36.598763,127.068825,갈미봉,515.6
36.59845,126.84975,박봉,233.2
36.5968,127.10142,공도산,232.0
36.59659,126.92209,노적봉,233.6
36.59642,126.87629,강남봉,153.0
36.81257,126.66374,안산,66.9
36.81098,126.71423,함봉산,98.3
36.80695,126.63083,일산봉,221.5
36.823326,127.18092,왕자산,252.4
36.72515,127.299126,새남산,154.4
36.73314,127.13541,큰골산,63.5
36.72663,127.01227,밤람동산,66.0
36.73653,126.96308,금암산,317.1
36.72923,126.97139,도망산,206.0
36.73552,127.31264,바라박산,208.6
36.71099,126.92999,증만산,151.8
36.73025,127.33938,솔림산,236.1
36.73277,127.341805,거머산,209.8
36.71605,126.97523,장구목산,196.0
36.731915,126.68036,천태산,127.1
36.73371,126.66746,안태미산,166.0
36.735302,127.43611,목령산,229.1
36.72313,126.9452,바람골산,240.5
36.71457,126.96408,옥녀봉,215.5
36.71767,127.10716,백사장,199.0
36.728176,126.60934,옥양봉,621.2
36.7133,127.10063,두루봉,213.3
36.707924,127.28977,매봉산,209.7
36.736485,126.98027,황산,347.8
36.72879,126.922,안산,92.4
36.71065,126.97988,황산,263.5
36.73017,127.44227,안산,104.2
36.72593,126.98915,던바위산,214.0
36.733147,126.91248,인주봉,139.0
36.71406,126.98677,긴골산,186.0
36.736893,127.30647,바라박산,246.8
36.73077,126.54634,오학산,173.6
36.71064,127.355156,돛대산,178.7
36.73032,126.99113,승주골산,293.0
36.63671,127.29608,병마산,160.0
36.63046,127.38529,제전봉,70.0
36.641815,126.731094,닭제산,92.6
36.62997,127.35654,삼봉산,66.6
36.64111,127.34419,옥로봉,52.0
36.64867,126.93039,국수봉,278.0
36.63689,127.38925,금의뒷산,73.0
36.639374,126.54558,봉화산,228.1
36.649,127.0206,태화산,646.3
36.64668,126.99157,매봉,404.1
36.6286,127.1484,삼각점,420.0
36.648773,126.73995,닭재산,165.7
36.63673,127.14045,국수봉,383.3
36.6459,127.0641,섭밭봉,465.0
36.64148,127.07393,사기코빼기산,421.0
36.648518,126.747856,매봉산,173.2
36.63171,127.36659,바위산,56.0
36.632004,127.44691,신율봉,87.0
36.648796,126.73273,수리봉,162.9
36.65077,127.45041,월명산,105.4
36.63731,127.23913,연수봉,294.0
36.6592,127.41222,안산,56.0
36.67648,127.47209,하발산,58.4
36.65479,126.8315,일산봉,175.5
36.663746,127.325485,시루봉,206.4
36.65523,127.09309,아랫개치봉,422.0
36.660576,127.133125,원덕산,276.3
36.65479,127.03388,까막봉,555.0
36.6732,126.70279,동무산,35.3
36.67249,127.45221,중발산,51.0
36.660233,127.420715,동산,71.0
36.65225,127.05051,바지봉,443.0
36.654385,126.71583,당산,52.5
36.665504,126.81027,복산,108.1
36.672737,126.59684,뒷산,449.1
36.66867,127.1035,태봉산,420.0
36.660896,126.70318,소당산,59.2
36.66005,126.9249,실레봉,278.0
36.66401,126.99714,시루봉,271.3
36.66645,126.97449,구만봉,408.0
36.67005,127.43574,뒷산,64.2
36.65938,126.73511,제룡산,103.0
36.6724,126.57027,연암산,440.8
36.70669,126.65383,명월봉,96.0
36.705486,127.32682,망덕산,271.5
36.70554,127.17635,비룡산,249.0
36.70244,126.96523,장군봉,317.9
36.70299,126.93977,월명산,249.0
36.70111,126.65763,월봉,113.4
36.699486,126.620056,원효봉,604.7
36.69879,127.04398,마늘봉,605.0
36.697407,127.39214,상봉산,193.4
36.69621,127.42862,군산,54.8
36.69657,126.58195,신선대,294.1
36.69501,127.02022,철마봉,446.0
36.69521,126.96383,갈매봉,395.2
36.6951,126.9364,독사봉,258.0
36.69365,126.82517,산성산,62.0
36.691963,127.43072,뱀산,50.0
36.68856,127.10405,봉황산,243.3
36.6881,126.92676,옥녀봉,176.6
36.68508,127.07107,매봉,218.7
36.68534,126.59128,상왕산,358.9
36.68217,127.02377,석류봉,659.0
36.68124,127.37765,국사봉,172.0
36.68077,127.36698,석산,144.4
36.67909,127.1345,절악산,207.9
36.67863,127.46767,두루봉,74.2
36.75476,127.15248,용정봉,137.4
36.74733,127.13691,말봉산,122.0
36.76267,126.92938,맹산,158.6
36.747528,127.3327,약사산,245.6
36.756653,127.25598,세성산,219.4
36.73744,126.954,보갑산,316.0
36.74932,126.90623,건배산,53.0
36.75749,127.31114,매봉산,169.6
36.74124,126.903694,가섬배산,99.0
36.74851,126.70168,재물봉,61.0
36.74235,126.70319,남산뫼산,38.0
36.74571,127.46703,장성산,68.0
36.747326,126.79705,용산,74.3
36.75665,127.30996,봉화대,163.5
36.73811,126.55008,당산,129.4
36.746468,126.93571,덕암산,260.5
36.756943,127.13387,태봉산,163.8
36.74105,127.14113,노척봉,64.0
36.74884,127.08676,북덕산,96.0
36.757668,126.61437,수정봉,453.4
36.73877,126.99638,월라산,244.0
36.75676,127.23658,백운산,247.4
36.76244,126.98582,안산,182.9
36.750637,126.66033,별학산,274.0
36.75802,127.16091,정산,176.4
36.75534,126.891914,각골산,61.2
36.75657,126.66423,안산,218.6
36.74909,127.1447,삿갓봉,79.3
36.75762,127.46399,살세미산,189.0
36.7722,127.45143,붕산,207.0
36.76985,127.14517,곽산,45.2
36.775547,126.88149,삼봉산,140.2
36.763214,127.19776,옥자봉,210.2
36.765305,126.94488,뱀산,104.3
36.77173,127.29389,상봉산,234.5
36.78335,127.229,통일염원의 동산,119.0
36.7865,127.40165,국사봉,291.8
36.78529,126.70215,문필봉,75.0
36.77855,126.63847,뱀산,146.0
36.773037,127.1721,말망산,183.7
36.7792,126.57856,태봉산,127.2
36.77097,126.66027,월조산,178.0
36.775906,126.96806,치학산,135.2
36.77714,126.95383,댕강산,73.9
36.78074,126.92651,학성산,184.2
36.78515,126.69419,매봉재산,90.7
36.77342,126.88788,옥녀봉,80.9
36.787315,127.37451,국사봉,171.9
36.769943,127.46039,불당산,246.9
36.80669,126.61373,바두산,150.7
36.80403,126.566154,동암산,176.3
36.80306,127.18445,장태산,321.2
36.803646,127.0748,삼봉산,132.5
36.80349,126.70915,매봉산,71.6
36.802223,126.62425,수리봉,198.8
36.80152,127.34288,광덕산,297.7
36.80196,126.60835,안산,128.4
36.800964,127.4022,환희산,402.6
36.79975,127.24034,은밤산,153.7
36.799435,127.14902,남산,50.8
36.79868,126.59339,옥녀봉,181.9
36.79785,127.19933,상남산,267.0
36.7952,127.19525,상남산,173.0
36.79532,126.6458,던절미산,121.0
36.794495,126.8882,붕엉산,88.0
36.79275,127.18531,불대산,283.0
36.78894,127.325935,동성산,237.9
36.813538,127.03236,방화산,167.6
36.81024,126.59464,부엉산,145.5
36.81969,126.58752,전리산,91.0
36.82433,126.76204,당산,79.2
36.818195,126.73426,둔군봉,137.3
36.808117,127.38876,덕유산,415.6
36.814835,127.07398,호산,133.0
36.81138,127.0162,금병산,131.9
36.82285,126.57847,전말산,86.0
36.824657,126.555305,은봉산,282.3
36.81447,126.55883,안산,149.9
36.8221,127.00039,분당골산,81.9
36.82466,126.55531,은봉산,282.3
36.823227,127.243614,서금재,467.6
36.82038,126.5978,삼박산,132.2
36.815277,126.935844,뒷뫼산,75.3
36.83364,126.77736,버들미산,30.3
36.83702,126.5037,문기산,188.9
36.84723,126.93892,연화봉,336.6
36.84354,127.07071,만리산,81.8
36.82908,127.20863,두리봉,354.2
36.847046,126.55814,봉화산,206.9
36.84635,126.9356,깃대봉,359.9
36.83678,126.93996,닫자봉,273.0
36.82924,127.20004,대머리바위,339.1
36.83532,126.51844,갈산,92.2
36.83017,127.20181,대머리봉,357.0
36.84018,126.55439,봉화대,278.6
36.83324,126.54998,봉화산,300.9
36.830143,126.59401,칼바위산,107.6
36.842445,126.98921,무명산,250.5
36.835445,126.88813,용두산,86.8
36.83046,126.91234,비야산,118.0
36.83698,127.2916,개죽산,453.0
36.844917,126.50649,함박산,158.5
36.83983,126.51784,나분비산,114.0
36.835136,127.16215,큰매산,142.2
36.83504,126.5285,동미산,48.3
36.826756,126.52604,양대산,198.5
36.83867,126.62015,이배산,247.2
36.840763,126.64723,다불산,321.3
36.85963,127.30733,북면산,479.0
36.856655,126.69783,옥피리산,105.0
36.861736,126.66245,복부산,131.0
36.86539,126.88018,딴산,39.8
36.87112,126.99234,개미산,71.0
36.85813,127.35624,갈미봉,567.5
36.859688,126.692314,오봉산,135.2
36.85664,126.70953,부엉배산,80.2
36.86816,126.70236,달걀봉,96.7
36.87186,127.35722,삼형제봉,452.3
36.850906,126.6889,면산,142.0
36.85822,126.6539,왕산,105.9
36.859592,127.056755,연암산,292.7
36.86618,126.95167,홍아산,63.0
36.86902,126.9144,입암산,208.9
36.85115,127.17027,국사봉,170.4
36.87094,127.31092,바랑산,385.0
36.86483,126.99508,금산,251.0
36.866463,126.74701,옥녀봉,81.0
36.85855,127.012276,어라산,123.6
36.857082,126.660904,동산,135.7
36.86287,126.53798,우무산,158.0
36.86636,126.66063,다락산,157.8
36.86287,126.58204,어시산,191.6
36.86684,126.68522,국사봉,147.1
36.855247,126.521614,자모산,255.9
36.89054,126.78844,망객산,63.6
36.89011,126.59636,작은국사봉,130.0
36.88966,126.50699,지름이산,123.0
36.88837,127.00658,승계산,172.7
36.88746,127.17322,대남산,90.7
36.88795,126.52013,애봉재산,106.0
36.88596,127.0608,당게산,82.8
36.88408,126.51541,평풍산,96.6
36.88306,127.48984,성주산,107.7
36.88375,126.52635,큰산,84.1
36.881832,126.80738,야굴산,42.1
36.88015,127.31129,월봉산,435.0
36.88062,126.6379,봉암산,81.0
36.88024,126.52733,진내산,58.0
36.88062,126.5111,절곡산,102.0
36.879196,127.49301,큰아기봉,117.0
36.87957,127.03972,원두산,75.3
36.87975,126.5809,꼬추봉,95.2
36.87792,127.062836,가재산,145.6
36.87723,126.69819,비석미산,86.5
36.87484,126.96854,갈키메기산,62.0
36.87388,126.62823,고재봉산,118.0
36.87236,126.75051,술메봉,49.5
36.916504,126.90949,계두봉,44.1
36.891388,126.67177,매봉산,96.2
36.89302,126.64586,안산,83.6
36.901913,126.58656,승황산,137.3
36.91125,126.81218,석화산,45.7
36.90282,126.53477,세렁골산,114.0
36.90806,127.43954,칼산,89.1
36.90303,127.152374,성산,176.1
36.8993,127.29407,안산,384.5
36.893314,126.95,원랑산,108.5
36.89841,126.57511,구중덕골산,77.0
36.90038,127.45112,성평산,117.0
36.912357,126.536736,한봉산,119.9
36.89168,126.59515,큰국사봉,141.7
36.8933,126.58227,소리재산,107.0
36.90775,127.00008,교룡산,63.0
36.89511,126.59407,앞산,76.9
36.901157,126.72757,철마산,91.8
36.91213,126.588486,삼선산,108.5
36.904305,126.519485,월망산,114.1
36.91584,127.02299,용당산,53.9
36.899784,126.667595,요강산,98.9
36.90814,126.71002,오룡산,113.4
36.900784,127.08814,왕지산,102.3
36.90277,126.69876,국사봉,66.0
36.91675,127.13626,남산,45.6
36.89636,126.70193,고모래산,55.9
36.903973,127.44267,도산,87.0
36.906315,126.63972,가성산,85.9
36.893032,127.16595,남산,109.0
36.89895,126.65721,태백산,96.0
36.90251,127.32994,관인봉,429.5
36.94235,126.97016,고등산,87.8
36.92092,127.14156,월성산,99.0
36.93261,126.573425,큰산,111.7
36.931824,127.18489,방미산,76.7
36.91967,127.40291,장군봉,479.9
36.92371,126.63888,청용산,26.8
36.92252,127.04274,용남산,40.0
36.92624,127.40966,노은실봉,260.0
36.9179,126.66193,배꼽산,86.0
36.93179,126.58885,백두산,77.0
36.93719,127.00174,안산,35.9
36.94248,126.73863,송악산,150.5
36.92439,126.55517,딴산,45.7
36.91993,127.28054,좌상산,357.0
36.9221,126.64728,꼴무봉,48.4
36.94271,126.55194,안대산,59.9
36.938793,126.557686,금미산,71.0
36.92306,126.92588,석화봉,38.0
36.96803,126.84555,솔개바위,35.1
36.94585,126.56711,고대봉,125.0
36.97349,127.44558,장산,194.0
36.95402,126.77843,섬산,23.0
36.9685,126.882,대덕산,58.1
36.968,126.6919,꿩밭재산,48.0
36.94736,127.19112,쟁벌산,33.0
36.96362,126.75806,불알산,42.0
36.974762,126.86447,승배산,51.0
36.94773,126.78532,닭머리산,12.5
36.96933,127.44522,뒷골산,172.5
36.96426,127.38795,고라니봉,411.0
36.94383,127.00633,꽃산,30.8
36.9507,127.45091,미산,148.39
36.9715,126.69458,당목산,42.3
36.95129,126.965,광덕산,56.3
36.95446,126.61291,귀미산,33.8
37.00423,127.20679,큰먹봉,18.9
37.00164,126.50927,야칠맥이산,56.6
37.00063,127.44745,동글봉,178.0
36.99915,126.54646,삼봉산,70.9
36.99826,127.42603,청룡산,175.8
36.99857,127.35582,안산,147.8
36.99857,126.56658,국수봉,58.0
36.99645,126.81131,안산,34.5
36.99605,126.54143,두리봉,47.9
36.9963,126.53553,여우골산,63.0
36.9959,127.14822,퇴미산,57.4
36.99571,126.82044,함박산,30.2
36.99279,127.4487,만승봉,134.0
36.99205,126.52001,등잔거리산,60.0
36.9908,126.54411,노루목산,43.0
36.99073,126.53258,딴섬,25.7
36.98869,127.32096,금강산,241.4
36.98833,126.872444,불당산,59.0
36.988163,126.53978,해양구지산,51.6
36.98848,126.50931,당재산,30.8
36.987244,126.52073,삼각산,107.1
36.9854,127.04022,석봉,30.0
36.98418,126.86091,거산,30.0
36.98448,126.57019,진골산,41.3
36.98049,127.48238,안산,98.4
36.97979,126.53405,당주마섬,51.0
36.97839,126.90223,동합산,46.0
36.977814,127.23604,보체산,121.5
37.01961,126.56755,청룡뿌리산,42.0
37.027515,126.92457,무성산,114.2
37.01942,127.44664,아오실산,208.5
37.03109,127.29142,안산,93.8
37.01692,127.44456,닭모이산,177.0
37.025955,127.40311,제비월산,294.5
37.03236,127.10725,산재봉,88.0
37.027924,127.15289,백운산,189.6
37.02065,127.49171,안산,122.7
37.023148,127.43224,매봉재,243.0
37.02865,127.47035,남산,245.0
37.0327,127.14348,오산,112.1
37.02536,127.14572,돌암산,73.0
37.03347,127.47204,망월산,265.7
37.03528,127.36018,달보산,180.0
37.03385,127.46947,죽절골앞산,272.0
37.02517,127.23116,대덕산,181.3
37.032837,126.83542,농뿌리산,39.5
37.01919,126.8667,무수산,60.0
37.02045,127.45753,백운산,345.6
37.02955,127.306694,돌섯산,166.5
37.01107,127.44669,매화산,226.0
37.03552,127.474,갈구리산,193.0
37.01473,127.44265,용머리산,131.0
37.03499,126.99067,육자봉,61.0
37.052826,127.235886,대덕산,112.0
37.048267,127.45285,산박골산,306.5
37.04988,126.79003,창고산,55.0
37.03694,127.45951,망월산,313.9
37.05064,127.368904,부흥산,242.0
37.03987,127.43013,도솔산비로봉,278.7
37.0385,126.7887,지내산,47.2
37.052864,127.46764,도고리봉,351.8
37.0442,127.4593,삼박골산,352.0
37.05582,126.86062,전통산,86.0
37.058674,127.219284,상필산,107.0
37.03698,127.4817,작은터산,165.0
37.0455,127.46568,옹조리골산,170.7
37.05042,127.01908,다랑개산,50.1
37.03835,126.83442,낭개산,42.0
37.0402,127.46062,동이아울산,255.2
37.052418,126.80136,불로산,62.1
37.03601,127.13196,남산,76.8
37.0414,127.36268,통미산,116.4
37.04716,126.76361,실느물산,31.0
37.05492,126.7865,석봉산,46.1
37.056316,127.4297,남산,333.1
37.04392,127.48645,서동산,181.0
37.048084,127.48425,방아골산,321.5
37.04939,127.49506,대야리산,399.0
37.05754,127.20347,동산,52.89
37.05063,127.46849,황색골산,349.0
37.04776,127.12046,팔룡산,122.2
37.041428,126.78564,보금산,63.9
37.04623,127.12582,106봉,107.0
37.04281,127.22636,뒷산,86.5
37.05581,127.14312,두루봉,75.2
37.04979,126.8924,박달재산,46.0
37.05016,127.12817,봉바위산,93.8
37.041332,127.02048,바람산,39.5
37.04712,126.52494,석문산,80.2
37.08435,127.06958,둥실봉,57.6
37.08551,126.95616,초록산,150.0
37.074707,126.91214,안산,50.4
37.06167,126.93461,덕지산,137.5
37.08621,127.49459,두리봉,126.7
37.07672,126.80649,둥그제산,44.6
37.06003,127.465355,죽림산,351.8
37.06376,127.117035,덕암산,163.9
37.08881,126.78296,매봉산,40.7
37.06544,126.78304,배무수산,27.0
37.08597,126.98477,풀무산,26.0
37.08316,127.16053,앰봉,196.0
37.0676,126.85479,마산재산,51.0
37.07581,127.1037,퇴봉산,146.3
37.084126,127.384964,매봉,173.5
37.06398,126.84648,정든산,54.3
37.08324,127.48787,안산,105.7
37.08211,126.93283,방아산,113.1
37.059765,127.495804,매봉,247.5
37.07765,127.4927,꾀꼬리봉,157.63
37.0751,126.77838,당산,29.5
37.06161,126.7963,봉화산,61.3
37.08627,126.85695,서두산,72.0
37.11599,127.09937,무봉산,208.8
37.11448,127.19075,이진봉,127.0
37.11402,127.18094,부채산,118.0
37.11494,126.84958,두건봉,83.0
37.11388,126.95561,삼성산,109.7
37.11207,126.79474,백토산,30.7
37.11071,127.30381,경수산,323.8
37.1114,127.18374,거북산,79.6
37.11109,127.05073,촉박산,14.0
37.111797,126.8593,꽃당산,102.5
37.1101,127.01461,성낭당,28.0
37.10994,127.37996,석천리산,113.0
37.107132,127.25273,조산,137.3
37.10278,126.98311,당재산,78.0
37.10134,127.16309,앞산,156.0
37.09923,127.21588,진재말림산,119.0
37.09921,127.20087,검은산,178.8
37.09995,127.17027,병산,152.2
37.098354,127.27528,금병산,234.5
37.09807,127.1625,각골산,173.9
37.09248,126.819,쌍봉산,117.7
37.09126,127.17271,천단산,215.0
37.09163,126.94615,비적산,54.0
37.09,127.240746,봉황산,259.3
37.09061,127.23235,봉림산,256.2
37.09002,126.84075,쪽박산,50.0
37.0893,127.416,비봉산,372.0
37.088886,126.882355,칼바위산,84.0
37.21372,127.41645,알미봉,77.3
37.219227,127.27055,된봉,313.4
37.20998,127.341,건지산,410.6
37.22635,127.03502,하기산,21.3
37.214554,127.38435,요광전산,128.2
37.22517,127.37235,황새산,94.0
37.2308,126.63102,선감이,91.2
37.22122,127.352585,오정봉,332.2
37.22012,126.68174,이봉산,105.7
37.22751,127.39484,뒷동산,208.7
37.20612,127.2986,갈미봉,442.6
37.214947,127.39995,관진봉,148.3
37.21358,127.15244,무봉산,351.8
37.21357,127.41088,모롱고지산,86.0
37.229294,126.979416,고금산,98.9
37.21048,127.467804,정명산,168.1
37.22936,127.39893,옷나무산,114.0
37.20998,127.341,건지산,410.4
37.206833,127.32855,태봉산,310.6
37.22725,127.38849,옥시울산,181.9
37.21464,127.11796,빈장산,185.0
37.22825,127.33334,동맥이산,352.8
37.2192,127.35795,된봉산,252.0
37.208134,127.27016,형제봉,453.6
37.206017,126.673615,와룡산,107.8
37.2073,127.2856,갈미봉,440.0
37.215984,127.06601,동학산,121.4
37.213905,126.68358,승학산,109.7
37.21043,127.30273,용실산,442.0
37.21467,127.08237,큰재봉,101.0
37.22863,127.35032,송림산,321.9
37.210663,127.310394,독조봉,434.2
37.21136,127.23791,서낭댕이산,209.0
37.20729,127.36865,소학산,310.4
37.22503,127.34424,낭댕이산,294.0
37.231117,127.25821,노적산,168.5
37.236237,126.52867,당산,56.5
37.24533,127.40432,곤줄산,150.0
37.30461,127.39663,뒷동산,83.8
37.28956,127.47859,작은엎드리기산,63.0
37.29453,127.40959,뒷동산,125.8
37.28882,127.335,말등대산,251.0
37.29243,127.36853,평풍산,237.0
37.291992,127.34236,해룡산,367.2
37.28833,126.53459,꼬깔이,35.9
37.29993,127.3233,뒷동산,281.4
37.29556,127.4295,고개밑산,121.7
37.29995,127.35509,더덕바위산,386.0
37.29774,127.41631,절산,90.0
37.28995,126.90962,안산,138.3
37.29431,127.4219,안산,105.6
37.29237,127.43102,아리산,194.1
37.30465,127.26724,안산,312.1
37.29368,127.44728,거무골산,72.0
37.30111,127.33679,안산,203.1
37.30504,127.24541,까치봉,188.5
37.28939,127.34171,토끼봉,295.7
37.298088,127.45355,뒷동산,67.0
37.30542,127.27859,마락산,475.0
37.29473,127.39406,동그란산,105.7
37.303,127.3647,지봉재산,222.0
37.292,127.28941,연지봉,561.9
37.29766,127.41328,구야오산,94.0
37.29876,127.36783,중특산,186.0
37.2892,127.49786,선대울산,72.0
37.30479,127.06761,응봉,196.2
37.28889,127.36309,승적산,327.0
37.29181,127.44048,새작골산,108.0
37.2912,127.45476,뒷동산,82.58
37.12094,127.1127,뒷동산,86.4
37.12007,127.20984,안산,142.2
37.12641,127.10326,달박산,107.9
37.1298,127.23478,뒷동산,161.5
37.1199,126.98474,골미산,72.1
37.124393,127.17201,망우리봉,102.0
37.12211,127.24075,묘봉,228.6
37.134308,127.3471,석술암산,413.1
37.12306,127.12685,앞산,64.4
37.12184,126.93485,방울산,98.0
37.13353,127.27431,쌍령산,502.4
37.11776,127.21873,빈양산,137.5
37.12636,126.83369,내부리산,38.8
37.11777,127.48134,물구리산,101.0
37.13101,126.85348,돌팍산,76.3
37.12529,126.88551,권은틀산,54.7
37.12327,127.49902,노성산,307.8
37.13027,127.17522,반월봉,151.3
37.13439,127.17554,안산,136.8
37.133305,127.41167,시우지봉,181.1
37.12714,127.14461,오리골산,121.1
37.11829,127.14168,마산골산,110.0
37.13457,126.718094,왕모대,58.2
37.117294,126.87925,둥구산,125.9
37.13162,126.86121,도마매산,46.8
37.12593,127.11247,목골뿌리산,131.3
37.11695,127.1571,남산봉,104.3
37.12872,127.10171,달박산,160.0
37.12366,127.0491,돌산,37.4
37.135925,127.11301,성정봉,147.0
37.13346,127.00856,제기봉,33.0
37.1308,127.20856,뒷동산,135.9
37.1321,127.15195,비봉산,101.8
37.13092,127.10023,청룡봉,166.3
37.1341,127.14882,봉배산,103.0
37.11904,127.13434,각골산,61.0
37.14972,127.46397,병풍바위,276.2
37.136433,126.82622,무봉산,91.2
37.15221,127.35627,창말산,286.0
37.14494,127.44759,큰바래기산,414.1
37.141613,127.47501,큰박골산,190.8
37.1469,127.18041,연안봉,154.0
37.13668,127.04048,상재봉,70.7
37.148323,127.27399,쌍용산,209.1
37.144386,126.88472,오두산,140.6
37.13755,127.13093,성지봉,106.2
37.15947,127.18431,조리봉,155.5
37.14259,127.11026,농뒷봉,159.0
37.16095,127.2201,안산,168.3
37.14805,127.30398,앞산,122.9
37.143513,127.12467,국사봉,171.0
37.15863,127.17319,설경산,91.0
37.13875,127.12303,개락산,107.2
37.15403,127.18907,표대봉,147.1
37.14591,127.19044,시봉산,122.0
37.16014,127.01385,벽력산,81.3
37.148712,126.90348,서학산,142.7
37.15871,127.21274,안터산,95.0
37.15498,127.22096,상진봉,206.0
37.15178,127.1809,파대봉,139.0
37.15217,127.39274,대덕산,217.1
37.14328,126.68796,함박산,92.3
37.14885,127.05054,가감이산,93.0
37.14781,127.32098,앞산,234.7
37.16118,127.10614,죽바위산,121.0
37.13611,127.28821,두루봉,225.6
37.15071,127.04931,감투봉,89.5
37.1367,127.37559,유암산,684.1
37.15924,127.30734,야광뒤산,117.0
37.14428,127.1299,송장산,113.7
37.14216,127.20618,신사동산,96.0
37.147835,127.45033,마국산,441.3
37.15719,127.03007,쌍수봉,122.0
37.170578,127.160324,두리봉,192.6
37.168274,127.44968,마오산,270.7
37.16636,127.17393,상재봉,139.0
37.17203,127.32598,안산,139.0
37.17012,127.071,금오산,115.0
37.17504,126.65911,감뿌리,57.9
37.182323,126.685844,함경산,112.7
37.162907,127.38622,쓰레산,270.7
37.17703,127.20748,두루봉산,122.0
37.16774,127.01402,노적봉,160.3
37.17706,127.26604,재주봉,293.8
37.16719,127.0198,학봉,119.0
37.16533,127.22012,삼봉산,196.1
37.18335,127.01955,독산,207.4
37.17018,127.09744,태봉산,50.4
37.165695,127.15645,십자봉,238.8
37.17158,126.78448,상현재봉,36.0
37.169468,127.03791,석산,135.2
37.16983,127.31412,안산,158.2
37.163757,127.132195,화성산,171.7
37.16409,127.32336,안산,124.3
37.181942,127.38504,봉의산,323.5
37.17751,127.10955,왕배산,148.7
37.16373,126.62066,동리산,29.0
37.17475,126.65569,옷감뿌리,19.8
37.17828,126.9605,내산,69.2
37.168835,126.62228,당산,62.4
37.174053,127.03911,여계산,158.6
37.17114,127.24822,성륜산,436.0
37.16662,127.41083,대덕산,360.9
37.17501,127.216,영마봉,171.0
37.18202,127.21788,능골산,165.3
37.17599,127.2712,영산,266.8
37.176804,127.155716,병봉산,243.0
37.162487,127.15996,상봉,182.9
37.16611,126.91573,철마산,168.2
37.16496,127.16466,어산,222.0
37.170433,127.154465,효제봉,244.0
37.1835,127.41125,대덕산,309.0
37.16574,127.18353,신병산,150.6
37.20519,126.69398,밤섬산,16.9
37.20451,127.39604,구학골산,179.0
37.203682,127.047264,구봉산,101.8
37.20229,127.38624,음달말미산,146.0
37.20211,127.19552,안산,211.9
37.201157,127.49375,갱터산,106.5
37.2019,127.372894,무제산,269.8
37.20182,127.18459,능릉산,189.0
37.2005,127.4109,솔밭산,96.0
37.20045,127.37396,바루산,234.8
37.20078,127.28657,칠봉산,446.8
37.200645,126.53918,메추리,36.3
37.199554,127.25628,국사봉,346.7
37.19914,127.21869,진대장등산,202.0
37.19969,126.56863,고래뿌리,15.2
37.19834,127.27758,은이산,363.3
37.19708,127.39077,금동산,181.0
37.19756,127.24475,앞산,250.6
37.19789,127.19345,뒷굴산,147.0
37.19551,127.43385,뒷산,86.0
37.195446,127.37838,뒷동골산,223.5
37.19502,127.21215,뒷동산,131.4
37.19323,127.24954,매밀봉,314.6
37.19256,127.38381,뱀골산,141.0
37.19269,127.37151,일산봉,157.0
37.19265,127.3273,안산,136.7
37.19228,127.21712,산수골산,140.0
37.19216,127.19649,골안산,168.3
37.191647,127.40034,장자터산,213.6
37.19199,127.34836,수정산,344.4
37.19045,127.27409,양산봉,321.0
37.18951,127.40917,다리미둥글산,222.5
37.18979,127.18377,보실봉,215.0
37.18983,127.07971,돌산,56.3
37.189114,126.92744,달봉산,138.3
37.18795,126.72248,성안성,77.2
37.18614,127.31129,용머리산,148.6
37.18635,126.98304,봉지봉산,71.8
37.184013,127.05259,반월봉,113.7
37.23993,127.26984,고래실산,222.0
37.23337,127.34619,음박골산,263.0
37.23758,127.34433,안산,166.2
37.23347,126.5431,망생이뿌리(나루끝),31.8
37.24031,126.86706,왕래봉산,105.0
37.24994,126.91661,안산,56.8
37.23109,126.55063,큰산,106.0
37.24852,127.40305,긴모퉁이산,124.0
37.24673,127.39942,안산,136.4
37.234146,127.47054,해룡산,200.8
37.24045,127.27274,태봉산,275.7
37.23199,127.38679,안산,130.0
37.23882,127.335,말등대산,251.3
37.243755,127.354744,오천골산,188.1
37.24159,127.4274,왕배산,126.0
37.236706,127.3341,미륵산,260.9
37.248913,127.34182,능안산,146.8
37.23335,127.38209,재깨산,112.5
37.24451,126.5295,큰산너머,39.5
37.23112,127.25821,노적산,168.5
37.24549,126.86078,만찬산,60.2
37.23233,127.41543,내골산,178.0
37.24817,127.43078,북산,139.2
37.23018,127.45652,원퉁산,195.0
37.23609,127.43352,팅비산,75.0
37.2346,127.36997,통미산,102.0
37.248207,127.394226,각시골산,153.9
37.2462,127.38609,무처골산,156.0
37.23485,127.4116,골내미산,158.0
37.24778,126.71056,천등산,146.0
37.239788,127.22746,봉두산,220.2
37.23306,127.31093,안산,153.4
37.23259,127.45547,모법산,171.0
37.24203,127.43465,남산,122.1
37.25199,126.52819,홍수만도,15.2
37.26643,127.31739,당골산,239.0
37.26814,127.32619,장구봉,177.8
37.26876,127.404,웃물바위산,131.7
37.25807,127.34264,숫돌봉,236.9
37.26916,127.3312,몸포댕이산,175.0
37.25926,126.52126,드무리뿌리,23.2
37.26659,127.34596,보얀산,167.0
37.25711,126.52358,사마기뿌리,24.3
37.250584,127.49713,정산,131.0
37.26091,127.34556,양촌뒷산,226.0
37.255604,126.57831,뻐꾹산,69.3
37.27079,127.2093,배머루산,106.0
37.25947,127.43559,왕디산,130.0
37.25284,127.40101,연등봉,131.0
37.258167,127.17492,금박산,325.3
37.26218,127.33896,봉바위산,251.0
37.26871,126.56532,돈지섬,22.2
37.25621,127.42093,퇴봉산,263.0
37.25983,126.51659,딴뚱우리,15.9
37.258404,126.69418,봉우재,125.1
37.25169,127.43696,골논산,110.0
37.26897,127.43769,뒷동산,79.8
37.25823,127.38634,정고개산,148.0
37.26577,127.35915,뒷동산,143.0
37.25436,126.83467,해망산,125.8
37.25829,126.8121,박산,74.0
37.266,127.40927,뒷말림산,211.7
37.25791,127.39708,바로배개산,136.5
37.25737,127.40766,학교뒷산,101.5
37.26081,127.3581,탑골산,130.0
37.25583,127.48362,안산,87.8
37.2566,127.36132,밭억만산,133.0
37.26794,127.3922,제명산,347.2
37.26739,127.43036,긴말림뿌랭이,98.0
37.28784,127.44097,신사산,172.0
37.28736,127.40181,석박골산,165.0
37.28786,127.35846,양각산,381.5
37.28631,127.37434,동그란산,164.0
37.28663,127.36429,고시락골산,316.2
37.28591,127.4552,고름쟁이산,92.3
37.285732,127.41845,칼바위,324.0
37.28509,127.40562,능말잔등산,270.0
37.28525,127.3883,원답골산,201.0
37.28464,127.36681,고시락골산,338.0
37.28434,126.57153,방아머리,24.6
37.28388,127.39504,건너들산,132.0
37.28232,127.32704,마산,196.7
37.28247,127.25636,안산,162.0
37.282143,126.808,봉선대산,50.6
37.282566,126.54731,구봉이,95.8
37.28159,127.39124,큰들산,143.0
37.2801,127.4332,말모이산,93.0
37.28087,127.33261,굴바위산,236.0
37.28045,126.98364,여기산,104.1
37.27698,127.43296,뾰죽산,106.0
37.27647,127.40459,안산,159.9
37.27648,127.33675,뒷동산,145.8
37.27695,127.32957,까치봉,253.0
37.27546,127.33452,북정군산,171.0
37.2757,126.56333,북망산,101.7
37.274776,127.483986,효양산,186.9
37.27445,127.37757,안산,210.3
37.27363,127.38988,불탄말림산,236.0
37.273674,127.27605,정수산,395.9
37.27396,126.55402,누리뿌리,83.6
37.27284,127.42896,설봉산,153.4
37.27273,127.35651,꽃동산,129.0
37.27245,127.31958,뒷산,200.1
37.2711,127.44884,꽃바위산,96.0
37.27119,127.43251,곽산,108.7
37.29829,127.43626,앞산,87.0
37.3001,126.79821,별망성,47.8
37.31647,127.24528,둔봉산,121.0
37.31613,127.33798,매산,166.8
37.32251,127.3927,적산,284.1
37.31404,127.38952,아리골산,206.0
37.30931,127.26473,긴장등이산,232.0
37.32078,127.37687,인배산,292.1
37.32428,127.25196,쑥뒷산,117.0
37.30979,127.47508,작은버드랑산,106.0
37.30705,127.33911,무재산,263.0
37.31276,127.22926,구만이산,186.5
37.30863,127.47819,마산,71.7
37.31223,127.34554,안산,197.2
37.31755,127.31707,안산,273.6
37.314102,127.47403,보인산,145.3
37.31541,127.30044,뒷동산,207.6
37.30954,126.90915,가칠미산,70.0
37.32084,126.87411,성태산,166.0
37.31071,127.48038,안산,79.1
37.32256,127.22793,건너산,161.0
37.31437,127.09573,예진산,135.8
37.30934,127.2584,안산,194.1
37.30851,127.25519,김가마골산,152.0
37.31921,127.22842,구만이산,199.2
37.32328,127.3194,웃골산,237.0
37.30895,127.37989,가장골산,117.3
37.31381,127.27955,큰산,516.6
37.31773,127.22429,안구만이산,171.0
37.3158,127.3253,섭산,360.0
37.31036,127.48709,앞산,76.8
37.32141,127.35333,된지양산,281.0
37.31634,127.37838,풍목골산,217.0
37.311527,127.49383,호암산,106.2
37.32024,127.4284,둥굴산,87.8
37.31358,127.41526,한성부뒷산,86.0
37.3189,127.245384,장고개산,100.0
37.307636,127.06759,매봉,235.6
37.31088,127.3464,두리봉,216.5
37.31474,127.48579,바위베기산,75.7
37.31025,126.90048,치및산,92.0
37.32044,127.32564,섭산,321.0
37.31307,127.33963,사터골산,202.0
37.32388,127.29688,서덕산,372.0
37.33257,127.34346,사태봉산,311.0
37.32758,127.35543,불당골산,405.0
37.33845,127.4623,바라산,107.8
37.32685,127.34789,불당골산,305.2
37.33729,127.4977,뒷동산,80.7
37.32606,127.44868,오미봉,76.6
37.32855,127.32712,뒷동산,196.9
37.33427,127.42596,도리봉,272.0
37.33278,127.22973,달기산,229.4
37.32716,127.20139,선장산,350.0
37.337887,127.25905,새골산,158.0
37.334,127.41544,정개산(소당봉),476.0
37.32676,127.23999,벙거지산,91.0
37.3372,127.31694,용두산,124.0
37.33501,127.46354,낭떨어지산,108.0
37.3402,127.15174,숫돌봉,314.5
37.3308,127.20805,고씨능,256.0
37.3394,127.38517,큰재산,321.0
37.328445,127.48901,위산,166.0
37.32673,127.31906,웃골산,241.0
37.33105,127.17848,깜봉산,242.0
37.324993,127.35699,깊은목산,397.0
37.32534,127.49052,오산,149.0
37.33463,127.34409,황씨봉산,263.0
37.32936,127.27392,유산,439.7
37.33707,127.12282,떡봉,134.0
37.326717,127.22581,고시렁산,156.0
37.33632,127.14195,대지산,326.0
37.34082,126.69284,오이산,73.0
37.32973,127.45429,등촌잔등산,94.0
37.3288,127.3296,다른고개뒷산,182.0
37.3284,127.40548,주능1봉,337.0
37.33238,127.2568,왕구리뒷산,141.0
37.32757,127.28664,새재달음산,570.0
37.33728,127.39707,방둔산,245.0
37.33215,127.07923,신봉산,259.9
37.32913,127.26147,이터산,244.0
37.35931,127.48759,단고사리봉,156.0
37.35986,127.3834,터골산,241.5
37.35987,127.34999,윗장고개산,268.0
37.35878,127.33713,뒷산,152.4
37.35889,127.13609,형제산,286.3
37.35764,127.34131,뒷동산,194.6
37.35721,127.09242,진재산,229.0
37.35547,127.39178,뒷동산,192.6
37.3554,127.13365,정자봉,311.66
37.35464,127.46927,긴등산,270.3
37.3549,127.3471,주리통산,137.0
37.35387,127.49262,옥녀봉,136.6
37.35299,127.35252,은대미산,182.0
37.35269,127.30174,약수절산,325.0
37.35144,127.35934,요사리산,182.0
37.35192,127.200455,윤골봉,160.0
37.351704,127.13439,불곡산,335.4
37.35077,127.37427,오향리산,263.0
37.34932,127.38237,개마을앞산,208.0
37.34953,127.32594,앞산,127.8
37.34899,127.41361,막바지산,246.0
37.34821,127.40507,살피재산,244.0
37.34806,127.38465,빈설월산,202.4
37.34767,127.34186,안산,166.3
37.34723,127.33074,평장능산,148.0
37.34609,127.3813,빈설월산,253.0
37.34602,127.36917,승지골산,281.0
37.346966,127.10584,선배산,111.0
37.34572,127.48576,뒷동산,87.0
37.345505,127.42651,주능3봉,541.0
37.34384,127.34757,감투봉,206.6
37.34336,127.29432,독바위산,361.0
37.34219,127.43503,벼룩바위봉,381.0
37.341988,127.20098,범우산,129.0
37.42061,127.04195,석기봉,603.0
37.43462,127.43506,각시봉,691.2
37.41396,126.93638,비봉산,274.0
37.4378,126.74187,비잔이산,47.0
37.43179,126.92992,학우봉,367.0
37.42829,126.88861,성채산,138.5
37.41586,126.77242,안살미산,71.0
37.43586,126.82608,갈마산,115.0
37.42341,126.76304,범배산,61.0
37.43422,126.95959,팔봉,521.0
37.420486,127.06842,바라산,301.0
37.41467,127.08985,봉바위산,140.7
37.43728,126.76453,뒷동산,43.7
37.43137,126.9372,국기봉,478.6
37.42245,127.29217,국수봉,157.1
37.41641,127.13788,동매산,53.8
37.41516,126.78358,무리재산,34.0
37.41314,127.47748,미산,333.7
37.43414,127.36831,두루봉,222.9
37.4228,126.77108,망재산,102.0
37.43603,127.33547,삼봉,468.0
37.43025,127.49989,머러니산,211.0
37.42755,126.75457,장아산,71.4
37.36978,127.07111,태봉산,173.2
37.36149,127.38329,무학봉,226.5
37.36471,127.32788,김이내미골산,232.0
37.36855,127.22347,가래울,92.5
37.371414,127.21036,학산,192.0
37.36728,126.89945,태양산,337.8
37.36329,127.39305,덤바위산,172.5
37.36669,127.49466,신선봉,160.3
37.36567,127.05828,동정이골산,207.0
37.36874,127.48739,독수리봉,252.2
37.36512,127.38504,두리봉,157.5
37.36858,127.38725,알미봉,133.4
37.36745,127.4815,된봉,335.8
37.37055,127.39994,숯골산,177.0
37.36221,127.4273,뒷동산,188.3
37.36193,127.32823,비양산,204.0
37.36984,127.41054,물오리산,171.0
37.36417,127.08001,안산,229.3
37.36885,127.33124,인절미두루동산,219.0
37.36095,127.25363,매봉산,109.5
37.37128,127.31304,비향산,171.0
37.36722,127.41864,깃대봉,277.4
37.36344,127.40846,거무래산,187.1
37.3659,127.06471,도장골산,181.0
37.36531,127.42413,뒷산,231.9
37.36999,126.77581,사미옥녀봉,134.8
37.36094,127.35974,고사리골산,292.0
37.36407,127.29577,두루봉,226.6
37.36247,127.34741,산대봉,303.0
37.36986,127.43588,사당산,261.0
37.36666,126.84217,쓰레봉,221.0
37.36885,127.41601,안골산,231.0
37.36525,127.36849,형제봉,256.3
37.36105,127.40628,공술산,214.0
37.36881,126.74471,정왕산,104.0
37.36884,127.38041,사학골산,197.0
37.37064,127.40601,안산,163.1
37.36761,127.42489,음달산,305.0
37.36348,127.44605,소시랑봉,555.0
37.37046,126.76974,안산,86.6
37.36214,126.76331,봉화산,29.2
37.37098,127.32164,인형봉,139.0
37.37626,127.39498,달돗는봉,213.0
37.37359,126.75983,일출봉,92.9
37.38109,127.41541,두리봉,276.9
37.37391,127.39708,매봉산,225.5
37.37708,127.43049,뒷산,189.8
37.38107,126.75541,본향산,97.0
37.37151,127.39428,안산,196.1
37.38044,127.31837,양지쪽산,98.0
37.375504,127.447296,삼태기봉,243.0
37.37997,127.410416,삼선등이,238.0
37.37359,126.78449,가인봉,134.0
37.382,127.10633,새동산,99.0
37.37873,127.37683,청용산,348.1
37.37597,126.74699,만우봉,100.0
37.381,127.44692,거북산,206.0
37.38095,127.45986,사실터고개산,295.2
37.3774,127.40147,상봉,214.4
37.37134,127.47741,장화산,387.0
37.38054,127.32234,뒷동산,130.3
37.37297,126.85076,을미,67.0
37.37829,127.12394,뒷매산,88.0
37.3812,127.32521,언덕밑산,146.0
37.37875,127.44267,황새뒤뿌렁이산,192.0
37.37415,127.30667,고목덤불산,102.0
37.37866,126.87133,쇠머리산,70.0
37.37394,127.31119,마준짝산,198.0
37.37116,127.36136,오향봉,373.0
37.37599,127.38239,주봉산,251.6
37.37948,127.33272,외막골산,172.0
37.37558,127.09408,새능산,173.0
37.37308,127.42996,양달산,215.0
37.38555,126.81303,범배산,140.2
37.38772,127.3604,앞산,275.9
37.385216,127.09646,안산,142.6
37.38667,127.43759,뒷산,302.0
37.38872,127.033775,영심봉,367.0
37.38256,127.4065,알미산,181.7
37.38614,127.34714,초시당산,396.0
37.39452,127.32928,앞산,244.3
37.39098,127.30001,등밑산,144.0
37.38838,127.19644,너락봉,166.6
37.38701,127.28338,뒷동산,161.2
37.38343,127.43138,앞산,242.6
37.3877,126.78546,섬말,25.8
37.39566,127.13097,앞산,81.6
37.39154,126.86511,기정굴산,61.2
37.39527,127.35484,가장골산,330.0
37.3941,127.09402,금토산,137.2
37.39085,127.10663,앞산,105.8
37.39474,127.43205,된음달산,200.0
37.38841,126.82714,월미,36.0
37.39272,127.39506,상봉,406.3
37.39046,127.33433,재락골산,250.0
37.38576,127.22199,태봉산,246.1
37.38896,127.2737,짐터골산,212.0
37.389,127.13194,이진봉,118.0
37.38751,127.32867,서당골산,226.0
37.38775,127.26725,마름산,316.0
37.39577,127.28641,서방산,187.0
37.38203,127.34677,고댕이산,470.6
37.38625,127.27135,새남터산,236.1
37.39401,127.28759,가마모산,161.0
37.3847,127.36689,열미골산,455.0
37.39423,127.49123,뒷골산,181.7
37.39255,127.09432,어바굴산,131.0
37.38888,127.10567,뒷산,109.1
37.39023,127.4733,도매기잔등이산,372.0
37.38592,127.42284,원대울산,334.0
37.38972,127.41024,긴등산,178.0
37.39588,127.32572,깃대봉,209.4
37.38825,127.30596,동우리봉,132.5
37.4124,127.47213,안산,248.5
37.41207,127.0118,매봉산,349.4
37.40918,127.49372,주봉산,335.9
37.4086,127.48522,약고막산,284.0
37.40899,127.27982,절뒤산,281.0
37.407104,126.78058,학미산,94.9
37.4064,127.19278,고불산,286.1
37.4065,126.85731,터골산,72.0
37.40521,127.47524,호아산,211.0
37.40486,126.76349,마산,30.6
37.40302,127.35407,소리봉,504.9
37.403294,127.06415,머금이산,242.2
37.401,126.99595,무재봉,184.9
37.40015,127.31845,앞산,133.8
37.40087,127.21081,아흔아홉봉산,170.0
37.39992,127.49226,양자산,310.1
37.399418,127.44486,당산,131.1
37.3995,127.43393,두리봉,188.8
37.39902,127.062256,서돌산,331.0
37.39868,127.48762,감투봉,321.3
37.39815,127.47882,수리배산,353.0
37.39814,127.41884,뒷동산,359.3
37.39822,127.30041,동산,76.5
37.39853,127.28486,뒤창개산,212.0
37.39882,127.14315,종지봉,223.0
37.398365,126.85045,도리산,97.0
37.39732,127.29714,배고막산,96.0
37.39709,127.0841,금토산,197.0
37.39799,127.07489,서둘산,221.0
37.39666,127.49338,지붕산,249.4
37.39691,126.80788,월대봉,97.0
37.43753,126.83081,동산마산,64.0
37.4585,127.3672,삼각점,501.0
37.44056,126.96446,관악산,624.8
37.45612,127.02852,중촌산,46.0
37.45409,126.7457,116봉,117.0
37.44541,126.84409,사들,50.1
37.46175,126.74673,국골산,101.0
37.45368,126.75174,용등산,61.0
37.46287,127.26061,장작산,334.0
37.4421,127.2506,군월산,376.0
37.44982,126.94479,모자봉,240.0
37.44094,127.0812,목동산,300.0
37.4516,127.03609,굴바위산,194.4
37.44159,126.80587,오난산,57.0
37.461502,126.94226,국기봉(돌산바위),233.0
37.44151,126.74549,뒷동산,64.6
37.45654,127.09413,범바위산,197.9
37.45457,127.02598,석포산,47.5
37.45594,126.74174,거머리산,125.0
37.450813,126.928795,호암산(민주동산 국기봉),392.0
37.44098,126.93895,깃대봉국기봉,446.0
37.44997,127.08886,범바위산,274.0
37.4591,126.856,서산,128.1
37.44656,126.83327,뒷동산,33.1
37.45623,127.40689,안칭골산,335.0
37.44586,127.37225,동오리,423.1
37.461494,126.664894,수봉산,107.2
37.4616,127.30856,삼태기산,143.1
37.44237,126.86004,운산,68.0
37.44317,126.8491,능촌,39.0
37.45516,127.31577,삼태기산,229.0
37.47175,126.7677,거마산,211.0
37.485718,126.691055,함봉산,61.8
37.46977,127.02922,동산,46.0
37.486717,127.178185,연주봉,470.0
37.465443,126.80404,할미산,151.9
37.47048,127.00913,우면산,313.0
37.471565,126.71529,만월산,186.2
37.47036,126.86077,도덕산,183.1
37.481285,126.55531,덕기봉,88.9
37.46756,127.26013,광지원봉,358.0
37.4812,127.40151,종종모래이산,67.0
37.47934,127.41287,마명산,205.5
37.48506,126.69947,선포산,127.0
37.48005,127.03026,종여울산,50.2
37.480396,126.70725,법성산,87.0
37.47099,127.24509,앞산,228.7
37.47914,127.25756,희망봉,454.0
37.471638,126.732216,철마산,201.8
37.48139,126.68901,뒷산,48.8
37.465317,126.91403,선우봉,165.0
37.48372,126.96127,까치산,122.3
37.46616,126.74496,물넘이뒷산,168.0
37.46751,127.02701,갓베산,54.9
37.48011,126.84745,너부대,49.0
37.479588,127.31173,국사봉,207.3
37.499718,127.32048,금봉산,235.5
37.49978,127.22822,초당봉,152.0
37.497944,127.21589,매봉,255.9
37.497066,126.96164,서달산,173.0
37.49517,126.79995,원미산,167.0
37.491783,127.320625,금사봉,237.0
37.49142,126.80045,멀미산,105.3
37.490646,126.69828,호봉산,136.0
37.48977,126.805,세럴산,102.0
37.489758,126.79628,원미산,123.7
36.776993,126.98975,남산,145.0
37.47757,126.706566,동암산로,99.0
37.40727,126.71591,듬배산,80.9
37.404808,127.41204,자작봉,582.0
37.03857,127.1767,대이산,230.0
36.5967,126.71124,퇴뫼산,131.6
37.177486,127.10957,왕배산,149.0
