latitude,longitude,name,elevation
53.41033,-167.44951,Mount Aspid,497.0
53.377266,-167.34499,Mount Kimble,647.0
53.349586,-167.39558,Round Top Mountain,485.0
53.41068,-167.18144,Kismaliuk Butte,568.0
53.446304,-167.09329,Brennen Butte,467.0
53.292362,-167.47702,Windy Ridge,393.0
