latitude,longitude,name,elevation
-8.800685,-42.492004,Serra da Vargem Grande,610.0
-8.827764,-41.62901,Serra do Oiteiro,654.0
-8.914963,-41.71906,Serra do Cansanção,621.0
-8.976094,-41.72527,Morro Branco,658.0
-9.114576,-41.75895,Morro da Pedra Branca,685.0
-9.145454,-41.689354,Morro Branco,550.0
-9.227131,-41.708897,Morro do Tatu,564.0
-9.480783,-41.846363,Serrote Branco,481.0
-9.327548,-41.809074,Morro do Apolinário,575.0
