latitude,longitude,name,elevation
66.11911,17.936071,Gáldesbuovdda,800.0
65.6627,17.535625,Nálluovárdduo,725.0
66.21589,18.360518,Nammadis,778.0
66.34642,18.26874,Gállábuovdda,780.0
66.20789,17.750553,Lulep Iksják,801.0
65.974686,17.69242,Askeberget,639.0
