latitude,longitude,name,elevation
8.465636,-72.96905,Cerro Banderas,1625.0
7.504309,-72.93156,Alto Cerro Pelado,3775.0
8.29418,-72.81738,Cerro Tiradoras,1100.0
7.7916546,-72.65233,El Alto,608.0
7.809699,-72.66029,Casade,569.0
7.657798,-72.952614,Pico NN,3934.0
7.845976,-73.227005,Cerro de las Jurisdicciones,3850.0
7.6802645,-72.94428,P. 3.915m,3915.0
7.6601577,-72.92357,P. 3.903m,3903.0
