latitude,longitude,name,elevation
48.31413,74.93161,Жосалы,950.0
48.34406,75.041664,Қарабиік тауы,960.0
48.424,75.47113,Aksoran,1565.5
48.458607,75.43015,Aulie,1274.3
48.478226,75.45701,Qarashoky,1261.9
48.49177,75.41986,Karakiya,1257.0
47.587166,74.83686,Maldybay,731.3
