latitude,longitude,name,elevation
-14.217778,143.38583,Fox Lookout,219.0
-13.796389,143.1661,Mount Croll,486.0
-14.417222,143.45084,Mount Walsh,272.0
-13.550278,143.13528,Birthday Mountain,441.0
-14.433888,143.33055,Mount Ryan,442.0
-13.71781,143.44366,Double Hill,407.0
-13.79025,143.07507,The Twin Humps,306.0
-13.773306,143.3208,Local H.P. (816),816.0
