latitude,longitude,name,elevation
56.032246,14.7661705,Listershuvud,83.85
56.02156,14.691181,Stiby backe,70.1
56.078163,14.59249,Kopannan,124.5
56.221676,15.311489,Tresjöberget,45.0
56.21604,15.313646,Klevaberget,48.0
56.441273,14.527522,Rävabacken,189.65
