latitude,longitude,name,elevation
24.638695,111.50984,仙女峰,1730.0
24.699953,111.588974,天堂顶,1844.0
24.639292,111.52889,姑婆心,1358.0
24.64099,111.57529,笔架山,1478.0
24.603455,111.58142,石门山,1274.0
24.628933,111.58429,牛洞山,1421.0
25.247625,112.0033,畚箕窝,1959.2
25.24495,112.038185,三分石,1812.0
25.233086,112.0408,香炉石,1781.0
25.187836,112.44308,天堂嶺,1712.0
25.272171,111.90694,癞子山,1834.6
25.306564,112.07887,团圆山,1612.0
25.18629,111.86592,锅巴山,1670.9
