latitude,longitude,name,elevation
38.886883,125.426674,석천산,303.0
38.973377,125.467224,무학산,346.0
38.888393,125.33148,오석산,566.0
38.500317,125.26424,구월산,954.0
38.530964,125.041176,강두봉,263.0
38.513603,125.06424,원주산,262.0
