latitude,longitude,name,elevation
28.512756,98.606544,错改腊卡/ མཚོ་ཀོང་ལ་ཁ།,6509.0
28.826578,98.90936,布顶神山,5200.0
28.874016,98.885506,吉卜吉姆,4158.0
28.556025,98.634865,说拉增归面/ ཤྭག་ལ་བཅན་རྒོད་དམར་པོ།,5270.0
28.53569,98.503334,崩功腊卡,4675.0
28.680134,98.99127,压赛雪山,5404.0
28.821907,98.93161,察里雪山,5534.0
28.73666,98.97628,甲午雪山,5220.0
28.519407,98.98712,嘉子雪山,5384.0
28.557558,99.390594,吉普突改,5096.0
