latitude,longitude,name,elevation
-30.6225,18.0983,Tierberg,802.8432
-31.0275,17.9942,Toringberg,550.8
-30.82,18.2517,Uitspanberg,694.944
-30.7683,18.18,Rondefonteinsberg,856.7928
-30.6267,18.3733,Sandplaat,1056.7416
-30.7275,18.4075,Rooikop,698.9064
-30.6867,18.2325,Jaloerskop,774.8016
-30.5108,18.3533,Grasberg,1325.9
-30.5475,18.4,Tierkop,979.9
