latitude,longitude,name,elevation
54.665123,137.70184,Филиппа,532.0
54.718582,137.7928,Анаур,637.0
54.776485,137.89143,Крупенина,429.0
54.862507,137.62222,Амука,565.0
54.870277,137.91272,г. Весёлая,720.0
54.96053,137.59158,Бурундук,430.0
55.169804,137.67877,Нагорных,210.0
