latitude,longitude,name,elevation
-19.34293,122.13241,Gingerah Hill,98.0
-19.3149,121.7143,Mount Phire,90.0
-18.93363,121.98889,Parda Hill,127.0
-18.91725,122.00195,Stony Hill,127.0
-19.15075,122.17687,Thunder Ridge,119.0
-19.03776,121.91094,Willara Hill,115.0
