latitude,longitude,name,elevation
-21.00936,121.52457,Cuncudgerie Hill,301.0
-21.28029,122.23903,Ghost Castle Hill,303.0
-21.44581,122.26384,Kaliranu Hill,334.0
-21.31205,122.20823,Minyari Hill,292.0
-21.14766,122.16866,Tyama Hill,314.0
