latitude,longitude,name,elevation
44.100567,27.284357,Arab-Tabia,130.0
44.052406,27.435656,Dealul Viilor,128.0
44.042076,27.476568,Dealul Țealu,117.0
44.071163,27.48111,Galția,124.0
44.13307,27.492035,Dealul Dervent,123.0
44.108036,27.48961,Dealul Topleac,97.0
