latitude,longitude,name,elevation
67.25506,35.111687,Егельпахк,262.0
67.21224,35.24696,Лягунка,327.0
67.30842,35.210567,Панская,243.0
67.28762,35.325237,Полисарские горы,307.0
66.580986,34.580883,Летняя,172.0
67.477165,34.991543,Фёдорова Тундра,517.0
67.47989,34.563156,Сейда,287.0
