latitude,longitude,name,elevation
46.223347,10.294707,Cima Cadi,2448.0
46.383705,10.196608,Cima Viola,3374.0
45.862095,9.782076,Monte Alben,2019.0
45.914165,10.173333,Monte Altissimo,1703.0
46.024284,10.448755,Monte Frisozzo,2897.0
45.885277,10.109445,Monte Pora,1880.0
46.398075,10.437707,Monte Sobretta,3296.0
46.18529,10.398576,Monte Aviolo,2881.0
46.382427,9.908052,Pizzo Bernina,4048.6
46.445835,9.722777,Piz Lagrev,3170.0
46.48845,9.956518,Piz Languard,3261.0
46.45111,10.028322,Piz Minor,3049.0
46.42601,10.117254,Piz Paradisin,3302.0
46.48722,9.5616665,Piz Platta,3392.0
45.934593,9.815816,Pizzo Arera,2512.0
46.294765,9.602164,Pizzo Cengalo,3368.0
45.9566,10.055504,Presolana Occidentale,2521.0
45.75834,9.962622,Monte Torrezzo,1378.0
45.76477,9.772686,Monte Cereto,936.0
45.98362,9.82563,Monte Corte,2430.0
46.04835,9.830651,Pizzo Zerna,2572.0
46.292892,9.714488,Monte Sissone,3327.0
46.29434,9.583149,Punta Sant'Anna,3169.0
45.867558,10.089919,Monte Alto,1721.0
46.42143,9.953485,Munt Pers,3207.0
46.011536,9.527465,Pizzo dei Tre Signori,2554.0
46.011166,9.506369,Cima di Camisolo,2156.0
46.090195,9.879907,Montirolo,2126.0
46.156162,10.496332,Monte Adamello,3539.0
46.15918,10.325571,Monte Faeto,1415.0
46.37094,9.545585,Piz dal Märc,2948.0
46.387417,9.560664,Gletscherhorn,3107.0
46.375877,9.583322,Piz Duan,3131.0
46.40285,9.586895,Piz Piot,3053.0
46.264317,9.7571745,Monte Girosso,3475.0
46.408493,9.816141,Piz Corvatsch,3458.0
46.453213,9.843114,Piz Surlej,3188.0
46.374535,9.819022,Il Chapütschin,3386.0
46.402496,9.901526,Piz Morteratsch,3751.0
46.414467,9.886277,Piz Tschierva,3546.0
46.387287,9.977715,Piz Cambrena,3607.0
46.366734,9.824466,La Muongia,3415.0
46.412598,9.819874,Piz Murtèl,3442.0
46.443306,9.842834,Munt Arlas,3129.0
46.38196,9.730024,Piz da la Margna,3159.0
46.361206,9.772587,Piz Led,3090.0
46.356606,9.773721,Piz Güz,3169.0
46.46087,9.752902,Piz Polaschin,3012.0
46.444767,9.735015,Piz Mez,2972.0
46.4353,9.691289,Piz Materdell,2944.0
46.422832,9.674441,Piz Grevasalvas,2932.0
46.375484,9.879842,Schneekuppe,3917.0
45.81823,10.060317,Monte Cala,615.0
45.935223,10.434531,Corna Bianca,2119.0
46.497746,10.489427,Tuckettspitze,3462.0
46.385475,10.1580305,Scima da Saoseo,3264.0
45.96158,10.295619,Colle Montepiano,492.0
45.89553,10.493206,Dosso Trabacù,2208.0
46.06254,10.373884,Doss del Grom,1168.0
46.195705,10.312403,Dosso Toricla,1838.0
46.47679,10.044559,Piz la Stretta,3103.0
46.487778,10.048551,Monte Garone,3024.0
46.47303,10.075242,Monte Ganda,2789.0
46.473537,10.119429,Monte del Buon Curato,2767.0
46.454517,10.131409,Corna di Capra,3134.0
46.49717,10.094979,Monte delle Rezze,2858.0
46.49381,10.144748,Monte delle Mine,2881.0
46.498837,10.072705,Monte Campaccio,3004.0
46.45976,10.193001,Corno La Resa,2862.0
46.470356,10.220401,Monte Sattaron,2735.0
46.47425,10.225588,Motta Grande,2714.0
46.478687,10.200112,Monte Corno,2986.0
46.489594,10.189111,Monte Foscagno,2892.0
46.457523,10.163129,Pizzo Filone,3133.0
46.46635,10.199076,Monte Forcellina,3090.0
46.460114,10.293368,Dosso Le Pone,2552.0
46.4615,10.308997,Monte Masucco,2376.0
46.499405,10.332998,Croce delle Scale,2500.0
46.491943,10.489371,Cime di Campo,3469.0
46.4951,10.479356,Payerspitze - Punta Payer,3450.0
46.495857,10.460435,Monte Cristallo,3439.0
46.495754,10.475189,Punta del Cristallo,3414.0
46.45031,10.487883,Cima di Saline,3072.0
46.466995,10.478165,Monte Forcellino,2842.0
46.047855,10.404927,Cima Settentrionale di Berbignaga,2368.0
46.151524,10.463184,Cima Plem,3182.0
46.14236,10.441136,Corno del Lago,2776.0
46.199146,10.442043,Monte Avio,2953.0
46.05823,10.485053,Monte Marosso,2688.0
46.05135,10.477499,Monte Campellio,2809.0
45.976826,10.453365,Monte Listino,2749.0
46.052628,10.436437,Monte Zucchello,2112.0
46.006016,10.401693,Pizzo Badile Camuno,2434.0
46.286358,9.5057955,Monte Gruf,2936.0
46.290813,9.510888,Monte Conco,2905.0
46.294308,9.515347,Cima Codera,2799.0
46.249237,9.504542,Cima di Lavrina,2313.0
45.790268,9.506196,Il Pizzo,1400.0
45.953274,9.512647,Zucco di Pesciola,2094.0
45.985096,9.510271,Cima delle Forcelle,1646.0
45.958267,9.514528,Zucco Barbesino,2152.0
45.988945,9.500142,Zucco del Corvo,1976.0
45.907917,9.502521,Zucco della Mersa,1460.0
46.088737,9.505137,Monte Combana,2327.0
46.226166,9.506762,Punta Redescala,2304.0
46.18374,9.516949,Pizzo Piana,2316.0
46.083664,9.501163,Monte Rosetta,2357.0
46.09481,9.50245,Pizzo Olano,2267.0
46.213974,9.5069475,Monte di Frasnedo,1992.0
46.062748,9.509656,Monte Colombana,2387.0
46.046425,9.501426,Pizzo di Cassera,2326.0
46.054283,9.506739,Cima di Colombana,2288.0
45.762737,9.511864,Col Pedrino,832.0
45.744617,9.513458,Monte Ghignoletti,567.0
46.014454,9.586926,Monte Avaro,2088.0
45.95515,9.802419,Corno Branchino,2029.0
46.27999,9.5644865,Pizzo Sceroia,2948.0
46.28522,9.573048,Pizzo Porcellizzo,3075.0
46.286514,9.580177,Dente della Vecchia,2780.0
46.28719,9.618645,Cima della Bondasca Occidentale,3267.0
46.288795,9.606649,Torrione Porro,2935.0
46.303764,9.561106,Il Cantaccio,2798.0
46.29154,9.580725,Punta Torelli,3134.0
46.293617,9.592718,Punta Sertori,3195.0
46.291725,9.600603,Anticima Meridionale,3214.0
46.295284,9.586542,Pizzo Badile / Piz Badile,3308.0
46.29811,9.534832,Cima dei Vallon - cima centrale,2678.0
46.294556,9.6102705,Pizzi Gemelli,3220.0
46.29429,9.606496,Anticima Orientale,3245.0
46.292908,9.61135,Pizzi Gemelli,3262.0
46.243183,9.551783,Punta della Sfinge,2805.0
46.24775,9.554316,Pizzo dell'Oro Meridionale,2695.0
46.258377,9.561044,Pizzo dell'Oro Settentrionale,2660.0
46.26069,9.54721,Pulè,2221.0
46.26042,9.564304,Punta Milano,2610.0
46.272514,9.564094,Cime d'Averta,2780.0
46.27509,9.522884,Il Pizzal,2075.0
46.24518,9.521965,Pizzo Bresciadega,2666.0
46.255817,9.556702,Pizzo dell'Oro Centrale,2707.0
46.23389,9.528408,Punta Magnaghi,2872.0
46.25921,9.612853,Cima del Cavalcorto,2763.0
46.266106,9.60905,Punta Moraschini,2814.0
46.26284,9.566592,Cima del Barbacan,2734.0
46.268093,9.609298,Punta Bertani,2805.0
46.266823,9.609684,Monte Scione,2894.0
46.273285,9.613684,Pizzo Camerozzo,2876.0
46.269005,9.61037,Punta Paganini,2789.0
46.23399,9.585255,Punta Fiorelli,2390.0
46.233517,9.554384,Pizzo della Vedretta,2911.0
46.239147,9.5471945,Pizzo Ligoncio,3033.0
46.2348,9.587737,Punta Medaccio,2350.0
46.2791,9.698176,Torre Re Alberto,2827.0
46.27996,9.698589,Torre Sud di Cameraccio,2828.0
46.28167,9.698679,Torre Centrale di Cameraccio,2889.0
46.282555,9.699249,Torre Nord di Cameraccio,2930.0
46.283783,9.725575,Cima di Chiareggio Settentrionale,3106.0
46.286224,9.636468,Pizzo del Ferro Orientale,3200.0
46.28619,9.701656,Punta di Cameraccio,3026.0
46.319668,9.725919,Cima di Val Bona,3032.0
46.323025,9.71791,Monte Rosso,3088.0
46.338463,9.724513,Monte del Forno,3214.0
46.287987,9.720914,Punta Baroni,3205.0
46.30642,9.718516,Cima di Rosso,3366.0
46.30966,9.724165,Cima di Vazzeda,3301.0
46.29095,9.69532,Punta Ferrario,3258.0
46.295464,9.685113,Colle Rasica,3272.0
46.24773,9.668929,Punta Mezzola,2070.0
46.248047,9.70422,Cima dell'Averta,2806.0
46.250896,9.710037,Pizzo Basset,2840.0
46.25436,9.718211,Pizzo della Remoluzza,2814.0
46.2449,9.702625,Pizzo Vicima,2853.0
46.2752,9.697149,Punta Meridionale del Cameraccio,2741.0
46.274704,9.640912,Torrione Qualido,2708.0
46.235,9.622337,Monte Pesconfio,1590.0
46.23706,9.670027,Cima d'Arcanzo,2718.0
46.33932,9.762251,Monte dell'Oro,3156.0
46.238712,9.741657,Cima di Postalesio,2985.0
46.244484,9.826158,Rocca di Castellaccio,1789.0
46.248734,9.7767725,Corni di Airale,2841.0
46.24065,9.738409,"Corni Bruciati, Punta Nord - Est",3097.0
46.28782,9.796279,Cima del Duca,2964.0
46.278316,9.729796,Cima di Chiareggio Meridionale,3092.0
46.28413,9.811145,Monte Braccia,2909.0
46.28159,9.814647,Pizzo di Primolo,2759.0
46.294083,9.8024435,Punta Rosalba,2808.0
46.280407,9.758409,Pizzo Ventina,3260.0
46.30726,9.746769,Monte Mottuccio,2522.0
46.305126,9.7974205,Monte Senevedo,2569.0
46.23348,9.730884,"Corni Bruciati, Punta Sud - Ovest",2958.0
46.30079,9.783793,Torrione Porro,2435.0
46.264427,9.78708,Monte dell'Amianto,2955.0
46.267433,9.754252,Monte Disgrazia Orientale,3638.0
46.27357,9.790363,Pizzo Rachele,2998.0
46.271725,9.740276,Monte Pioda,3431.0
46.26936,9.749478,Monte Disgrazia,3678.0
46.27149,9.793731,Punta del Lago,2796.0
46.237366,9.736079,"Corni Bruciati, Punta Centrale",2997.0
46.26646,9.802465,Pizzo Pradaccio,2602.0
46.27424,9.760343,Punta Kennedy,3283.0
46.268276,9.782978,Cima Sassersa,2973.0
46.261795,9.775639,Pizzo Cassandra,3225.0
46.271404,9.790301,Punta Maria,2923.0
46.34788,9.829603,Pizzo Malenco,3438.0
46.256104,9.746585,Cima di Corna Rossa,3180.0
46.264565,9.781506,Pizzo Giumellino,3091.0
46.230515,9.891601,Monte Foppa,2462.0
46.36825,9.931275,Pizzo Zupò,3996.0
46.33529,9.914572,Cima Orientale di Musella,3022.0
46.334824,9.909481,Cima Centrale di Musella,3088.0
46.334385,9.919598,Cima di Caspoggio,3136.0
46.33387,9.906206,Cima Occidentale di Musella,3039.0
46.32577,9.895684,Monte delle Forbici,2910.0
46.32564,9.869635,Sasso Nero,2917.0
46.25684,9.9158125,Monte Cavaglia,2731.0
46.342175,9.836622,Sassa d'Entova,3329.0
46.318653,9.928166,Sasso Moro,3108.0
46.355892,9.915421,Punta Quinto Alpini,3333.0
46.298447,9.883022,Monte Roggione,2361.0
46.321754,9.85823,Il Castello,2637.0
46.345573,9.919077,Punta Marinelli,3181.0
46.236694,9.957365,Corna Brutana,3059.0
46.232517,9.946528,Corna Nera / Cima di Rogneda Orientale,2926.0
46.235195,9.951867,Corno di Val Pisoi,2911.0
46.23223,9.973207,Dosso di Scespet,2748.0
46.230824,9.979853,Cima dei Motti,2769.0
46.269215,9.975997,Cima Val di Togno,3054.0
46.233196,9.940321,Corna Rossa / Cima di Rogneda Occidentale,2916.0
46.23401,9.941763,Cima di Rogneda Centrale,2918.0
46.251537,9.963639,Pizzo del Gombaro,2917.0
46.247475,9.971398,Cima Vicima,3122.0
46.256668,9.973955,Pizzo Painale,3247.0
46.2543,10.0031805,Cima d'Aiada,2751.0
46.281307,10.007163,Cima di Vartegna,2916.0
46.240685,9.96316,Punta Corti,3076.0
46.241875,10.004571,Cima Gigola,2558.0
46.283276,9.999628,Pizzo di Canciano,3103.0
46.25316,9.97351,Punta Vicima,3231.0
46.251022,9.988157,Cima di Forame,3053.0
46.315075,9.9940815,Cima delle Ruzze orientale,2797.0
46.24694,9.994037,Pizzo Calino,3025.0
46.28664,9.973298,Il Cornetto,2850.0
46.309402,9.960591,Monte Spondascia,2867.0
46.276768,9.979797,Cima di Val Fontana,3225.0
46.268234,9.945227,Monte Acquanera,2806.0
46.313183,10.000073,Corno Campascio / Corno delle Ruzze,2808.0
46.33866,9.979176,Cima Fontana,3068.0
46.27861,9.973413,Pizzo Scalino,3323.0
46.320477,9.98585,Piz Canfinal / Pizzo Confinale,2812.0
46.35603,9.958338,Sasso Rosso,3488.0
46.25328,9.9831915,Colle di Val Molina,3006.0
46.271687,10.003483,Il Campanilone,2646.0
46.277267,10.029369,Monte Garde,2702.0
46.277004,10.031227,Cima di Vartegna Sud,2669.0
45.85395,10.375484,Dosso dei Galli,2188.0
45.844208,10.367068,Monte Dasdana,2191.0
46.04372,9.604153,Monte Verrobbio,2136.0
46.05292,9.596944,Pizzo Val Carnera,2112.0
46.059967,9.592044,Pizzo Dosso Cavallo,2064.0
46.084892,9.5766,Pizzo Berro,1851.0
46.191433,9.578404,Cima del Colino,2510.0
46.103912,9.525972,Monte Olano,1718.0
46.154354,9.619959,Culmine di Dazio,916.0
46.04419,9.584874,Cima del Larice,2042.0
46.049767,9.52402,Il Piazzo,2269.0
46.027767,9.565256,Rocca di Pescegallo,2082.0
46.029133,9.595331,Monte Ponteranica Orientale,2378.0
46.031136,9.549237,Pizzo di Tronella / Pizzo del Mezzodì,2311.0
46.032726,9.549001,Dente di Tronella,2116.0
46.035892,9.595144,Pizzo della Nebbia,2243.0
46.052246,9.57168,Monte Motta,1984.0
46.019947,9.534479,Pizzo di Trona,2510.0
46.23134,9.554165,Pizzo Ratti,2914.0
46.22918,9.578594,Punta Virgilio,2482.0
46.191917,9.544021,Cima del Malvedello Orientale,2650.0
46.190212,9.520451,Monte Erbea,2432.0
46.22707,9.522449,Sasso Manduino,2888.0
46.220356,9.524464,Cima del Cavrè,2600.0
46.013237,9.565978,Pizzo di Giacomo,2184.0
46.026604,9.614516,Monte Mincucco,2001.0
46.201397,9.530486,Sasso Zucco,2050.0
46.22842,9.55719,Cima del Calvo Nord Ovest,2945.0
46.20173,9.561697,Cima del Desenigo (Monte Spluga),2844.0
46.090576,9.517489,Cima della Rosetta,2147.0
46.18685,9.525916,Monte Sciesa,2487.0
46.22971,9.5293865,Punta Volta,2755.0
46.230927,9.527916,Punta Como,2847.0
46.016655,9.607891,Monte Foppa,1895.0
46.02021,9.592982,Monte Triomen,2251.0
46.023144,9.520097,Pizzo Varrone,2325.0
46.11093,10.405218,Pian della Regina,2628.0
46.202522,9.651768,Cima di Granda,1709.0
46.067955,9.7023325,Pizzo Scala,2429.0
46.087456,9.643341,Monte Lago,2353.0
46.101772,9.6208515,Monte Baitridana,1880.0
46.06231,9.631666,Pizzo d'Orta,2184.0
46.05985,9.642213,Monte Azzarini (Fioraro),2431.0
46.072643,9.637587,Pizzo delle Piodere,2207.0
46.069782,9.645124,Monte Pedena,2399.0
46.227493,9.658641,Monte Piezza,2258.0
46.062088,9.661158,Pizzo del Vento,2235.0
46.0609,9.669079,Monte Tartano,2292.0
46.059086,9.687368,Pizzo del Vallone,2249.0
46.07218,9.696454,Monte Moro,2279.0
46.103783,9.722388,Pizzo Gerlo,2470.0
46.120083,9.659866,Pizzo della Pruna,1790.0
46.068382,9.668095,Foppone/ Cima del Laur,2304.0
46.105675,9.65422,Cima della Paglia,2115.0
46.13727,9.664039,Il Culmine,1301.0
46.110237,9.658144,Monte Piscino,2091.0
46.092125,9.647643,Monte Culino,2322.0
46.08511,9.686824,Dosso Tacher,2093.0
46.096176,9.649871,Monte Pisello,2272.0
46.115086,9.723817,Pizzo di Presio,2392.0
46.041508,9.686365,Cima dei Siltri,2172.0
46.04638,9.633234,Pizzo delle Segade,2173.0
46.05891,9.671042,Monte Azzaredo settentrionale,2254.0
46.02978,9.634684,Montu,1854.0
46.057198,9.657009,Picco della Porta,2107.0
46.015305,9.720798,Monte Secco,2291.0
46.024487,9.713398,Monte Pegherolo,2368.0
46.05172,9.6863575,Pizzo Rotondo,2240.0
46.07684,9.695265,Monte Gavet,2314.0
46.027462,9.699875,Pizzo Cavallino,2284.0
46.034462,9.690488,Monte Cavallo,2322.0
46.128674,9.701795,Cima Zocca,2166.0
46.148766,9.654999,Crap del Mezzodì,1040.0
46.10663,9.714066,Pizzo Torrenzuolo,2376.0
46.225803,9.707806,Sasso Arso,2332.0
46.210484,9.672454,Pizzo Mercantelli,2070.0
46.078068,9.744762,Cima Vallocci,2510.0
46.11192,9.807288,Monte Vespolo,2385.0
46.114643,9.805063,Pizzo Pidocchio,2327.0
46.21478,9.798399,Monte Arcoglio,2459.0
46.069603,9.81001,Cima Tonale,2542.0
46.12793,9.7914295,Dosso Morandi,1696.0
46.102707,9.810152,Cima Pizzinversa,2416.0
46.080605,9.809808,Punta Cerech,2409.0
46.090336,9.81231,Cima Sasso Chiaro,2393.0
46.07199,9.78141,Sponda Camoscera,2447.0
46.121876,9.765372,Pizzo Cornellone,1761.0
46.097202,9.777842,Cima Campello,2242.0
46.099884,9.728895,Monte Seleron,2519.0
46.10831,9.772151,Pizzo Lungo,2222.0
46.116016,9.768531,Pizzo della Corna,1871.0
46.214466,9.742115,Poggio del Cavallo,2557.0
46.080738,9.781968,Cima Vitalengo,2406.0
46.206577,9.732371,Dosso di Piviana,2197.0
46.218876,9.7302475,Cima Vignone,2608.0
46.211452,9.772989,Monte Colina,2449.0
46.05367,9.807153,Corno Stella,2618.0
46.221,9.741255,Pizzo Bello,2743.0
46.199104,9.822021,Monte Rolla,2277.0
46.218773,9.790436,Sasso Bianco,2490.0
46.209698,9.818566,Monte Canale,2522.0
46.007282,9.778131,Pizzo Vacca,1912.0
46.01879,9.805672,Monte Sardegnana,1904.0
46.0449,9.808827,Monte Chierico,2535.0
46.03248,9.765577,Pizzo del Vescovo,2175.0
46.056854,9.737457,Monte Valegino,2415.0
46.039284,9.773276,Monte Valgussera,2183.0
46.049774,9.736923,Monte Arete,2227.0
46.05944,9.781131,Monte Toro,2516.0
46.062916,9.745854,Monte Cadelle,2483.0
46.088985,9.968891,Pizzo Biorco,2734.0
46.102398,9.964888,Punta Santo Stefano,2692.0
46.037216,9.910195,Pizzo Poris,2716.0
46.10716,9.933798,Punta della Pessa,2470.0
46.11901,10.013947,La Motta,1942.0
46.111946,9.931741,Punta Campione,2278.0
46.070732,9.987166,Pizzo di Porola,2981.0
46.061775,9.927875,Pizzo Gro,2653.0
46.063705,9.8480215,Pizzo Baitelli,2496.0
46.011784,9.886185,Monte Madonnino,2502.0
46.030655,9.929489,Pizzo Ceppo,2296.0
46.084244,9.975737,Pizzo degli Uomini,2895.0
46.0572,9.845987,Cime dello Scoltador,2573.0
46.09547,9.960083,Pizzo di Rodes,2824.0
46.01003,9.989823,Pizzo della Corna,2352.0
46.094532,10.020889,Pizzo di Faila,2482.0
46.080685,9.906549,Monte Motta,2415.0
46.083244,9.850393,Cime Biorche,2453.0
46.080025,9.979659,Pizzo di Scotes,2973.0
46.03361,9.903623,Monte Grabiasca,2704.0
46.043976,9.836372,Monte Masoni,2656.0
46.04637,9.879174,Monte Aga,2720.0
46.045124,9.908226,Pizzo del Diavolo di Tenda,2914.0
46.010433,9.859558,Monte Val Rossa,2577.0
46.11084,9.863206,Punta Portorella,2150.0
46.051258,9.872177,Pizzo di Cigola,2625.0
46.208977,9.932915,Dosso Bruciato,2184.0
46.092487,9.854472,Pizzo Campaggio,2502.0
46.08902,10.026603,Cima della Foppa,2851.0
46.111294,9.977924,Pizzo Culdera,2171.0
46.21429,9.938497,Dosso Liscio,2387.0
46.010254,9.866476,Monte Cabianca,2601.0
46.0285,10.026045,Monte Toazzo,1813.0
46.073784,10.001562,Dente di Coca,2922.0
46.006645,10.009355,Monte Sponda Vaga,2068.0
46.066822,9.940183,Cima Soliva,2704.0
46.087257,10.031649,Cime dei Cagamei,2913.0
46.209538,9.98344,Crùs de Campondola,2139.0
46.06654,9.947928,Il Medasc Sud,2647.0
46.058075,9.910927,Pizzo del Salto,2665.0
46.19777,9.900559,Dosso della Foppa,1658.0
46.046005,9.997285,Pizzo Castello,2039.0
46.14205,9.93,Sasso della Nona,1291.0
46.06218,9.984324,Pizzo di Redorta,3039.0
46.039803,9.927947,Pizzo Tendina,2248.0
46.06255,9.935008,Pizzo Cavrin,2630.0
46.00719,9.987196,Monte Vigna Soliva,2356.0
46.075565,9.983105,Cima di Caronno,2855.0
46.05187,9.907131,Pizzo dell'Omo,2771.0
46.00766,9.848659,Monte dei Frati,2500.0
46.10475,9.867505,Pizzo Meriggio,2358.0
46.227512,9.930748,Corna Mara,2807.0
46.223854,9.9805765,Cima di Finale,2611.0
46.063297,9.87158,Cima Branda,2498.0
46.068436,9.984704,Punta di Scais,3034.0
45.92962,9.616092,Monte Venturosa,1999.0
45.95113,9.538252,Cima di Piazzo,2057.0
45.846546,9.557648,Monte Castello,1218.0
45.91744,9.515764,Zucco di Maesimo,1680.0
45.954666,9.517001,Zuccone Campelli,2159.0
45.870262,9.523796,Zucco di Valmana,1546.0
45.800735,9.587045,Colle Moscarino,894.0
45.817482,9.580739,Forcella di Berbenno,850.0
45.836426,9.614748,Corna Moltore,1192.0
45.84126,9.612384,Monte Corno,1329.0
45.901405,9.544215,Corno dell'Acqua,1186.0
45.946568,9.580097,Pizzo Baciamorti,2009.0
45.940063,9.547122,Monte Sodadura,2010.0
45.94988,9.555187,Monte Cantarso,1886.0
45.795,9.602318,Corna Marcia,1033.0
45.795975,9.61399,Monte Ubiale,972.0
45.858704,9.547776,Zucco di Pralongone,1500.0
46.00569,9.5414715,Cima Fontane,2095.0
45.866005,9.538176,I Canti,1563.0
45.906456,9.539216,Corno Zuccone,1458.0
45.90251,9.589466,Corna Picciola,1303.0
45.879898,9.607084,La Collina,1256.0
45.965492,9.517412,Corna Grande,2087.0
45.88066,9.591925,Cornello Pigazzo,910.0
45.976826,9.571568,Il Cornone,1285.0
45.957268,9.536922,La Cornetta,2053.0
45.907948,9.590422,Corna Bianca,1384.0
45.98667,9.565836,Pizzo del Rocco,1424.0
45.89771,9.589371,Corna dei Porci,1316.0
46.00467,9.569596,La Spalla,1718.0
45.986122,9.615136,La Colla,945.0
45.99653,9.550084,Zucco della Stremereggia,1659.0
45.979782,9.609176,Monte Disner,1342.0
45.989468,9.54295,Monte Pigolotta,1503.0
45.869003,9.614996,Pizzo Grande,1574.0
45.91655,9.562868,Corno del Bruco,1519.0
45.82149,9.563909,Colle San Pietro,933.0
45.987164,9.592509,Pizzo di Cusio,1465.0
45.849133,9.616659,Monte Foldone Cima Nord,1497.0
45.858418,9.610637,Monte Sornadello  - Cima Centrale,1580.0
45.84444,9.590873,Il Pizzo,845.0
45.896732,9.712995,Monte Vaccareggio,1475.0
45.838005,9.703517,Pizzo Rabbioso,1151.0
45.828243,9.687598,Pizzo Colvera,801.0
45.93224,9.720737,Monte Valbona,1822.0
45.809513,9.67266,Il Cornone,602.0
45.81131,9.664631,Il Pizzo,921.0
45.9265,9.698164,Monte Ortighera,1632.0
45.816628,9.648066,Zuccone dell'Arco,1227.0
45.95097,9.631434,Monte Saetta,1597.0
45.857224,9.702892,Monte Gioco,1366.0
45.8209,9.627502,Truca,991.0
45.86217,9.710722,Monte Zucchin,1206.0
45.82924,9.625106,Pizzo Cerro,1285.0
45.82132,9.656154,Monte Zucco,1232.0
45.83785,9.643885,Pizzo del Sole,1032.0
45.817905,9.645831,Corno dell'Arco,1260.0
45.998947,9.651176,Monte Faino,1564.0
45.834137,9.696185,Corna Maria,1057.0
45.95979,9.682301,Il Culmine,1216.0
45.83385,9.639184,Pizzoli,1014.0
45.830585,9.696413,Corna Camozzera,1047.0
45.854412,9.641696,Monte Molinasco,1176.0
45.835976,9.691962,Corna Pedezzina,962.0
45.886395,9.71206,Monte Pedrozzo,1265.0
45.91446,9.617806,Monte Cancervo,1835.0
45.94282,9.650437,Corna Grossa,1300.0
45.965584,9.679356,Monte del Sole,1323.0
45.92407,9.694686,Monte Medile,1589.0
45.983345,9.648216,La Bassa,1120.0
45.821045,9.761044,Pizzo Cornelli,1101.0
45.976242,9.790394,Monte Pietra Quadra,2356.0
45.827557,9.807103,Monte Ceresola,1193.0
45.796513,9.724807,Cima del Fop,1065.0
45.831486,9.765797,Monte Suchello,1541.0
45.78565,9.810322,Col del Batès,899.0
45.98289,9.792593,Monte del Tonale,2425.0
45.798397,9.782179,Monte Poieto,1360.0
46.004753,9.815702,Pizzo del Becco,2506.0
45.793903,9.778565,Monte Cornagera,1311.0
45.87209,9.769338,Cima della Spada,1952.0
45.784,9.801065,Monte Rena,1143.0
45.942486,9.807471,Corna Piana - Cima ovest,2302.0
45.895744,9.724802,Monte Castello,1472.0
45.99228,9.785143,Pizzo dell'Orto,2271.0
45.970966,9.814593,Monte delle Galline,2131.0
45.929474,9.759757,Cima di Menna,2300.0
46.000843,9.730532,Pizzo Badile,2044.0
45.809834,9.802183,Monte Cedrina,1124.0
45.939102,9.781342,Monte Vedro,2056.0
45.942932,9.762139,Croce di Pizzo,2040.0
45.790916,9.760895,Colle Botto,1025.0
45.78489,9.724406,Corna Bianca,1228.0
45.90781,9.822321,Cima di Grem,2049.0
45.961353,9.862828,Monte Zulino,1757.0
45.809376,9.842727,Monte Cloca,584.0
45.961525,9.889091,Cima di Bani,1779.0
45.839672,9.829056,Cima di Cavlera,1320.0
45.992493,9.850734,Monte Pradella,2626.0
45.97634,9.857268,Monte Crapele,2125.0
45.979008,9.870955,Costa di Corna Rossa,2078.0
45.960598,9.8699875,Monte di Zanetti,1712.0
45.78582,9.846521,Monte Bue,707.0
45.848663,9.855448,Il Colle,1009.0
45.847458,9.923947,Pizzo Formico,1636.0
45.835197,9.888765,Pizzo di Casnigo,1113.0
45.943165,9.8897505,Corno Negro,1289.0
45.98618,9.858619,Pizzo Salina,2490.0
45.784443,9.854897,Col Bec,679.0
45.990986,9.900036,Monte della Croce,1666.0
45.91749,9.894663,Cima Vaccaro,1958.0
45.822853,9.864916,Colle Petta,635.0
45.93333,9.863948,Cima del Fop,2316.0
45.793655,9.8645,Monte Beio,699.0
45.940014,9.855568,Pizzo del Verem,1619.0
45.97007,9.833514,Monte Campagano,2053.0
45.85963,9.895663,Corno Falò,1147.0
45.85367,9.900795,Corno Guazza,1270.0
45.99518,9.841236,Monte Aviasco,2408.0
45.78802,9.918073,Monte Pler,1051.0
45.88149,9.846496,Cima di Belloro (Cost'olta),1383.0
45.930904,9.841805,Cima Valmora,2198.0
45.931126,9.882218,Monte Secco,2266.0
45.849174,9.866057,Pizzo Frol,1055.0
45.78307,9.876724,Monte Cornello,774.0
45.928177,9.843836,Cima di Leten,2093.0
45.90179,9.9570055,Cima Crapet,1146.0
45.897083,9.951249,Monte Simer,961.0
45.87177,9.942777,Monte Beur,860.0
45.910225,9.994454,Castello,1271.0
45.98852,10.013074,Monte Vigna Vaga,2332.0
45.863857,10.029163,Cima Trifone,1174.0
45.815804,9.975831,Monte Palandone,1363.0
45.855064,10.019382,Monte Cuca,1112.0
45.819534,10.009164,Dosso del Falò,924.0
45.937393,10.020065,Monte Campo,1951.0
45.960117,9.989091,Cima di Timogno,2096.0
45.795315,10.026964,Monte Na,707.0
45.872437,10.021807,Cima Pizzo,1186.0
45.955505,9.961576,Monte Corru,1818.0
45.882298,10.000041,Falecchio,903.0
45.92621,10.008151,Monte Valsacco,1765.0
45.93086,9.958602,Cima Ba,1527.0
45.925224,10.028237,Pizzo Unel,1386.0
45.95525,9.97722,Cugno,1717.0
45.91153,10.0278845,Monte San Leonardo (cima minore),1122.0
45.879375,10.021252,Monte Bracchio,1023.0
45.891132,9.930096,Monte Nè,844.0
45.841366,9.95698,Monte Fogarolo,1526.0
45.95569,9.948442,Monte Redondo,1796.0
45.80075,9.928665,Monte Pizzetto,1208.0
45.963223,10.0308275,Monte Zuccone,1910.0
45.975685,9.987808,Il Collino,1793.0
45.980465,9.966597,Costa Magrera,1625.0
45.820915,9.979249,Monte di Sovere,1281.0
45.965588,9.992843,Cima Benfit,2170.0
45.80806,9.954262,Monte Sparavera,1369.0
45.94319,10.027641,Cima di Bares,1976.0
45.90908,9.976969,Cima Blum,1293.0
45.974773,10.028723,Monte Ferrante,2426.0
45.97164,9.989482,Monte Avert,2084.0
45.81142,9.988693,La Costa,1265.0
45.841576,10.023826,Corno Mailino,854.0
45.992508,10.022067,Pizzo di Petto,2259.0
45.999283,10.01945,Monte Barbarossa,2146.0
45.754642,9.727908,Pizzo di Lonno,782.0
45.74971,9.727856,Monte Ganda,698.0
45.776447,9.531827,Monte Linzone,1392.0
46.08807,10.454133,Monte Blisie,2424.0
46.189053,10.38833,Monte Piccolo,2323.0
46.183147,10.380011,Monte Colmo,2278.0
46.205475,10.396429,Monte Plazza,2107.0
46.172848,10.441234,Corno Baitone,3331.0
46.11158,10.39037,Piz di Olda,2495.0
46.140575,10.415815,Punta di Valrossa,2743.0
45.880936,10.493754,Costone delle Cornelle,2201.0
46.379303,9.952759,Pizzo Palù Occidentale/ Piz Spinas,3823.0
46.3788,9.960115,Pizzo Palù Centrale,3900.0
46.378956,9.964665,Pizzo Palù Orientale,3882.0
46.140602,10.362058,Dosso Fobbia,1181.0
45.573032,10.1941,Monte Picastello,383.0
45.69695,9.800081,Monti di Argon,482.0
45.689392,9.783407,Monte San Giorgio,433.0
45.672894,9.781923,Colle Tomenone,370.0
45.741154,9.540746,Picco,441.0
45.74035,9.5454445,La Vena,437.0
45.74294,9.5318575,Picco Alto,524.0
45.743023,9.522746,Monte Valmora,520.0
45.748844,9.535144,Monte Brocchione,508.0
45.767303,9.526257,Monte Piacca,1065.0
45.72518,9.623543,Colle Roccolone,359.0
45.774918,9.61936,Monte Tassera,632.0
45.77187,9.6500025,Corna dell'Uomo,972.0
45.775517,9.593393,Monte Ubione,895.0
45.761192,9.583209,Monte Castra,518.0
45.756516,9.638944,Monte dei Giubilini,596.0
45.759,9.616354,Monte Bastia,584.0
45.76076,9.658811,Monte Lumbric,829.0
45.714546,9.740301,Monte Bastia,424.0
45.70983,9.753538,Montecchio,350.0
45.745476,9.704779,Monte Zuccone,670.0
45.71693,9.74605,Monte del Roccolo,463.0
45.77262,9.7413845,Cima Rasgada,910.0
45.775757,9.733535,Monte Podona Cima Nord,1220.0
45.7616,9.676055,Campanua,902.0
45.75247,9.6839285,Monte Solino,838.0
45.757065,9.745022,Monte Valtrusa,894.0
45.749245,9.744208,Colle Bastia,595.0
45.76266,9.73453,I Corni,928.0
45.76525,9.697122,Monte del Cavallo,980.0
45.759106,9.70492,Monte Colletto,810.0
45.755882,9.673409,Monte Luvrida,827.0
45.709755,9.795828,Il Dosso,464.0
45.726444,9.811425,Monte Bastia,810.0
45.736774,9.818517,Monte Misma,1161.0
45.728176,9.842601,Cima Corna Clima,865.0
45.73571,9.83714,Pizzo,914.0
45.775787,9.759251,Monte Purito,1136.0
45.77895,9.773167,Monte Nigromo,899.0
45.590187,9.950931,Monte Orfano,452.0
45.66569,9.881606,Monte del Castello,624.0
45.66936,9.882607,Colle Lucetto,526.0
45.665833,9.854226,Monte Santo Stefano,547.0
45.67077,9.890736,Monte dell'Ingannolo,561.0
45.69257,9.8868,Monte Sega,710.0
45.700603,9.918776,Colle Zuccli,570.0
45.64274,9.976247,Monte Alto,650.0
45.63645,9.98592,Monte Castelli,353.0
45.655067,9.977719,Corno Pendita,500.0
45.647865,9.953785,Monte Sant'Onofrio,462.0
45.68129,9.974104,Monte Faeto,600.0
45.69248,9.995549,Corno Buco,966.0
45.701317,10.007482,Dosso di Brugo,944.0
45.68133,9.933783,Monte Dratto,540.0
45.694,9.960342,Monte Canzano,591.0
45.72168,9.856622,Pizzo Casgnola,792.0
45.73545,9.87262,Monte Pranzà,1095.0
45.7281,9.928097,Colle Zuccone,720.0
45.71122,9.848557,Monte Sasser,488.0
45.707264,9.895304,Colle La Guina,653.0
45.715023,9.894585,Pizzo di Quaglia,470.0
45.720264,9.912305,Monte Fossana,594.0
45.70323,9.897252,Punta Campo Alto,674.0
45.703648,9.903336,Pizzo Mosca,692.0
45.70534,9.918931,Monte Costa Dei Ronchi,727.0
45.706184,9.928854,Col Croce,710.0
45.7637,9.870582,Monte Altinello,996.0
45.75532,9.872284,Monte Gallo,821.0
45.77851,9.901509,Monte Crocione,998.0
45.76423,9.851554,Monte Altino,1018.0
45.732327,10.01488,Monte Mandolino,1106.0
45.74502,9.9338255,Monte Ballerino,1270.0
45.705925,10.009856,Colle di Barec,844.0
45.718086,9.939247,Monte di Grone,1192.0
45.744766,9.947117,Monte Gremalto,1322.4
45.735218,9.988219,Cima Campidelli,1175.0
45.713776,9.989941,Punta Piagnola,1226.0
45.745937,9.960817,Monte Foppa,1265.3
45.727215,9.989022,Colle Martinazzo,1037.0
45.730083,9.9707155,Pizzo della Sellina,903.0
45.70894,9.990966,Monte Bronzone,1334.0
45.722317,9.950599,Col Forca,1048.0
45.726536,10.020666,Monte Cremona,1078.0
46.396526,9.907647,Piz Prievlus,3610.0
46.41695,10.285085,Cima de' Piazzi,3439.0
46.284756,10.192548,Campiano,2771.0
46.24307,10.056177,Pizzo Malgina,2877.0
46.313423,10.174941,Dosso Sassumero,2552.0
46.28628,10.15423,Pizzo Banderuola,2830.0
46.307915,10.142871,Il Sasso,2811.0
46.30121,10.1378145,Pizzo Trevesina,2817.0
46.261494,10.187218,Monte Masuccio,2816.0
46.314064,10.116454,Sasso dell'Uomo,2789.0
46.244587,10.04364,Ganda Rossa,2746.0
46.269894,10.045678,Monte Saline,2805.0
46.264626,10.055901,Pizzo Murascio,2762.0
46.256958,10.0561695,Pizzo Sareggio,2779.0
46.340813,10.106833,Cima di Rosso,2856.0
46.3336,10.099142,Sassalb,2844.0
46.31839,10.146893,Monte Pedruna,2536.0
46.31946,10.167846,Punta Confinale,2396.0
46.322777,10.112793,Pizzo di Sassiglione,2855.0
46.32639,10.124064,Punta Lavinale,2676.0
46.359787,10.182311,Pizzo Matto,2986.0
46.348953,10.1277075,Matto della Chiesa,2578.0
46.34576,10.16098,Sasso Farinaccio,2770.0
46.381737,10.134732,Cima di Ruggiolo,2919.0
46.373676,10.194811,Dosso Camoscio,2621.0
46.376892,10.1629,Pizzo Ricolda,2959.0
46.374874,10.127752,Punta del Teo,2988.0
46.364918,10.181705,Dosso Sabbione,2853.0
46.39049,10.163895,Cima Dugorale,3188.0
46.291553,10.201429,Dosso Cornin,2775.0
46.300358,10.198641,Camanasco,2597.0
46.29701,10.206807,Dosso Campesello,2506.0
46.25866,10.306498,Monte del Calore,2029.0
46.250954,10.302822,Dos Signöl,1953.0
46.25416,10.36474,Pianaccio,2182.0
46.2308,10.297132,Cima Verda,2407.0
46.263035,10.315519,Monte Resverde,2349.0
46.269764,10.336712,Cime di Grom,2770.0
46.29267,10.370648,Corno Tremoncelli,2868.0
46.291054,10.321781,Pizzo Alto,2530.0
46.290115,10.345254,Monte Serottini,2963.0
46.27594,10.348943,Monte Seroti,2645.0
46.282066,10.321479,Varadega,2635.0
46.27683,10.338952,I Dossoni,2853.0
46.293705,10.324042,Pizzo Alto alla Croce,2502.0
46.3291,10.274374,Monte Storile,2471.0
46.35223,10.223285,Monte Saline,2621.0
46.347687,10.213407,Monte Alpisella,2749.0
46.34955,10.202263,Sasso Campana,2913.0
46.388172,10.227134,Sasso di Conca,3143.0
46.384655,10.2123,Cima Orientale di Lago Spalmo,3291.0
46.37325,10.281761,Matto del Redasco,2597.0
46.39348,10.245735,Sasso Calosso,2531.0
46.400665,10.272267,Sasso Maurigno,3057.0
46.40323,10.281228,Pizzo Campaccio,3142.0
46.403027,10.229748,Sassi Rossi,3118.0
46.389977,10.291816,Pizzo Coppetto,3064.0
46.386337,10.303198,Sasso Terraccio,2957.0
46.380436,10.31166,Monte Zandila,2934.0
46.364414,10.291677,Dosso dell'Oca,2875.0
46.367893,10.29987,Cima Rossa,3092.0
46.369686,10.307636,Cima Redasco,3137.0
46.374653,10.365494,Rocca di Serravalle,1481.0
46.399826,10.286095,Cima di Campello,3046.0
46.397575,10.288509,Cima Riacci,3009.0
46.270912,10.4277315,Cima Muralta,2523.0
46.268623,10.4451885,Corni della Torre,2235.0
46.27309,10.417264,Cima Rovaia,2525.0
46.28395,10.425842,Corno del Tirlo,2785.0
46.28748,10.424569,Savordello,2922.0
46.28788,10.4238615,Cime del Tirlo,2911.0
46.278603,10.430935,Monte Bles,2823.0
46.28213,10.426528,Cima Mattaciul,2849.0
46.30632,10.451098,Piramide di Somalbosco,3087.0
46.294872,10.422556,Cime di Glere,2778.0
46.30857,10.430449,Cime di Pietra Rossa,2867.0
46.28694,10.37759,Corni di Cevole,2785.0
46.284103,10.377148,Corni delle Valli,2757.0
46.280212,10.4166155,Cime delle Relle,2529.0
46.279694,10.372144,Monte Tremoncelli,2566.0
46.307655,10.3888235,Sasso Grande,2669.0
46.291325,10.468697,Monte Coleazzo,3006.0
46.29491,10.461858,Piramide di Somalbosco,3102.0
46.284954,10.48876,Cima Bleis di Somalbosco,2638.0
46.334408,10.3875,Môt Grande,2198.0
46.323917,10.437305,Punta di Pietra Rossa,3275.0
46.341385,10.443739,Punta Valmalza,3094.0
46.393784,10.393887,Monte Mala,2946.0
46.38792,10.419769,Punta di Sassalbo,3078.0
46.40347,10.394471,Monte Monteni,3042.0
46.38082,10.450299,Sassi Neri,2990.0
46.354004,10.47247,Monte Gavia,3220.0
46.320892,10.464936,Punta di Monticelli,2643.0
46.370514,10.487733,Cima di Gavia,2987.0
46.412914,10.149321,Dosson,2529.0
46.42816,10.143996,Pizzo Confine,2897.0
46.440693,10.079129,Monte Vago,3050.0
46.442066,10.169183,Pizzo della Valle,2987.0
46.446213,10.158408,Pizzo Zembrasca,3089.0
46.43101,10.168084,Pizzo Bianco,2827.0
46.433495,10.13204,Monte Val Nera,3182.0
46.40966,10.225862,Pizzo di Dosdè,3280.0
46.423805,10.218833,Pizzo di Selva,2987.0
46.420357,10.272885,Corni di Verva,3335.0
46.417667,10.277245,Corno Sinigaglia,3312.0
46.432182,10.305573,Corno di San Colombano,3021.0
46.421867,10.309065,Monte Grava,2881.0
46.423435,10.303579,Monte Rinalpi,3012.0
46.413845,10.302401,Dosso dei Mot,2850.0
46.446785,10.294194,Pizzo Borron,2708.0
46.439735,10.271457,Dosso Penaglia,2411.0
46.433598,10.248249,Corno delle Pecore,2621.0
46.40672,10.258409,Monte Maurignino,2672.0
46.4277,10.236604,Sasso di Castro,2441.0
46.43028,10.218813,Monte Verva,2692.0
46.41453,10.402806,Monte Vallecetta - Cima Nord,3148.0
46.420547,10.41107,Cima Bianca,3012.0
46.41242,10.384308,Monte Oultoir,2690.0
46.050724,10.0840225,Pizzo Tre Confini,2824.0
46.02156,10.052921,Monte Sasna,2216.0
46.01514,10.086564,Pizzo Pianezza,2046.0
46.040546,10.047181,Monte Pomnolo,2257.0
46.05448,10.09307,Monte Gleno,2883.0
46.04369,10.056639,Monte Cimone,2531.0
46.026604,10.052998,Monte Crostaro,2102.0
46.051136,10.194027,Monte del Matto,2406.0
46.051586,10.1753235,Monte Sellerino,2503.0
46.02569,10.170301,Monte Gaffione,2036.0
46.03004,10.113577,Monte Tornone,2573.0
46.03005,10.18542,Monte Busma,2136.0
46.042427,10.184218,Monte Poiat,2324.0
46.044064,10.149778,Monte Bognaviso,2287.0
46.036873,10.126716,Pizzo dell'Aquila,1949.0
46.010677,10.279941,Cima della Bacchetta,2549.0
46.007236,10.217115,Monte di Vai Piane,2181.0
46.01134,10.241559,Cima Crap,2203.0
46.047787,10.271841,Cima Sfandita,2124.0
46.04461,10.265186,Monte Cuel,2191.0
46.03641,10.230378,Monte Gardena,2117.0
46.0249,10.274594,Dosso Saret,2035.0
46.051544,10.281153,Cima di Tanerle,2194.0
46.01578,10.257122,Cima Mengol,2417.0
46.04528,10.202924,Monte Pertecata,2281.0
46.043694,10.245859,Monte Giovo,1964.0
46.01594,10.280141,Cima dei Ladrinai,2400.0
46.032547,10.207868,Monte i Colli,2087.0
46.036087,10.250732,Monte Campione,2171.0
46.00736,10.299539,Pizzo degli Orti,1663.0
46.003662,10.286023,Monte Vaccio,2338.0
46.05595,10.298746,Monte Elto,2147.0
46.052612,10.318786,Monte Adamone,1640.0
46.028175,10.409538,Cima Bruciata,2018.0
46.030743,10.422095,Cima Sablunera,2604.0
46.002453,10.408597,Cima Vaga,2391.0
46.002098,10.383106,Sella Nanti,1633.0
46.00911,10.42629,Corno Craper,2553.0
46.016926,10.437659,Corno delle Pile,2806.0
46.021767,10.4403,Cima del Dosso,2794.0
46.010746,10.430952,Cima Becani,2674.0
46.01881,10.438472,Cima Tredenus Settentrionale,2783.0
46.014477,10.436709,Cima Tredenus Meridionale,2793.0
46.050465,10.397213,Monte Colombè,2152.0
46.07507,10.043895,Pizzo Cappuccello,2713.0
46.076927,10.048262,Pizzo di Cavrel,2824.0
46.060295,10.09289,Monte Trobio,2859.0
46.059708,10.074647,Corni Neri,2650.0
46.090855,10.083352,Cima Occ. di Caronella,2796.0
46.057976,10.05386,Monte Verme,2204.0
46.0934,10.174497,Monte Lorio,2674.0
46.072197,10.175851,Monte Colombaro,2686.0
46.08101,10.184819,Monte Sellero,2733.0
46.09263,10.1793995,Monte Telenek,2748.0
46.06202,10.133049,Monte Demignone,2583.0
46.128113,10.1702585,Monte Palabione,2358.0
46.119087,10.165757,Dosso Pasò,2576.0
46.103127,10.172945,Monte Torsolazzo,2604.0
46.121914,10.1571455,Monte Filone,2416.0
46.11363,10.166371,Cupecc,2535.0
46.11024,10.167905,Cima Cadin,2567.0
46.21626,10.039949,Monte Brione,2547.0
46.219776,10.0424795,Monte Calighè,2703.0
46.22775,10.101497,Vetta Salarsa,2279.0
46.22498,10.132306,Sasso Lughina,1469.0
46.167984,10.154922,Monte della Croce,1485.0
46.15534,10.132941,Monte Belvedere,1506.0
46.06337,10.219827,Monte Gaviera,2289.0
46.070007,10.212887,Monte Largone,2450.0
46.076954,10.208639,Cima Becarie,2453.0
46.082294,10.236264,Monte dei Matti,2323.0
46.081985,10.208601,Monte Culvegla,2614.0
46.093113,10.208264,Monte Borga,2734.0
46.097584,10.2218485,Monte Castel di Piccolo,2678.0
46.092957,10.23111,Piz Svolt,2642.0
46.09825,10.265873,Il Pilone,2171.0
46.096634,10.254248,Cima di Mezzo,2388.0
46.090775,10.226544,Monte Torsoleto,2706.0
46.122208,10.206305,Cima di Forame,2425.0
46.14162,10.233306,Monte Forcella,2060.0
46.134003,10.250455,Corno di Barbione,2384.0
46.1063,10.206135,Monte Sessa,2587.0
46.117687,10.203829,Corno dell'Agna,2471.0
46.125107,10.260575,Monte Palone di Bondone,2535.0
46.139614,10.277657,Piz Tri,2308.0
46.10037,10.2442875,Monte Palone del Torsolazzo,2670.0
46.122955,10.27671,Monte Crap,2084.0
46.10276,10.251076,Cima di Cadino,2575.0
46.114315,10.255593,Monte Palone del Sopressà,2588.0
46.108772,10.250364,Monte Zinglo Bernù,2597.0
46.05649,10.305721,Pizzo Garzeto,2088.0
46.116577,10.347408,Corno Cradè,1177.0
46.106182,10.324517,Corni delle Ampirie,950.0
46.109997,10.360326,Dò della Rocca,1781.0
46.100876,10.334951,Doss de l'Ora,1223.0
46.18662,10.227407,Monte Padrio,2152.0
46.146744,10.226141,Sasso di Voltur,1828.0
46.21483,10.216996,Mot Bas,1119.0
46.21987,10.281945,Motto Alto,2259.0
46.199757,10.271206,Dosso Sopra il Bagno,2181.0
46.213444,10.282081,Motto della Scala,2334.0
46.22245,10.340346,Dosso Castelletto,1589.0
46.191242,10.227613,Monte della Colma,2143.0
46.211178,10.271349,Dosso San Giacomo,2232.0
46.193897,10.27469,Monte della Piana,2109.0
46.18913,10.304121,Dosso Campla,1658.0
46.1162,10.417157,Corno Calcinaio,2466.0
46.11369,10.439864,Cima del Coppo,2769.0
46.117535,10.440803,Campanone del Coppo,2761.0
46.116695,10.404193,Pala di Marosa,2222.0
46.14117,10.407375,Cima di Val Lussero,2354.0
46.1308,10.371381,Dosso del Pagarol,1604.0
46.082417,10.437995,Monte Zuccone,1975.0
46.11312,10.414173,Cima del Coppetto,2646.0
46.111332,10.429311,Monte Marser,2775.0
46.164227,10.41403,Punta Adami,3007.0
46.151955,10.390965,Castel Camosci,2041.0
46.180794,10.388231,Monte Foppa,2408.0
46.16496,10.426486,Roccia Baitone,3259.0
46.165066,10.422782,Corni di Val Rabbia,3240.0
46.158043,10.423057,Cima delle Granate,3160.0
46.16208,10.426701,Il Castelletto,3164.0
46.154716,10.423221,Corno delle Granate,3104.0
46.152977,10.438691,La Montagnola,2536.0
46.146477,10.41609,Monte Bonpià,2857.0
46.16948,10.431471,Cima dei Laghi Gelati,3254.0
46.178764,10.418439,Corno di Gallinera,2453.0
46.18601,10.440822,Corno Giuello,2997.0
46.182613,10.44392,Cime di Lavedole Nord,3048.0
46.176334,10.442094,Cima Laste,3218.0
46.18049,10.443176,Cime di Lavedole Sud,3074.0
46.17465,10.441008,Cima Wanda,3265.0
46.2047,10.432556,Corno Pornina,2812.0
46.195587,10.441514,Cima Gole Larghe,3003.0
46.194763,10.397731,Corno Plazza,2652.0
46.19621,10.397968,La Porta,2582.0
46.20391,10.435126,Il Forcellone,2710.0
46.203167,10.436062,Cime di Vallaro,2901.0
46.191265,10.399103,Punta di Val Finale,2728.0
46.190357,10.442429,Cima Gabriele Rosa,2972.0
45.778442,10.130964,Monte Agolo,1366.0
45.784492,10.115697,Monte Novale,1194.0
45.78226,10.117908,Monte Aguina,1248.0
45.791035,10.161605,Dosso della Pedona,1413.0
45.779945,10.165606,Dosso della Ruccola,1436.0
45.810818,10.189664,Monte Fontanasesa,1588.0
45.81703,10.13955,Dosso della Regina,1048.0
45.798664,10.034971,Monte Clemo,785.0
45.87506,10.046286,Monte Cornet,1431.0
45.86064,10.103281,Punta Covolo,1406.0
45.85052,10.056126,Monte Colombina,1458.0
45.80604,10.151069,Cima di Tet,1366.0
45.86157,10.055079,Punta Co de Soch,1429.0
45.801395,10.151677,Dosso Camussone,1433.0
45.824337,10.174199,Monte Rotondo,1181.0
45.85336,10.036205,Monte Torrione,1307.0
45.806473,10.053065,Monte Quaglia,365.0
45.920532,10.037987,Il Pisterlino,1196.0
45.881836,10.057078,Punta Vallerina,1403.0
45.922768,10.090613,Monte Scanapa,1669.0
45.888607,10.06715,Cima di Campo,1364.0
45.895256,10.04587,Monte Varro,1214.0
45.947567,10.041883,Pizzo Olone,1985.0
45.933037,10.033457,Cima Carnet,1560.0
45.938946,10.041911,Pizzo Cremisano,1560.0
45.93684,10.052349,Monte Cornetto,1786.0
45.926067,10.0528145,Corna Rossa di Bratto,1354.0
45.935608,10.091822,Cima Gulter,1630.0
45.930035,10.065527,Monte Sarradone,1446.0
45.96543,10.04898,Cima Verde,2119.0
45.96123,10.065293,Colle della Guaita,2093.0
45.910057,10.170897,Dosso di Campolungo,1668.0
45.918575,10.18569,Monte Erbanno,1663.0
45.914036,10.146242,Monte Poia,1234.0
45.888638,10.193829,Castelletto,307.0
45.92641,10.191545,Corna Rossa,1539.0
45.941113,10.145494,Monte Tauggine,1527.0
45.965233,10.152462,Il Costone,1937.0
45.953438,10.118854,Corna Mozza,1429.0
45.92927,10.141807,Monte Chigozzo,1599.0
45.970726,10.031939,Monte Ferrantino,2325.0
45.981674,10.177561,Pizzo Camino,2491.0
45.982845,10.058798,Monte Zanari,1600.0
45.975548,10.177173,Cima Moren,2417.0
45.97011,10.168252,Corna di San Fermo,2329.0
45.97523,10.043217,Corna Gemelle,2007.0
45.98735,10.1527405,Pian dei Ballerini,1954.0
45.99055,10.186566,Monte Susino,2399.0
45.978622,10.131499,Pianezze,1462.0
45.977985,10.19301,Monte Arano,1940.0
45.781063,10.287699,Dosso della Puda,1241.0
45.78744,10.310962,Monte Visigno,1546.0
45.792217,10.293582,Dosso dell'Apice,1189.0
45.78666,10.334129,Dosso Falcone,1700.0
45.79136,10.23784,Punta Castel Vanil,1207.0
45.778164,10.322917,Monte Campello,1642.0
45.781246,10.32405,Monte Ario,1755.0
45.82062,10.2246475,Dosso Rotondo,1820.0
45.81535,10.206644,Monte Corniolo,1763.0
45.804966,10.27855,Cima Sorti,1010.0
45.807434,10.281119,Cima Valli Scave,1076.0
45.81054,10.230761,Dosso Re di Campo,1640.0
45.796352,10.200049,Colma di San Zeno,1660.0
45.833183,10.248966,Monte Muffetto,2062.0
45.808285,10.211343,Colma di Marucolo,1857.0
45.827717,10.225763,Monte Splaza,1826.0
45.79975,10.260003,Punta di Piorre,1103.0
45.810432,10.216883,Monte Campione,1832.0
45.868576,10.215019,Corno Pisagnocchi,1199.0
45.875523,10.233061,Colmet,1704.0
45.869816,10.232245,Dosso Blussega,1811.0
45.870262,10.248028,Dosso della Tesa,1450.0
45.84418,10.247949,Dosso Beccheria di Bassinale,1972.0
45.843666,10.267244,Cima Toricella,2012.0
45.846973,10.275645,Corni del Diavolo,2036.0
45.84221,10.264435,Corno Mura,1913.0
45.84359,10.234334,Dosso Bassinaletto,1806.0
45.849655,10.2522135,Dosso Sparviero,1893.0
45.84673,10.20743,Corno Torricella,1443.0
45.845676,10.270643,Monte Rosello,2030.0
45.87995,10.244521,La Rocchetta,1099.0
45.874207,10.262943,Dosso del Giustadur,1745.0
45.82589,10.2962675,Mericolo,1543.0
45.806896,10.310039,Dosso Magnolo,1007.0
45.858555,10.310052,Monte Colombino,2135.0
45.86611,10.320571,Dosso Betti,2145.0
45.87979,10.315584,Monte Bresciana,1951.0
45.87509,10.313739,Punta dell'Arciprete,2074.0
45.852306,10.285166,Monte Stabil Fiorito,1997.0
45.86793,10.294661,Monte Fra,2158.0
45.856182,10.334413,Dos Mà,2016.0
45.892277,10.239501,Dosso di Selz,1024.0
45.895412,10.250074,Dosso di Bosico,1321.0
45.90008,10.234546,Corno dell'Orselù,734.0
45.88238,10.227072,Corno Ceriale,1288.0
45.882668,10.236461,Il Dossone,1288.0
45.896557,10.202884,Monticolo,393.0
45.912163,10.254149,Dosso delle Plagne,658.0
45.888252,10.246022,Rocchetta Selz,1341.0
45.909943,10.24317,Dosso dei Porti,579.0
45.906418,10.24236,Dosso della Regina,719.0
45.928894,10.21149,Colma Balestrini,1236.0
45.930393,10.197097,Monte Lò,1457.0
45.96355,10.214596,Dos d'Averta,1500.0
45.96602,10.281267,Colle dell'Oca,1097.0
45.88827,10.307113,Dosso Acuto,1888.0
45.88177,10.297345,Dosso dell'Asino,1906.0
45.899006,10.296287,Monte Bodrello,1725.0
45.959587,10.326668,Dosso Argai,787.0
45.9398,10.30455,Dosso del Cerreto,882.0
45.996284,10.293999,Il Cornone,1941.0
45.974075,10.283275,Pizzo Alto,1339.0
45.9744,10.220406,Monte Mignone,1743.0
45.98811,10.287303,Dosso Isiga,1562.0
45.77814,10.350396,Monte Tigaldine,1745.0
45.780643,10.346997,Monte Frondine,1787.0
45.787678,10.3436985,Monte Pezzeda,1798.0
45.79257,10.364057,Monte Pezzolina,1792.0
45.869972,10.358256,Dosso della Fiora,2139.0
45.84739,10.356362,Monte Colombine,2217.0
45.78256,10.49019,Cima Cereto Chetoi,934.0
45.77645,10.392053,Cima della Fona,1539.0
45.79051,10.414594,Dosso Sambuco,1037.0
45.79095,10.478663,Cima Valcaelli,1360.0
45.77625,10.492308,Monte Censo,1013.0
45.795387,10.4196205,Cima della Zerna,1480.0
45.8176,10.450018,Monte Pizza,1420.0
45.8016,10.39934,Corno Barzò,1848.0
45.797802,10.392669,Monti di Paio (Cima Est),1733.0
45.87109,10.380676,Pizzo Mortaio,2154.0
45.860363,10.392984,Punta Setteventi,2251.0
45.87635,10.411381,Dosso Pozza Rotonda,2214.0
45.87408,10.421585,Monte Molter,2200.0
45.870533,10.434727,Punta della Banderola,1939.0
45.85564,10.39766,Monte Matto,2201.0
45.87105,10.413411,La Marla,2021.0
45.80914,10.46964,Monte Spezie,1195.0
45.793697,10.467028,Cima Ora,1534.0
45.80249,10.479061,Monte Breda,1504.0
45.87777,10.491346,Dosso Matti,2172.0
45.87865,10.480961,Monte Sottone,2174.0
45.876183,10.471096,Dosso del Matto,2102.0
45.84555,10.480379,Monte Carena,1954.0
45.868557,10.484791,Monte Telegrafo,2151.0
45.84459,10.468897,Corno Val Verdi,1662.0
45.886257,10.348718,Dosso Figarolo,1909.0
45.88506,10.367835,Monte San Gallo,2054.0
45.89671,10.362294,Dosso Santo,1839.0
45.909554,10.343494,Monte Fles,1705.0
45.949932,10.363569,Monte del Palo,2043.0
45.97119,10.364668,Dosso Cochet,1418.0
45.888744,10.413165,Monte Mignolo,2111.0
45.897038,10.397383,Monte Rondenino,2089.0
45.901222,10.444211,Monte Misa,2184.0
45.900753,10.421353,Monte Gera,2033.0
45.899963,10.406052,Monte Croce Domini,2055.0
45.965416,10.451408,Cima Laione,2763.0
45.943756,10.440758,Creste di Laione,2393.0
45.94611,10.413971,Monte Frerone,2673.0
45.925762,10.425969,Dossi di Cadino,2054.0
45.9271,10.379145,Monte Trabucco,2230.0
45.956394,10.4297285,Cima Terre Fredde,2644.0
45.965538,10.386216,Corno delle Tele,2328.0
45.96345,10.388498,Monte Ferone,2358.0
45.953674,10.405793,Monte Stabio,2535.0
45.959175,10.4314,Cima Galliner,2573.0
45.950237,10.3752575,Monte Zincone,2211.0
45.939365,10.397602,Frer,2410.0
45.942757,10.365424,Monte Alta Guardia,2226.0
45.947407,10.378243,Dosso Meraviglia,2106.0
45.908787,10.495654,Dosso dei Laghi,2122.0
45.924168,10.489775,Punta della Ecie,2388.0
45.933014,10.491078,Monte Boia,2582.0
45.967083,10.461329,Scoglio di Laione,2594.0
45.97191,10.488363,Monte del Gelo,2618.0
45.967396,10.488699,Monte Serosine,2573.0
45.98021,10.396715,Corno della Vacca,1817.0
45.99299,10.443304,Corni del Palone,2409.0
45.991074,10.453272,Monte Monoccola,2683.0
45.973015,10.38137,Corno di Cadinello,1952.0
45.96938,10.383935,Monte Mezzullo,2302.0
45.998154,10.456377,Monte Rossola,2721.0
45.97424,10.4043865,Cima del Vallone,2111.0
46.02168,10.48346,Monte Re di Castello,2891.0
46.02566,10.453175,Cime di Val Ghilarda,2784.0
46.041054,10.482628,Corno della Vecchia,2396.0
46.017056,10.464761,Cima Gellina,2772.0
46.009556,10.45744,Cima Rossola,2730.0
46.021496,10.472277,Cima Dernal,2824.0
46.120102,10.45245,Corni di Cevo,2758.0
46.096275,10.479322,Corno di Lendeno,2824.0
46.09666,10.474492,Corni di Bos,2788.0
46.06989,10.497402,Monte Ignaga,2650.0
46.12462,10.476735,Corno di Macesso,2959.0
46.132416,10.48472,Corno Remulo,3010.0
46.122444,10.468295,Corno orientale di Cevo,2843.0
46.1222,10.467253,Corno occidentale di Cevo,2832.0
46.128258,10.482381,Cima Prudenzini,3021.0
46.16161,10.452615,Corno Premassone Sud,3076.0
46.163685,10.450575,Corno Premassone Nord,3076.0
46.200993,10.453258,Corno di Mezzodi`,2961.0
46.221176,10.456403,Monte Calvo,2194.0
46.151646,10.491563,Cima del Laghetto,3364.0
46.151005,10.483306,Punta Prina,3094.0
46.143227,10.493557,Corno Miller,3372.0
46.151115,10.487328,Punta Gianni,3150.0
46.151752,10.466389,Punta Alessandro,3068.0
46.185436,10.495644,Punta Nino Calvi,2907.0
46.194717,10.485253,Pizzo Quadro,2502.0
46.210945,10.459967,Monte di Mezzodì,2540.0
45.612114,10.08651,Monte Valenzano,343.0
45.6116,10.10298,Monte Delma,387.0
45.633972,10.062828,Monte Piane,313.0
45.65268,10.088042,Colma Alta,709.0
45.61891,10.054139,Monte di Fantecolo,335.0
45.645824,10.056517,Monte Cognolo,672.0
45.65166,10.101042,Colmetto,656.0
45.6466,10.052728,Corno del Creilì,611.0
45.631413,10.067148,Monte San Michele,367.0
45.631474,10.059374,Monte Pollo,311.0
45.651016,10.083444,Colma Bassa,669.0
45.6695,10.06988,Montecolino,210.0
45.678276,10.078955,Montecolo,291.0
45.6509,10.110194,Il Cimarone,727.0
45.651752,10.125221,Monte Faeto,742.0
45.770763,10.085627,Corna Trentapassi,1244.0
45.77141,10.097473,Forcelle di Coloreto,992.0
45.771465,10.10779,Corni Capreni,1133.0
45.73039,10.121154,Punta dei Dossi,960.0
45.728634,10.129802,Punta Val Mora,1117.0
45.76378,10.095169,Dosso Tondo,1079.0
45.74437,10.112244,Punta Calarusso,859.0
45.746494,10.028722,Monte Creò,1106.0
45.744976,10.123489,Punta Val Fellera,1114.0
45.761257,10.095128,Monte Vignole,1095.0
45.605087,10.18216,Monte Cornone,501.0
45.614494,10.1387825,Monte Colmetto,615.0
45.654484,10.18274,Monte della Sella,675.0
45.637833,10.16123,Monte Pernice,899.0
45.626957,10.179542,Dosso Zoadello,615.0
45.637592,10.133088,Dosso Chimina,494.0
45.631355,10.165015,Monte Magnoli,877.0
45.65765,10.174674,Pizzo Cornacchia,966.0
45.644905,10.167724,Monte Bruciato,926.0
45.624744,10.1435375,Colma Alta,671.0
45.650166,10.135036,Monte Montecolo,694.0
45.672867,10.131426,Monte Castellino,1012.0
45.66302,10.145355,Monte della Pugna,777.0
45.692146,10.131436,Punta Ventura,1030.0
45.69596,10.140677,Monte Eclinetto,1099.0
45.660862,10.134872,Monte Ambrogio,674.0
45.68937,10.138399,Monte Rodondone,1143.0
45.684765,10.164691,Colma di Domaro,950.0
45.624653,10.2296,Dosso Ranzone,930.0
45.599182,10.204818,Dosso Boscone,381.0
45.600815,10.199397,Monte Scapia,333.0
45.69805,10.2273855,Punta Carneda,984.0
45.69055,10.201732,Punta Ramenghi,922.0
45.683975,10.214596,Monte Calvario,1131.0
45.683784,10.226151,Monte Sant'Emiliano,1191.0
45.68295,10.219491,Corna Rossa,1154.0
45.639137,10.212869,Monte Corto,634.0
45.679543,10.208185,Cappello di Navezze,1070.0
45.623486,10.214325,Dosso Corno,610.0
45.573486,10.203717,Monte Ratto,360.0
45.704884,10.162832,Punta Tesoro,1029.0
45.728905,10.186696,Corne dei Tù,1300.0
45.72877,10.158033,Dosso Fontanazzo,1283.0
45.7353,10.172722,Dosso della Tensone,1230.0
45.73951,10.138571,Punta Tisdel,1330.0
45.713512,10.153367,Punta Almana,1390.0
45.7366,10.154783,Dos Gargia,1220.0
45.74153,10.13351,Monte Pura,1007.0
45.72733,10.14142,Monte Caprello,1236.0
45.744015,10.15251,La Testata,1470.0
45.71936,10.194758,Corni Rossi,1236.0
45.767498,10.1541815,Punta Caravina,1850.0
45.773666,10.179771,Colma di Vivazzo,1458.0
45.7725,10.159042,Medeletto,1567.0
45.75558,10.150414,Corno del Bene,1685.0
45.75218,10.1448,Corno Frere,1412.0
45.762486,10.160158,Dosso Pedalta,1957.0
45.750427,10.173847,Corna Tiragna,1857.0
45.759617,10.132848,Bluzena,1320.0
45.73306,10.196753,Monte Bifo,1475.0
45.72413,10.199054,Monte Lividino,1361.0
45.745373,10.198097,Monte Stalletti,1691.0
45.76282,10.201868,Dosso dello Strangolo,1374.0
45.736652,10.217274,Monte Cerreto,1020.0
45.766342,10.201,Dosso Pelato,1332.0
45.761097,10.197957,Dosso,1345.0
45.752575,10.221162,Monte Castelletto,1118.0
46.396652,9.793362,Piz Chüern,2686.0
45.612823,10.242433,Dosso Cornasello,605.0
45.601246,10.234164,Il Monticello,307.0
45.57703,10.249044,Monte San Giuseppe,393.0
45.602345,10.269072,Monte Pesso,912.0
45.561337,10.338417,Monte Paina,672.0
45.555782,10.348066,Monte Sapone,345.0
45.563076,10.297819,Monte Salena,862.0
45.556488,10.291719,Monte Denno,873.0
45.559998,10.317977,Monte del Conte,364.0
45.56013,10.33128,Monte Fratta,698.0
45.568523,10.331015,Monte Cucchetto,640.0
45.565094,10.319235,Monte Pistone,428.0
45.5681,10.343906,Monte Fratte,669.0
45.569317,10.336926,Monte Rotondo,663.0
45.560993,10.357111,Monte Rosa,466.0
45.5868,10.327675,Monte Dragoncello,1097.0
45.58042,10.319654,Monte Bonaga,980.0
45.598476,10.331461,Dosso del Lupo,1156.0
45.596493,10.301786,Monte Montecca,665.0
45.59839,10.322144,Monte Dragone,937.0
45.614426,10.28413,Colma Dosso,1033.0
45.605885,10.300097,Monte Rozzolo,610.0
45.61279,10.288081,Monte Pornio,965.0
45.57774,10.297007,Monte Frattina,324.0
45.58568,10.343932,Monte Zucco,985.0
45.58941,10.351051,Monte Pedule,877.0
45.59623,10.36677,Monte Fontanelle,930.0
45.639923,10.279975,Dosso Tagliata,786.0
45.627098,10.243805,Cima Valli Gemelle,999.0
45.624344,10.259867,Dosso Vallero,1089.0
45.619873,10.276702,Monte Faetto,964.0
45.624023,10.255543,Monte Predosa,1077.0
45.617348,10.262945,Dosso Falamorbia,1012.0
45.664818,10.275913,Monte Ladino,1177.0
45.670025,10.261906,Monte Dossone,1337.0
45.665752,10.280889,Dossone di Facqua,1299.0
45.696835,10.23735,Monte Seridondo,1175.0
45.67805,10.234514,Punta Sendrai,1050.0
45.687695,10.24274,Piralonga,1136.0
45.636036,10.295696,Monte Tecle,1092.0
45.635727,10.299261,Dosso Tecle,1148.0
45.628258,10.291784,Monte Calone,1119.0
45.63135,10.319559,Monte Gabbie,944.0
45.63427,10.304178,Monte Doppo,1216.0
45.623737,10.289188,Monte Fraine,1055.0
45.657154,10.32025,Monte Coca,1070.0
45.652332,10.325258,Dos de Rocca,1015.0
45.656612,10.297803,Dosso Giallo,1104.0
45.643986,10.326266,Monte Gabbiole,801.0
45.61812,10.359427,Monte Mizzigolo,781.0
45.61809,10.354336,Monte Pino,803.0
45.62707,10.327532,Monte Paradiso,950.0
45.61703,10.350613,Monte Tavaret,704.0
45.638622,10.332387,Monte Cornisello,794.0
45.653996,10.33609,Moncaldo,862.0
45.660706,10.313225,Cime di Carné,1124.0
45.664566,10.308478,Dos Pelat,1138.0
45.67157,10.313829,Dosso di Cè,1138.0
45.67845,10.362523,Monte Vienuove,660.0
45.664257,10.298724,Monte Prealba,1271.0
45.565292,10.446783,Monte San Martino,270.0
45.571316,10.405098,Monte Singlera,488.0
45.55687,10.40381,Monte Paitone,327.0
45.56309,10.418701,Monte Budellone,396.0
45.581608,10.420661,Monte Rena,490.0
45.593456,10.428824,Monte Paina,401.0
45.59211,10.403383,Monte Tre Cornelli,877.0
45.591637,10.381552,Monte Olivo,933.0
45.56043,10.49604,Monte Basia,279.0
45.565292,10.498473,Monte Vò,293.0
45.55615,10.462847,Monte Guarda,301.0
45.559025,10.480299,Monte Serina,359.0
45.568554,10.479312,Monte Cervo,363.0
45.555367,10.496189,Monte San Pietro,290.0
45.56629,10.494209,Monte Bespoli,321.0
45.564857,10.484348,Monte Soffaino,363.0
45.583866,10.493758,Monte Luzzago,365.0
45.57526,10.46636,Monte Faita,350.0
45.60021,10.470146,Monte Covolo,552.0
45.571983,10.48802,Monte Forca,365.0
45.625008,10.408986,Monte Olo,614.0
45.636242,10.431304,Monte Rasina,493.0
45.64738,10.402837,Monte Vergomasco,486.0
45.637783,10.417435,Monte Mignon,485.0
45.665413,10.441221,Cima Maidone,713.0
45.663273,10.440672,Monte Maidone,690.0
45.700844,10.449042,Dosso Pelato,852.0
45.694996,10.4199295,Monte Tresegno,1001.0
45.697556,10.414327,Monte Colmo,1002.0
45.694386,10.44502,Monte Castello,1071.0
45.68177,10.389408,Monte Poffe,855.0
45.6668,10.403324,Monte Bambol,466.0
45.654137,10.490191,Monte Cingolo,630.0
45.66431,10.480557,Monte Sercine,820.0
45.678207,10.4833555,Monte Frassini,770.0
45.673317,10.466523,Cima Lasdruna,963.0
45.686275,10.485853,Dosso dell'Ora,852.0
45.690445,10.492973,Dos Spiades,885.0
45.701546,10.485264,Cima Giavarina,970.0
45.702583,10.4735155,Cima Fontana Calda,848.0
45.68413,10.469309,Monte Folmone,1061.0
45.689976,10.472109,Monte Cul,1050.0
45.68653,10.47576,Dosso di Purla,985.0
45.728638,10.277552,Corna di Caspai,1393.0
45.730434,10.263567,Monte Inferni,1362.0
45.755703,10.25739,Monte Castello della Pena,1129.0
45.77392,10.253404,Monte Gardio,880.0
45.75827,10.272344,Castello dell'Asino,1151.0
45.766605,10.252046,Monte Crestole,697.0
45.745373,10.309788,Poggio del Termine,985.0
45.72379,10.295886,Monte Palo,1457.0
45.733036,10.36918,Cima Passello,1041.0
45.745804,10.351771,Costa dei Ronchi,1157.0
45.7741,10.357786,Cima Osero,1416.0
45.769753,10.335207,Cima Forca,1475.0
45.753586,10.341433,Monte Valsorda,1247.0
45.75157,10.315608,Monte Abbio,1213.0
45.749,10.351864,Dossi di Valsorda,1191.0
45.759056,10.337918,Cima Lasso,1224.0
45.757523,10.323985,Monte Ligone,1256.0
45.718655,10.444756,Dosso Turmen,860.0
45.716015,10.433581,Dosso del Gallo,813.0
45.70783,10.44611,Monte Basiolo,748.0
45.740616,10.416464,Monte Zovo,1141.0
45.717213,10.385016,Cornicello,799.0
45.712334,10.377365,I Dossi,783.0
45.729446,10.443134,Cima Antegolo,750.0
45.768677,10.447982,Corna Zeno,1619.0
45.77005,10.435802,Cima Traversagna,1525.0
45.757496,10.444855,Cima della Coca,1062.0
45.764355,10.455746,Cima Val Scura,1391.0
45.761883,10.42332,Dosso Falcone,909.0
45.751297,10.399652,Monte Corna,1310.0
45.768417,10.395403,Cima della Massa,1490.0
45.724617,10.480059,Monte Procace,1009.0
45.71555,10.475584,Monte Bastia,926.0
45.71629,10.461976,Monte Curma,882.0
45.707596,10.487453,Monte Puttola,976.0
45.705856,10.488383,Monte Porre,977.0
45.710804,10.491241,Cima Ones,903.0
45.704834,10.465606,Cima Cocchetti,743.0
45.73289,10.494862,Monte Croce di Perlé,1031.0
45.753075,10.46771,Monte Canale,975.0
45.74712,10.494269,Cima Crènch,779.0
45.75898,10.472947,Monte Paghera,1122.0
45.771008,10.463479,Monte Porle,1341.0
45.747894,10.463888,Dosso Sassello,1000.0
45.51671,10.331023,Poggio San Martino,241.0
45.52678,10.281933,Monte Mascheda,440.0
45.521343,10.340841,Monte Marguzzo,458.0
45.515865,10.325921,Monte Peladolo,219.0
45.521255,10.493935,Monte Spigone,247.0
45.50724,10.485166,Monte della Rovere,279.0
45.52909,10.282243,Le Grappe,455.0
45.549404,10.285858,Monte Maddalena,870.0
45.539867,10.247521,Monte Rotondo,320.0
45.5396,10.362949,Monte Cavallo,441.0
45.54218,10.3597145,Monte di Dietro,385.0
45.536366,10.3492365,Monte Camprelle,564.0
45.53702,10.486638,Monte Caprile,343.0
45.53915,10.484779,Monte Canale,341.0
45.54393,10.485336,Monte delle Fontane,323.0
45.546425,10.487699,Monte Brassina,332.0
46.407764,10.170064,Corno di Dosdè,3232.0
46.345276,10.277971,Monte Fo,2460.0
46.36876,10.395758,Corno di Boero,2880.0
45.75859,9.62843,Monte Giacoma,587.0
45.976887,9.707243,Monte Torcola,1746.0
45.97141,9.780294,I Tre Pizzi,2167.0
45.805126,9.720125,Monte Castello,1089.0
46.200493,10.04506,Dosso Laù,2037.0
46.217125,10.070771,Monte Cancano,2435.0
46.098454,9.946591,Cime Giumella,2690.0
46.124275,10.059325,Il Zucco,1843.0
46.10686,10.049908,Cima Cadin,2412.0
46.100384,10.05447,Il Baitlin,2356.0
46.094982,10.068794,Cima Tresciana,2743.0
46.10582,10.073485,Il Pizzo,2491.0
46.131527,10.108865,Il Dosso,1901.0
46.11592,10.10657,Monte Lavazza,2414.0
46.102463,10.10278,Cima Fraitina,2564.0
46.08852,10.10324,Monte Torena,2911.0
46.07062,10.092019,Pizzo Strinato,2836.0
46.036446,10.112408,Pizzo Tornello,2687.0
46.192894,10.209326,Motti del Laghetto,1905.0
46.183784,10.206741,Monte Giovello,1874.0
46.09168,10.15818,Monte Frera,2607.0
46.093292,10.164537,Monte Nembra,2638.0
46.064163,10.146927,Cimetta di Demignone,2424.0
46.057972,10.148343,Monte Venerocolino,2569.0
46.05717,10.1691265,Monte Venerocolo,2570.0
45.9913,10.08739,Pizzo dell'Agula,997.0
45.984013,10.04424,Monte Cavallo,1790.0
45.811214,9.974844,Monte Grione,1381.0
45.753437,9.967358,Il Colletto,1296.0
45.76379,9.982858,Monte Sicolo,1273.0
45.76242,10.005652,Monte Boario,1231.0
45.743496,10.005376,Monte Pendola,1124.0
45.7379,10.015357,Punta del Bert,1105.0
45.740242,10.042088,Punta Castello,871.0
45.723427,10.034513,Monte Soresano,962.0
45.692173,10.033075,Punta Alta,953.0
45.676987,9.965239,Il Colle,490.0
45.754852,10.096688,Punta Cunicolo,1034.0
45.66965,10.124489,Colmi,981.0
45.70479,10.2405,Pizzo di Bailo,1085.0
45.702713,10.269325,Punta di Reai,1246.0
45.70804,10.283789,Campo Castello,849.0
45.69697,10.26688,Punta Ortosei,1272.0
45.675682,10.272775,Vallazzo,1103.0
45.66981,10.297853,Punta Galevo,1165.0
45.650845,10.331245,Monte Scipione,888.0
46.322773,10.393278,Corno Dombastone,2622.0
46.338276,10.410758,Trottanera,2367.0
46.3247,10.40372,Corno dei Becchi,2822.0
46.322136,10.404027,Sasso Maurone,2723.0
46.37863,10.461845,Sassa,2808.0
46.360027,10.4427395,Cima delle Pozze,2652.0
46.354,10.439497,Monte dei Poltron,2699.0
46.35223,10.457493,Savoretta Tonda,3008.0
46.34006,10.43496,Cima di Savoretta,3053.0
46.103584,10.499072,Cima di Gana,2857.0
46.09659,10.490023,Corni del Lago,2805.0
46.088337,10.464326,Cima di Boazzo,2556.0
46.1041,10.467526,Dosso Tondo,2368.0
45.98254,10.436447,Corni delle Plagne,2181.0
45.97258,10.474417,Cima di Blumone,2565.0
45.95498,10.456099,Cornone di Blumone,2843.0
45.88868,10.472511,Corno Balotto Alto,2069.0
45.925037,10.439124,Monte Colombina,2151.0
45.865414,10.442089,Corno Torre,1541.0
45.86652,10.428426,Monte Bagoligolo,2131.0
45.829845,10.494419,Dosso Anses,1130.0
45.80256,10.462301,Corna Pagana,1446.0
45.796757,10.439153,Cime Baremon,1770.0
45.786224,10.448243,Cima Meghe,1670.0
45.754745,10.446002,Chegarole,952.0
45.830223,10.403443,Monte Maniva,1854.0
45.81428,10.35325,Dosso Picastello,1131.0
45.935272,10.415328,Monte Cadino,2418.0
45.925495,10.412132,Monte Mattoni,2271.0
45.91753,10.416411,Monte Asino di Bazenina,2239.0
45.918644,10.406412,Monte Paletti,2147.0
45.91269,10.403555,Monte Bazena,2109.0
45.88486,10.388288,Punta Lavena,2008.0
45.52085,10.47441,Monte della Valle,258.0
45.62667,10.44553,Monte Acuto,745.0
45.638878,10.359407,Monte Valrelli,724.0
45.639866,10.353466,Monte Cler,781.0
45.63716,10.339274,Dosso Fontane,772.0
45.618378,10.316357,Monte Almarone Basso,606.0
45.630466,10.355505,Monte Castel Bertino,686.0
45.623413,10.352773,Monte Gnone,774.0
45.62622,10.350433,Monte Sete,802.0
45.629803,10.335796,Monte Civelle,735.0
45.624744,10.334742,Monte Valcada,848.0
45.618965,10.33484,Castel Berti,675.0
45.60154,10.342177,Scalette Albere,1125.0
45.624855,10.310134,Monte Tromet,901.0
45.695026,10.48068,Monte Gallo,1144.0
46.220932,9.769062,Monte Caldenno,2669.0
45.637066,10.231884,Monte Palosso,1150.0
46.00284,9.982121,Monte Calvera,2301.0
46.07285,10.004301,Cime d'Arigna,2925.0
46.084885,10.046516,Pizzo del Diavolo della Malgina,2926.0
45.971977,10.013456,Cima degli Omini,2175.0
45.737362,9.696134,Colle di Ranica,726.0
46.41738,9.902288,Piz Boval,3353.0
46.493942,9.519877,Usser Wissberg,3052.0
46.396812,10.044691,Piz Campasc,2598.0
45.68015,10.25213,Dosso dei Quattro Comuni,1320.0
46.097126,9.503232,Pizzo dei Galli,2217.0
46.200542,9.563788,Cima del Desenigo (vetta Sud Est),2836.0
46.093197,9.730775,Cima della Sciura,2508.0
46.24517,9.896873,Monte Palino,2686.0
46.499195,10.474894,Geisterspitze - Punta degli Spiriti,3467.0
46.49966,10.494209,Hintere Madatschspitze - Madaccio Di dentro,3428.0
45.981045,9.834498,Cima di Presponte,2403.0
45.942093,10.491522,Monte Bruffione,2665.0
45.75872,9.652015,Monte Pissol,687.0
46.49099,9.759895,Piz Güglia - Piz Julier,3380.0
46.457706,9.848187,Piz San Gian,3134.0
46.46021,9.854061,Piz Rosatsch,3123.0
46.47012,9.86329,Piz Mezdi,2992.0
45.7701,9.669873,Canto Alto,1146.0
45.844494,9.943599,Montagnina,1598.0
45.85808,9.780447,Cima Campelli,1889.0
46.404877,9.945022,Isla Persa,2720.0
46.4057,9.970428,Piz Trovat,3146.0
45.66602,10.101109,Punta dell'Orto,975.0
46.397205,9.760362,Muott' Ota,2457.0
46.410507,9.670314,Piz Lunghin,2780.0
46.410778,9.972621,Sass Queder,3066.0
46.05688,10.075855,Pizzo Recastello,2886.0
46.377464,10.051199,Corn da Prairol,2260.0
45.68773,10.468815,Monte Besum,1115.0
45.95406,10.074128,Monte Visolo,2370.0
45.672394,9.795199,Colle San Giovanni,290.0
46.28778,9.622334,Cima della Bondasca Centrale,3283.0
46.288383,9.653633,Torrione di Zocca,3010.0
46.28972,9.6499,Cima di Zocca,3173.0
46.291054,9.701855,Pizzo Torrone Orientale,3333.0
46.2917,9.700246,Ago del Torrone,3234.0
46.29297,9.695321,Punta Melzi,3287.0
46.29307,9.696187,Pizzo Torrone Centrale,3290.0
46.2939,9.692303,Punta Alessandra,3263.0
46.2941,9.687391,Pizzo Torrone Occidentale,3348.0
46.295216,9.581795,Pizzo Badilet,3116.0
46.295586,9.578416,Punta di Trubinasca,2996.0
46.296448,9.669391,Punta Allievi,3121.0
46.297085,9.681483,Punta Rasica,3293.0
46.298283,9.573921,Pizzo di Trubinasca,2918.0
46.30605,9.555555,Pizzo dei Vanni Occidentale,2733.0
46.306034,9.560128,Pizzo dei Vanni Orientale,2775.0
46.340744,9.7847185,Piz Fora/Sassa di Fora,3364.0
46.343685,9.79978,Il Cappuccio,2958.0
46.352406,9.99355,Pizzo di Varuna,3453.0
46.352547,9.822631,Pizzo delle Tre Mogge,3441.0
46.35314,10.109927,Piz Sena,3075.0
46.361084,9.832317,Pizzo della Forcola Alta,3394.0
46.361942,9.845183,Cima Sondrio,3542.0
46.36236,9.8683195,Pizzo Sella,3511.0
46.362465,9.8400755,Piz Glüschaint,3594.0
46.36342,9.8626,Dschimels / I Gemelli Cima Est,3500.0
46.36356,9.851622,Punta Orientale della Sella,3564.0
46.36352,9.848137,Punta Occidentale della Sella,3584.0
46.36352,9.860064,Dschimels / I Gemelli Cima Ovest,3501.0
46.36739,9.878389,Gendarme,3379.0
46.369755,10.126007,Piz dal Teo,3049.0
46.370342,9.917006,Crast' Agüzza,3872.0
46.37325,9.88611,Roseg Pitschen,3868.0
46.373615,9.883275,Pizzo Roseg,3938.0
46.373714,9.932304,Monte Bellavista Occidentale,3922.0
46.374847,9.934462,Monte Bellavista Centro-Occidentale,3890.0
46.37578,9.937699,Monte Bellavista Centro-Orientale,3888.0
46.37755,9.94381,Monte Bellavista Orientale,3799.0
46.378387,9.900756,Monte Scerscen,3971.0
46.380917,9.907391,La Spedla/ Punta Perrucchetti,4021.0
46.393166,9.52925,Wissberg,2980.0
46.3933,9.982939,Piz d'Arlas,3467.0
46.407158,9.522622,Bodagrat,2951.0
46.41897,9.693926,Muotta Radonda,2484.0
46.426327,9.894041,Piz Misaun,3251.0
46.42875,9.679124,Motta Radonda,2885.0
46.451397,9.9058,Piz Chalchagn,3154.0
46.465126,9.57398,Mazzaspitz,3164.0
46.467194,9.567614,Jupperhorn,3155.0
46.478584,9.728446,Chüern Nair,2810.0
46.48426,9.731748,Piz Valletta,2917.0
46.48988,9.728016,Muot Cotschen,2863.0
46.054028,9.688197,Cima di Lemma occidentale,2266.0
46.062428,9.708809,Cima di Lemma orientale,2345.0
46.39736,9.983687,Piz Arlas,3367.0
46.48277,9.879582,Muottas da Schlarigna,2306.0
46.002254,10.056389,Monte Gromo,1405.0
45.79491,10.384674,Monti di Paio (Cima Ovest),1821.0
45.791077,10.382905,Corna Blacca,2006.0
45.614944,10.220925,Monte Verdura,575.0
45.652325,10.167497,Monte Campanile,1035.0
46.48856,9.683153,Crappa da Tocf,2860.0
45.77856,9.716404,Il Costone,1195.0
45.77396,9.715443,Filaressa,1134.0
46.41246,9.80278,Furtschellas,2932.0
46.373146,9.815569,Chapütschin Pitschen,3325.0
46.384495,9.94255,Fortezza,3482.0
46.396507,9.946377,Rifugi dals Chamuotschs,3131.0
45.53102,10.332481,Monte Fieno,437.0
45.52417,10.330722,Monte Regogna,412.0
46.13704,10.178081,Zappello dell'Asino,2029.0
46.43158,10.023588,Piz Lagalb,2959.0
45.826366,9.997508,Corna Lunga,1265.0
46.32406,9.629251,Piz Cacciabella Nord,2980.0
46.46394,9.963557,Piz Albris,3166.0
45.945248,9.57693,Monte Aralalta,2003.0
45.773056,10.0844755,Anticima Nord Corna Trentapassi,1175.0
45.621117,10.295615,Monte Faet,962.0
45.819733,9.690871,Pizzo di Spino,958.0
45.929573,10.026425,Corna Cava,1425.0
45.90662,10.038562,Castello,862.0
45.91366,10.030514,Monte San Leonardo,1143.0
45.8568,9.612488,Monte Sornadello - Cima Meridionale,1558.0
45.678432,10.251216,Corna di Sonclino Anticima Est,1349.0
45.609703,10.262943,Monte Spina,958.0
46.051395,9.97413,Punta Santa Maria,2543.0
45.86461,10.375468,Punta dell'Auccia,2212.0
45.533394,10.284374,Monte Poffa,491.0
45.583885,10.356921,Monte San Bartolomeo,933.0
45.757034,10.226761,Monte Pergua,1198.0
45.827755,10.316841,Dosso Canali,1528.0
46.394295,9.708588,Piz Aela,2159.0
45.60098,10.335325,Corna di Caino,1158.0
45.544247,10.244858,Monte Santa Croce,431.0
45.622604,10.382906,Rocca di Bernacco,727.0
45.853966,10.310614,Monte Crestoso,2208.0
46.067696,9.743572,Cima dei Lupi,2415.0
46.069233,9.741816,Cima della Val Lunga,2405.0
45.796467,10.389419,Monti di Paio (Cima Centrale),1762.0
45.872917,9.776454,Cima della Croce,1975.0
45.979275,10.49658,Boazzolo,2594.0
46.006573,10.489175,Cima Larga,2291.0
46.05471,10.494346,Cima d'Avolo,2658.0
45.95503,10.062237,Presolana del Prato,2405.0
45.95497,10.065721,Presolana Centrale,2517.0
45.95623,10.071153,Presolana Orientale,2490.0
45.954964,10.051511,Presolana di Castione,2474.0
45.91892,9.989374,Monte Parè,1642.0
46.04285,9.909964,Diavolino,2810.0
45.980476,9.794286,Monte Spondone,2445.0
45.71998,10.496879,Cima Saline,1168.0
45.944138,9.783712,Monte Vindiolo,2054.0
45.84379,10.363422,Prima Colombina,2182.0
45.846416,10.347775,Quarta Colombina,2107.0
46.41771,10.107669,Corn da Camp,3232.0
46.33875,9.638063,Spazzacaldera,2487.0
46.339,9.638926,Fiamma,2383.0
46.342213,9.682271,Piz Bacun,3244.0
46.35045,9.687505,Cima da Splüga,3046.0
46.35242,9.688985,Piz Casaccia,3036.0
46.337036,9.664117,Piz Balzet,2869.0
46.33604,9.683937,Piz Casnil,3189.0
46.356922,9.687662,Piz Bregaglia,2961.0
46.34705,9.682507,Cima dal Largh,3188.0
46.346706,9.717998,Pizzi dei Rossi,3027.0
46.32022,9.662675,Punta da l'Albigna,2825.0
46.31698,9.686793,Scälin,3164.0
46.322388,9.68615,Caciadur,3040.0
46.30424,9.6277895,Sciora Dafora,3169.0
46.302917,9.627345,Punta Pioda,3238.0
46.30165,9.625995,Ago di Sciora,3205.0
46.29603,9.625194,Sciora Dadent,3275.0
46.2994,9.608236,Ferro da Stiro,2680.0
46.481094,9.773647,Piz Albana,3100.0
46.04612,9.846765,Cima di Venina,2624.0
45.910774,10.02636,Monte San Leonardo (cima minore),1104.0
46.00791,9.827089,Corni di Sardegnana,2420.0
46.007416,9.834998,Pizzo Torretta,2543.0
46.045708,9.895328,Pizzo Rondenino,2747.0
46.019497,9.896129,Monte Reseda,2383.0
45.850483,9.816339,Monte Castello,1208.0
45.846684,10.353705,Terza Colombina,2193.0
46.01829,9.555107,Cima Piazzotti occidentale,2349.0
46.00027,10.192741,Cima Ezendola,2175.0
45.974087,10.161298,le Pale,2238.0
46.0271,9.590052,Monte Ponteranica Centrale,2372.0
46.031063,9.600779,Monte Colombarolo,2309.0
46.068623,9.907283,Pizzo Ceric,2533.0
46.410294,9.605694,Piz Turba,3018.0
45.875957,10.285946,Colma di San Glisente,2151.0
46.237156,9.529707,Cima di Gaiazzo SW,2916.0
46.23836,9.531832,Punta Bonazzola,2921.0
46.238132,9.961142,Vetta di Ron,3137.0
46.086147,10.019375,Pizzo Cantolongo,2828.0
46.086887,10.024174,Pizzo del Druet,2868.0
45.98659,9.793149,Pizzo delle Orobie,2340.0
45.94807,10.057909,Pizzo di Corzene,2196.0
45.92252,9.751837,Chignol d'Aral,2068.0
46.033386,10.25105,Monte Campioncino,2102.0
46.011574,10.250366,Cimone della Bagozza,2407.0
46.436867,9.603667,Uf den Flue,2774.0
46.47275,9.59484,Piz Scalotta,2991.0
46.465183,9.595394,Piz Surpare,3078.0
46.43809,9.64236,Mot Scalotta,2444.0
46.4159,9.613757,Piz Forcellina,2939.0
46.47847,9.56137,Tälihorn,3164.0
46.49534,9.69427,Piz Campagnun,2826.0
46.48442,9.68012,Piz Neir,2906.0
46.212624,9.677668,Monte Scermendone,2127.0
45.61812,10.245207,Dosso Barafonte,765.0
45.60177,10.25336,Dosso dei Cavalli,610.0
45.841618,9.61882,Castello Regina,1424.0
45.747852,10.48919,Punta Pelata,632.0
46.27652,10.173157,Cima di Schiazzera centrale,2815.0
46.277493,10.169821,Cima di Schiazzera occidentale,2820.0
46.27627,10.17898,Cima di Schiazzera orientale,2800.0
45.911625,9.826358,Cima Foppazzi,2093.0
46.229908,9.963365,Punta Placida,2681.0
46.21999,9.9855795,Motti,2510.0
45.63813,10.4730835,Dosso Covolo,757.0
45.65323,10.412408,Dosso del Lupo,362.0
45.634785,10.481387,Monte Coro,753.0
45.63287,10.40317,Monte Corvino,701.0
45.63566,10.381062,Monte Cugni,655.0
45.632336,10.391421,Monte Ere,703.0
45.621178,10.465204,Monte Renico,886.0
46.437534,9.900258,Piz Mandra,3091.0
46.49783,9.937353,Piz Muragl,3157.0
46.0426,9.510674,Pizzo Melàsc,2465.0
45.678604,10.250324,Corna di Sonclino,1352.0
45.943027,9.812329,Corna Piana - Cima est,2226.0
46.385685,9.99173,Punta Carale,3429.0
46.49961,9.75388,Corn Chamuotsch,3017.0
46.389977,10.013621,Sassal Mason,3032.0
46.003967,9.895687,Monte Segnale,2183.0
46.060627,9.656623,Monte Budria/ Cima Azzarini,2319.0
46.33476,10.4976425,Monte Gaviola,3022.0
45.717907,10.314005,Corna di Savallo,1436.0
46.259556,9.5764065,Monte Boris,2505.0
45.93067,10.168448,Dosso di Corvino,1328.0
45.80007,10.409649,Cima Caldoline,1828.0
46.27559,10.43609,Corno di Bles,2750.0
46.22572,9.560271,Cima del Calvo centrale,2967.0
46.21879,9.60203,Cima di Cavislone,2539.0
46.222008,9.578363,Pizzo della Merdarola,2735.0
46.222504,9.610979,Monte Lobbia,2376.0
46.226326,9.565809,Cima del Calvo Est,2876.0
46.249863,9.680327,Punta Temola,2221.0
46.255695,9.691999,Punta Romilla,2329.0
46.25538,9.606295,Punta di Schingino,2498.0
45.75018,10.094667,Anticima Punta Cunicolo,768.0
45.90631,9.83627,Monte Golla,1983.0
46.064686,9.936875,Pizzo Cavrin Est,2647.0
46.05449,9.906948,Torrione del Salto,2640.0
46.05722,9.995348,Cima d'Avert,2616.0
46.09022,10.066858,Cima del Bondone,2848.0
46.00858,10.0018835,Monte Cavandola,2057.0
46.006355,10.020828,Pizzol,2070.0
46.010494,9.556727,Monte Pascaniello,2084.0
45.667763,10.269728,Dos de le Streseghe,1329.0
45.64576,10.3197,Dosso San Pietro,804.0
46.048798,9.7853985,Montebello,2230.0
45.590675,10.198736,Monte Peso,483.0
45.619507,10.453148,Monte Selvapiana,966.0
45.60032,10.336264,Monte Ucia,1168.0
46.44933,9.99955,Piz Alv,2975.0
45.58643,10.405683,Monte Tesio,679.0
46.438618,9.655268,La Motta,2166.0
46.413395,9.648325,Motta da Sett,2637.0
46.409794,9.661283,Piz dal Sasc,2733.0
46.432274,9.670849,Bleis Lunga,2445.0
46.440643,9.703995,Piz d'Emmat Dadaint,2927.0
46.446087,9.699826,Piz d'Emmat Dadora,2851.0
46.447525,9.681411,Roccabella,2727.0
46.38439,10.219594,Punta d'Avedo,3126.0
46.387314,10.199146,Cima Settentrionale di Lago Spalmo,3356.0
46.00274,10.021727,Punta delle Oche,2120.0
45.771587,10.088791,Anticima Est Corna Trentapassi,1192.0
45.996864,10.006854,Corna Spigorel,2035.0
46.46527,9.857725,Cuolm d'Mez,2983.0
46.46856,9.860195,Il Corn,2945.0
46.473064,9.8701725,Piz da Staz,2847.0
46.46876,9.84639,Piz da l'Ova Cotschna,2716.0
46.024067,9.587874,Monte Valletto,2370.0
46.047344,9.627822,Cima Villa,2040.0
46.44352,9.505374,Chlin Hüreli,2798.0
46.43697,9.506003,Cima di Camutsch,2904.0
46.393528,9.56749,Piz Mungiroi,3057.0
46.39014,9.563679,Piz Predarossa,3083.0
46.431286,9.517858,Punta 2969,2969.0
46.42777,9.517376,Tscheischhorn,3019.0
46.219116,9.914736,Coren,2240.0
46.236256,9.928736,Corna Bianca,2471.0
46.302975,9.550943,Cima della Teggiola,2574.0
46.31383,9.550819,Denc dal Luf,2172.0
45.84469,9.801553,Monte Segredònt,1548.0
46.18831,9.538936,Cima del Malvedello Occidentale,2585.0
46.180817,9.565074,Croce di Ledino,2093.0
46.19064,9.541548,Cima del Malvedello Centrale,2640.0
45.812996,10.362768,Dos de Blac,1148.0
46.00453,9.526482,Pizzo San Giovanni,2048.0
45.99218,9.836673,Cima di Valsanguigno Orientale,2560.0
45.990395,9.833985,Cima di Valsanguigno Occidentale,2493.0
46.08997,10.086659,Cima Cent. di Caronella,2848.0
46.090294,10.090045,Cima Or. di Caronella,2871.0
46.039806,9.831864,Pes Gerna,2562.0
46.366066,9.924988,Piz Argient,3945.0
46.05526,9.667991,Monte Azzaredo meridionale,2112.0
46.05622,10.029223,Pinnacolo di Maslana,1858.0
46.332565,9.660802,Piz dal Päl,2618.0
46.33177,9.681358,Punta,3040.0
46.022465,9.520695,Pizzo Varrone delle Vacche,2288.0
46.41614,9.73354,Piz d'Islas,1806.0
45.55728,10.295689,Sperone del Crocefisso,730.0
46.248737,9.889492,Cima Sufrina,2382.0
45.6592,10.295089,Corna del Giobeleo,1164.0
46.49283,10.484999,Cime di Campo,3480.0
46.390865,9.723128,La Margneta,2785.0
45.977825,9.810006,Cima di Mezzeno Orientale o Cima Giovanni Paolo II,2230.0
46.474964,10.000218,Piz Sagliaint,2945.0
46.47798,10.016452,Piz Chatscheders,2986.0
46.4892,10.011989,Piz Prünella,2991.0
46.487255,9.987296,Piz Prüna,3153.0
46.477367,9.98368,Piz Pischa,3138.0
46.47026,9.989227,Piz dal Fain,2908.0
46.47234,10.001425,Piz Tschüffer,2918.0
45.660603,10.294046,Punta Camoghera,1240.0
46.475792,9.876065,Quota,2563.0
46.287865,9.884979,Monte Motta/ Sasso Alto,2336.0
45.60664,10.316889,Dosso Gose,463.0
46.05918,10.021126,Il Corno,2263.0
45.80522,10.384745,Dosso Costa Martina,462.0
45.80391,10.38902,Dosso Scaiù,1520.0
45.66016,10.147342,Monte Piezzone,778.0
45.72219,10.196363,Cima Maioli,1314.0
46.39006,10.431163,Monte Sobretta sud,3271.0
45.89992,9.99636,Cima Grom,870.0
45.591255,10.145264,Colle Barbisone,278.0
45.603683,10.140777,Monte Breda,362.0
45.519993,10.338749,Monte Predelle,358.0
46.023457,9.565874,Cima Piazzotti orientale,2179.0
45.66523,9.787283,Colle Alto,332.0
45.54302,10.2258215,Colle Cidneo,210.0
46.023727,10.096304,Cima di Cornalta,2364.0
45.651756,9.900712,Monte della Croce,508.0
46.313206,10.310331,Piazz,1002.1
46.311268,10.312496,Ruino,1161.6
46.14557,10.453723,Corno del Cristallo,2989.0
46.369938,9.610647,Piz Cam,2634.0
46.38618,9.63782,Piz Lizun,2549.0
46.383564,9.623961,Pizzi di Maroz,2599.0
45.98903,9.826163,Pizzo Farno,2506.0
45.812126,10.345221,Dos de Vampe,1004.0
46.008663,9.880369,Pizzo Cernello,2441.0
45.813423,10.41708,Dosso Alto,2064.0
46.02373,9.580261,Monte Salmurano/ Monte di Sopra,2269.0
46.04965,9.817852,Cima di Valle Sambuzza,2481.0
45.979523,9.805401,Cima di Mezzeno occidentale,2230.0
45.979332,9.815707,Pizzo Camilla,2230.0
45.845497,10.316518,Monte Singla,2081.0
45.926933,9.830124,Zucco degli Agnelli,2054.0
45.918907,9.824051,il Cimetto,1984.0
45.845325,10.358748,Seconda Colombina,2155.0
45.80556,10.379666,Corna Avert,1343.0
45.841316,10.376691,Dasdanino,2086.0
45.83987,10.311781,Dosso della Croce,1930.0
45.65478,10.261388,Colle Aventino,694.0
45.76921,9.761585,Monte Capra,970.0
45.850597,10.35492,Dosso Craparo,2131.0
46.014194,9.993323,Pizzo Fratelli Franco e Orlando Semperboni,2202.0
45.534817,10.3385,Monte Ratelli,356.0
45.518078,10.315287,Colle San Pietro,211.0
45.613533,10.3695545,Dosso dei Morti,602.0
45.86117,9.924172,Cima Tagliate,1094.0
45.97121,9.773263,Monte Mencucca,2117.0
45.720276,10.149954,Punta Cabrera,1332.0
45.619827,10.378167,Dosso Damonte,552.0
45.939926,10.289537,Colle di Cristo Re,507.0
46.08717,10.057334,Cima della Malgina,2767.0
46.089233,10.062406,Corno del Bondone,2760.0
46.322968,9.628745,Piz Cacciabella Sud,2968.0
46.316673,9.630768,Pizzo Eravedar,2933.0
46.41893,9.5794325,Mingalunhorn,2967.0
46.420536,9.576198,Juferhorn,2967.0
46.414978,9.577941,Grauhörner,2991.0
46.422897,9.61003,Columban,2848.0
46.43186,9.579887,Mugmol,2625.0
46.42929,9.566669,Schinetahörner,2883.0
46.433067,9.567654,Wengahorn,2849.0
46.404068,9.606863,Piz Mäder,3001.0
46.32681,9.605913,Piz Grand,2459.0
46.351803,9.743502,Pizzo del Muretto,3104.0
46.359642,9.740677,Piz Fedoz,3189.0
45.865337,10.020261,Corno Ceresa,1184.0
45.86648,10.007278,Monte Argua,1023.0
46.0418,9.550593,Piic,1867.0
46.014297,9.552642,Cima di Giarolo,2309.0
45.96766,9.768625,Monte Malfa,2070.0
46.42683,10.046091,I Gessi,2413.0
46.224316,10.120425,Frontelone,1764.0
46.062748,10.091158,Monte Costone,2830.0
46.055412,10.095529,Glenino,2852.0
46.071518,10.011541,Pizzo Coca,3052.0
45.682163,10.250445,Corna Allagra,1187.0
45.959167,9.731946,Cima Baresi,1190.0
46.497,9.748428,Il Nes,2950.0
46.495846,9.7411175,Muottin,2682.0
46.493134,9.731827,Spelm Ravulaunas,2829.0
46.49637,9.720154,Corn Alv,2991.0
46.499428,9.735105,Crap Alv,2832.0
46.483433,9.7509775,Botta dal Tiroler,2934.0
45.604687,10.174937,Monte Navazzone,522.0
45.856537,9.753639,Cima Cornetti,1500.0
45.813007,9.96165,Monte Barzena,1379.0
45.881023,10.269288,Dosso dell'Asino,1783.0
45.901405,10.394332,Punta Varicla,2007.0
45.864758,10.252193,Corno Bertolot,1670.0
45.837624,9.834867,Cima di Tisa,1317.0
45.622017,10.285776,Dosso Medio,1107.0
45.53953,10.283786,Dosso Romito,660.0
46.04662,10.079169,Cima Alice,2680.0
45.980087,10.176982,Cima Tabak,2448.0
46.03373,10.353026,Dos de l'Arca,442.0
46.30592,9.974062,Cima Campagneda,2789.0
46.366737,9.5221815,Piz da Cävi,2844.0
46.369884,9.513866,Pizzun,2965.0
46.1184,9.880938,Punta della Piada / Piz di Freri,2120.0
45.96828,10.283669,Monte Manede,1149.0
46.45446,9.580969,Foppaspitz,2696.0
45.704823,9.615453,Monte Gussa,389.0
46.007744,10.256757,Punta Anita,2069.0
46.46176,9.72481,Piz de las Coluonnas,2802.0
46.4638,9.74119,Spedla,2687.0
46.49468,9.76057,Piz Gügliet,3159.0
46.46781,9.63379,Crap da Radons,2365.0
45.768314,9.565996,Il Botto,913.0
46.063725,9.502762,Cima di Stavello,2353.0
46.388542,10.210521,Cima di Lago Spalmo Orientale - anticima nord,3262.0
45.70207,10.089224,Monte Isola,600.0
45.79583,9.808206,Tribulina di Ganda,1070.0
46.259106,10.315319,Piz delle Casùce,2272.0
45.935734,9.766176,Il Pizzo,2274.0
45.86432,10.389411,Corni Setteventi,2209.0
45.968586,10.417949,Somals di Braone,2254.0
46.47644,9.675918,Piz Barscheinz,2617.0
46.47815,9.667559,Bleis Muntaneala,2452.0
46.36428,9.6922655,Cima da Murtaira,2856.0
45.7053,10.190671,Dosso della Guarda,673.0
46.088333,10.073578,Cima Occ. di Lago di Gelt,2768.0
46.08598,10.075325,Cima di Lago di Gelt,2804.0
46.364574,10.050269,Brüsigon,1876.0
46.148674,10.491884,Cima Ugolini,3284.0
45.908012,9.968039,Cima Blum,1293.0
45.858883,10.025196,Covale,1034.0
46.485813,9.529296,Mittler Wissberg,3001.0
46.489944,9.528,Mittler Wissberg Nordgipfel,2980.0
46.480568,9.534197,Inner Wissberg,2947.0
46.421288,9.566361,Bel Giardin,2612.0
45.961388,10.052561,Cima di Polzone,2129.0
45.942463,10.377613,Monte Campedelli,2273.0
45.944386,10.356073,Cima di Somale,2078.0
45.86471,10.007861,Coren Minciù,930.0
45.881332,9.853985,Cima di Belloro orientale,1304.0
45.901875,9.520805,Cima della Tona,1486.0
45.957092,9.583731,Corna del Colonnello,1735.0
45.900085,9.830074,Monte Pulpito,1863.0
45.949368,10.41152,Farinas di Stabio - Corno del Frerone,2674.0
46.030323,9.588862,Cima Pescegallo,2328.0
45.93615,10.394144,Costone di Valbona,2415.0
46.033447,10.498113,Cima Breguzzo,2388.0
46.06494,9.972295,Cime di Brunone Sud,2802.0
46.06965,9.967165,Pizzo Brunone Nord,2724.0
46.065075,9.9791,Cime di Brunone Est,2810.0
46.066242,9.970457,Cime di Brunone Sud,2760.0
45.771687,9.733188,Monte Podona - Cima Sud,1183.0
46.237343,9.530088,Cima di Gaiazzo Centrale,2918.0
46.237953,9.530947,Cima di Gaiazzo NE,2916.0
46.41662,9.967888,Corn Diavolezza,2903.0
45.904263,9.833431,Matto di Golla,1941.0
46.04764,9.617828,Cimetto,2099.0
46.439842,10.223683,Cima del Bosco,2294.2
46.097248,9.859016,Pizzo Campaggino,2394.0
46.120075,9.928772,Doss Bilìi,2053.0
45.930374,9.532419,Zucco del Salto,1683.0
46.09986,10.01929,Punta Pesciola,2344.0
45.82602,9.941382,Pizzo Corno,1270.0
45.6066,10.472256,Picco Pianelli,279.0
45.823463,9.807007,Croce di Merlécia,1071.0
45.8245,9.804689,Cima del curnù,1086.0
45.809235,10.006959,Cornàs,920.0
45.86101,10.0091915,Coren di ganièi,849.0
45.75819,9.523361,Monte Spino,702.0
45.740826,9.576346,Roccolone,345.0
46.495567,10.394111,Cima di Reit,3049.0
46.01278,10.4231205,Naso di Tredenus,2308.0
46.01963,10.0510645,Monte Sasna,2229.0
45.62243,10.312378,Monte Almarone Alto,780.0
46.323097,9.980067,Cima delle Ruzze occidentale,2806.0
46.046097,10.407286,Cima Centrale di Berbignaga,2390.0
46.045,10.407493,Cima Meridionale di Berbignaga,2361.0
46.040047,10.419425,Cima delle Basse sud,2475.0
46.023457,10.437428,Cima del Volano,2730.0
46.022675,10.445818,Corno Orientale di Dois,2844.0
46.022694,10.4439,Corno Occidentale di Dois,2820.0
46.095905,10.23509,Cima Lago del Torsolazzo,2617.0
45.78408,10.088185,Dosso del Becco,332.0
46.004536,10.423504,Cima del Fupù,2440.0
46.0003,10.417058,Cima di Mezzamalga,2457.0
46.00184,10.41342,Cima dell'Orso,2431.0
46.043205,10.413527,Cima delle Basse nord,2421.0
46.041775,10.415878,Cima delle Basse centrale,2451.0
45.832603,9.977049,Monte Alto di Avene,1419.0
45.749256,9.524446,Tiracül,521.0
45.714207,9.640112,Orsarola,491.0
45.57686,10.487489,Monte San Macario,331.0
45.843655,9.696873,Monte Corno,1089.0
46.028034,9.589958,Dentino di Ponteranica,2350.0
46.028534,9.589842,Monte Ponteranica Occidentale,2370.0
46.404873,9.581527,Piz Piot Nordwestgipfel,3037.0
46.03088,10.366866,Collina dei Castagni,990.0
45.629726,10.492437,Guarda,467.0
45.953617,9.510384,Zucco di Pesciola II Torre,2000.0
45.953495,9.51129,Zucco di Pesciola III Torre,2031.0
45.6629,10.404152,Dosso di Clivio,431.0
45.95352,9.50974,Zucco di Pesciola I Torre,1970.0
46.402004,9.52462,Bödagrat sudgipfel,2900.0
46.053352,9.790184,Cima di Val Cervia,2370.0
46.430267,9.625403,Sur al Cant,2716.0
46.495556,9.9435835,Piz Clüx,3129.0
46.485733,9.956881,Languard Pitschen,3124.0
46.478207,9.96627,Muot da la Pischa,3025.0
46.467167,9.988237,Cho dal Fain,2810.0
46.4797,10.009832,Chantun,2974.0
46.19394,9.573097,Torre Bering,2497.0
46.414597,9.751386,Muotta da Güvè,2036.0
45.86262,9.564071,Corna Bianca,1309.0
45.890846,9.731363,Cima di Valpiana,1481.0
46.21669,9.77149,Falso Colina,2609.0
46.488224,9.546813,Täligrat,3042.0
46.476273,9.545035,Büel,2568.0
46.493484,9.508616,Hüreli,2762.0
46.482338,9.703014,Piz Bardella,2838.0
45.904144,9.9424715,Monte Ost,1040.0
46.058033,9.50954,Cima di Fraina,2325.0
46.259445,10.064457,Piz Mürasc,2666.0
46.256638,10.104113,Giümelin,2040.0
46.255917,10.083818,Corn da Solcun,2513.0
46.3074,10.034549,Muota d'Ur,1951.0
46.334694,10.013045,Mot di Curt,2408.0
46.34083,10.010759,Motta Rossa,2563.0
46.355843,10.011262,Bocchetta di Canton,2692.0
46.357388,10.018558,Curnasel,2809.0
45.755848,10.168357,Monte Guglielmo,1948.0
46.471592,9.900781,Muot d'Mez,2500.0
46.46789,9.899646,Muot Dadains,2543.0
46.458298,9.903108,Chalchagn Pitschen,2789.0
46.41702,9.910449,Corn Boval,3080.0
46.06563,9.984531,Fetta di Polenta,2997.0
46.37732,9.68805,Piz Salacina,2600.0
46.297226,9.530158,Cime dei Vallon - cima W,2626.0
46.29918,9.540538,Cima dei Vallon - cima E,2635.0
46.07838,9.734412,Zuch,2313.0
45.730556,9.675305,Maresana,546.0
45.76194,10.423019,Dosso Falcone,908.0
46.271267,9.9922285,Corno Zanza,2700.0
46.46681,10.205522,Monte Foscagno,3058.0
46.42549,10.080553,Piz Ursera,3032.0
46.22964,10.043948,Monte Combolo,2902.0
46.298767,9.804965,Monte Ceresone,2648.0
45.58424,10.47374,Monte Piazze,308.0
46.081066,10.435023,Pizzo del Luf,1810.0
45.74478,10.306715,Dosso Toiano,895.0
45.813763,10.145488,Dosso di Duff,1081.0
46.312847,10.444166,Cima Monticello,3152.0
46.293316,10.25846,Dossa,880.0
46.28791,10.144707,Sassalta,2631.0
46.330463,10.130709,La Costa,2539.0
46.291874,10.120547,Cornasc,2499.0
46.2907,10.156115,Pizzo del Termine,2823.0
46.10681,9.733972,Pizzolo,2142.0
46.404423,10.097449,Corn da Mürasciola,2819.0
46.340294,10.10653,Forcola di Rosso,2671.0
45.758377,9.601245,Collina di Duno,365.0
45.75479,9.600947,Collina di Vigna,360.0
46.274307,10.109565,Mota dal Meschin,1157.0
45.592457,10.406278,Cornellino,833.0
45.62328,10.2833805,Monte Conche,1150.0
46.30482,10.127062,Moton,2370.0
46.296562,10.116869,Mot da Cliv,2112.0
46.247692,10.3424225,Monte Pagano,2346.0
45.86253,9.613968,Monte Sornadello - Cima Settentrionale,1588.0
45.84855,9.617797,Monte Foldone Cima Sud,1504.0
46.021984,9.589818,Monte Tribortoi,2309.0
45.844723,9.607611,Corna Naguea,1250.0
45.981384,10.022763,Cima Fontanamora,2330.0
45.979004,10.018544,Cima di Valscura,2250.0
46.080147,10.362965,Dosso dell’Androla,1200.0
45.94307,9.635155,Pizzo di Mezzodì,1706.0
45.97841,10.370219,Punta Badiletto,1675.0
46.013714,10.256401,Cima delle Casse Larghe,2388.0
45.930363,10.495529,Cima Matteo Cili,2431.0
45.921246,10.47652,Monte Vaimane,2099.0
45.932487,10.490962,Cima di Bondolo,2550.0
45.95481,10.059287,Torrione Scandella,2320.0
46.093517,9.503823,Pizzo Beck,2265.0
46.38494,10.444274,Costone dei Sassi Neri,3062.0
46.26575,9.936465,Monte di Cup,2770.0
46.084747,9.742704,Cima di Cuminello Meridionale,2469.0
46.08722,9.739274,Cima di Cuminello Settentrionale,2466.0
46.024483,9.762945,Monte Brate,1932.0
46.032005,9.595387,Pizzo della Piana,2269.0
46.018555,9.533343,Falso Trona/ Punta F.O.M.,2490.0
46.01411,9.542498,Monte Giarolo,2443.0
46.015163,9.536367,Pizzo Paradiso,2493.0
46.01728,9.540457,Torre Maria/ Torre del Lago,2359.0
46.01476,9.56177,Torrione di Giacomo,2254.0
46.02259,9.5586,Dente di Mezzaluna,2282.0
46.022503,9.554828,Torrione di Mezzaluna,2333.0
46.02203,9.555101,Cima di Mezzo,2347.0
46.021374,9.555411,Pizzo di Mezzaluna,2373.0
46.338272,9.922795,Cima di Fellaria,3088.0
46.063454,9.784935,Pizzo di Valbona,2465.0
46.086452,9.809259,Cima Querciada,2382.0
46.075394,9.810481,Cima Mattarucchi,2466.0
46.038788,9.871313,Monte Sasso,2383.0
46.089066,9.512572,Punta di Sprisui,2184.0
46.013474,9.527437,Bastionata di Piazzocco,2480.0
45.92184,9.999596,Totem di Parè,1708.0
45.985165,9.722645,Corna dei Bagoli,1800.0
45.978493,9.710575,Monte Torcola Soliva,1783.0
45.989716,9.7318,Monte Torcola Vaga,1880.0
45.94279,9.800124,Cima di Val Vedra,2070.0
45.9994,9.8784275,Cima di Lago Nero,2110.0
46.060555,9.752517,Cima della Rovere,2369.0
45.975716,9.995441,Sasso di Fontanamora,2000.0
45.97943,10.003347,Cima di Val Sedornia,2044.0
46.082695,10.013189,Cima di Valsena,2647.0
46.283123,9.807043,Punta di Vall'Orsera,2861.0
46.238724,9.682802,Cima degli Alli,2725.0
46.24666,9.795147,Dosso Mastabbia,2456.0
46.116394,9.721017,Pizzo,2286.0
46.498466,10.373996,Crap de Molina,2409.0
46.4972,10.379132,Becco dell'Aquila,2495.0
46.018356,10.26166,Torrione di Baione,2372.0
46.019566,10.262111,Cima di Baione,2378.0
46.028038,9.549506,Punta Pio X,2265.0
46.029625,9.549126,Torrione Quadro,2284.0
46.448273,10.038002,Piz dals Lejs,3045.0
46.396004,10.1639,Punta dal Dügüral,3097.0
46.38756,9.861851,Piz Aguagliouls,3117.0
46.35967,9.999215,Piz Canton,3147.0
46.42157,10.116204,La Pala,3168.0
46.38677,9.815069,Piz dal Lej Alv,3196.0
46.388626,9.889135,Piz Umur,3253.0
46.42881,10.118673,Cima Valeta,3293.0
46.371662,9.814982,Chapütschin Pitschen,3328.0
46.376663,9.896304,Chapütschin da Naiv,3872.0
46.384598,9.906574,Piz Alv / Pizzo Bianco,3993.0
46.008717,9.8762245,Naso di Cabianca,2475.0
46.004055,9.879915,Monte Succotto,2304.0
46.001663,9.864448,Sasso d'Aviasco Settentrionale,2193.0
45.997227,9.865806,Sasso d'Aviasco Meridionale,2217.0
45.996613,9.860321,Sasso d'Aviasco Occidentale,2233.0
46.017666,9.845328,Punta Osvaldo Esposito,2170.0
46.032135,9.681563,Pizzo Cavallo,2062.0
45.875908,10.483307,Costone di Dolò,2192.0
46.117138,9.66225,Vetta del Püstaresc,1855.0
46.113983,9.66133,Cima di Cuurt,1947.0
46.032112,9.68154,Pizzo Cavallo ,2062.0
46.0317,9.681334,Pizzo Cavallo ,2062.0
46.03179,9.681039,Pizzo Cavallo,2062.0
45.704517,10.190898,Monte Cimone,651.0
45.66541,10.490325,Monte Misole,601.0
45.768383,9.726704,La Olta,893.0
45.947517,9.8061905,Corna Neel,2054.0
46.272427,10.06922,Motta da Torn,2034.0
46.328545,9.630723,Al Gal,2774.0
46.477215,9.90335,Muot Dadour,2278.0
46.477245,9.626957,Motta da Cuolmens,2146.0
46.458263,10.029661,Muot Arduond,2879.0
46.357235,10.034265,Mot da Sanza,2187.0
46.398914,9.693297,Mota Farun,1842.0
46.352753,10.042135,Mota di Böv,1871.0
46.364777,10.064736,Mott da la Scera,1328.0
46.408447,9.658893,Piz dal Sasc,2720.0
46.49504,9.627715,Motta da Starschagns,2069.0
46.360504,9.672426,Motbel,2174.0
46.37362,10.1027975,Motal,2517.0
46.483852,9.782834,Piz Albana Pitschen,2909.0
46.490948,9.875515,La Crasta,2012.0
46.479126,9.528657,Chlin Wissbärg,2601.0
46.37545,10.11476,Motta Rossa,2428.0
46.380154,10.132498,Scima da Rügiul,2987.0
46.292793,10.154228,Pizzo del Termine,2823.0
46.26983,10.06472,Motta da Scioschin,2224.0
46.356564,10.057982,Motta da Balbalera,1738.0
46.325672,9.6321535,Pizzo Frachiccio,2905.0
46.36779,9.688951,Piz Murtaira,2773.0
46.423527,10.032583,Motta Bianca,2560.0
46.458714,9.757668,Chavagl dal Polaschin,2829.0
46.471825,9.648633,Motta la Cresta,1827.0
46.311127,9.629046,Torre,2908.0
46.41468,10.069301,I Umet,2496.0
46.41316,10.153671,Motin,2474.0
46.312035,9.629941,Innominata,2927.0
46.379253,10.099277,Munt da San Franzesch,2176.0
46.358994,10.045542,Moti da Cavagliola,1753.0
46.32841,9.5941105,I Mot,2055.0
46.45089,9.854417,Piz Chatscheder,3028.0
46.465553,9.65041,Motta Balotta,1865.0
46.26969,10.168196,Pizzo Ometto - Banderola,2795.0
46.458538,10.038205,Muot dals Lejs,2707.0
46.226433,10.083427,Cima Buzzi,2344.0
46.330605,9.632118,Roda Val della Neve,2683.0
46.403145,9.644261,Piz Blanch,2393.0
46.329407,9.6312,Vergine,2707.0
46.306755,9.656205,Castel,2923.0
46.387894,10.111641,Motta da li Mutaneli,1964.0
46.496044,9.931444,Muot da Barba Peider,2979.0
46.280636,10.047315,Motta da Vartegna,2122.0
46.39211,10.057878,Motascia,2098.0
46.38286,10.103745,Motta Flurida,2124.0
46.41731,9.708168,Motta da Blaunca,2088.0
46.23418,10.05728,Al Mat,2582.0
46.34267,9.996175,Segnale di Pizzo Varuna,3080.0
46.343224,9.987683,Pizzo della Vedretta,2948.0
46.2799,10.428528,Cima Tremons,2832.0
46.301853,9.677466,Cima di Castello,3378.0
46.275654,9.770255,Sentinella della Vergine,2882.0
46.412045,10.400061,Monte Valllecetta - Cima Sud,3156.0
46.41191,9.965677,Diavolezza,2978.0
45.78409,9.519875,Prato della Costa,1410.0
45.82546,9.638538,Cima di Crosnello,1188.0
45.547504,10.373325,Monte Bolle,364.0
46.0326,9.902755,Anticima del Grabiasca,2670.0
45.950165,9.640074,Il Collino,1290.0
46.416546,9.523134,Bödengrat - Nordgipfel,2871.0
46.410007,9.66207,Triplo spartiacque Po/Reno/Danubio,2733.0
46.49974,10.146889,Punta Veceti,2710.0
