latitude,longitude,name,elevation
68.54581,63.238686,Отамыльк,186.0
68.52106,63.41069,Тендеръиз,198.0
68.640915,63.34649,Хальмермыльк,221.0
68.863144,62.71492,Пестанмыльк,222.0
68.86067,63.354874,Савабейиз,239.0
68.91904,63.30166,Сопчамыльк,328.0
68.80327,63.254967,Хэнгорсадимыльк,180.0
68.96726,62.5848,Янгареймыльк,330.0
69.203255,62.772453,Хубтапэ,330.0
69.135254,63.08419,Чёрный Из,309.0
