latitude,longitude,name,elevation
41.341095,-102.304634,Barn Butte,1093.0
41.42971,-101.80934,Bear Hill,1185.0
41.32221,-102.19185,Clay Peak,1075.0
41.369427,-102.369354,McCuligan Butte,1133.0
41.47054,-102.02046,Old Baldy,1180.0
41.390816,-102.42797,Sugar Loaf,1113.0
41.424984,-102.22269,Twin Buttes,1176.0
41.260902,-102.1152,Windlass Hill,1104.0
40.5111,-102.3613,Goddard Peak,1215.0
