latitude,longitude,name,elevation
50.396202,12.967968,Klínovec,1243.7
50.42914,12.954728,Fichtelberg,1215.0
50.456142,12.647017,Auersberg,1018.0
50.35564,12.839375,Plešivec,1030.0
50.40028,12.781944,Blatenský vrch,1043.2
50.42451,13.1114855,Mědník,910.0
49.767216,13.430138,Chlum,416.2
50.400986,12.88929,Božídarský Špičák,1116.2
49.680923,13.465343,Radyně,567.0
50.460556,13.086071,Velký Špičák,965.0
49.514587,12.6207485,Reichenstein,874.0
49.5243,12.632876,Ebene,894.0
50.490353,13.158564,Jelení hora,993.7
49.550144,12.636813,Velký Zvon,862.0
50.40236,12.525698,Großer Rammelsberg,963.0
50.078037,12.844998,Šibeniční vrch,632.0
49.741737,13.490476,Na Pohodnici,498.0
49.54215,12.590661,Eulenberg,818.0
50.4014,12.5449,Kleiner Rammelsberg,939.6
50.42959,12.774904,Písková skála,962.0
50.44195,12.971372,Eisenberg,1029.0
50.402344,12.694815,Korec,982.0
50.426403,12.573983,Schneehübel,974.0
50.452965,12.608578,Brückenberg,964.0
50.428524,12.654613,Rehhübel,931.6
50.46117,12.67065,Riesenberg,923.0
50.451946,12.754723,Rabenberg,913.0
50.4979,12.775688,Magnetenberg,755.5
50.422462,12.949953,Kleiner Fichtelberg,1206.0
50.20401,12.846561,Doubská hora,610.0
50.390095,12.722644,Zaječí vrch,1008.8
50.3878,12.927271,Dub,1001.0
50.42214,12.905969,Hubertky,1032.0
50.39826,12.992655,Macecha,1113.0
50.40306,12.84278,Nad Rýžovnou,1054.0
50.406487,13.044694,Vysoká seč,1006.0
50.399136,13.02331,Loučná,1019.0
50.442036,12.983826,Kreuzbrückfelsen,1018.0
50.33692,13.105124,Hora,817.3
50.30607,13.18945,Kloboukový vrch,630.3
50.338036,12.923829,Popovský kříž,752.2
50.40972,13.182933,Holubí Vrch,577.0
49.91569,12.974533,Špičák,595.3
50.456413,12.903872,Taufichtig,1002.0
50.369366,12.567323,Špičák,995.0
50.468067,13.004478,Toskabank,887.0
50.432274,12.821712,Komáří Vrch,967.8
49.96771,12.5029745,Dyleň,939.0
50.120197,13.4507885,Spálený vrch,499.0
49.59919,12.761011,Černá Hora,662.0
50.36388,13.17653,Černý vrch,678.0
50.372437,13.180332,Mravenčák,531.0
49.97287,12.770603,Podhorní vrch,847.0
50.401672,12.750404,Na strašidlech,913.0
50.121506,13.441949,Ovčí vrch,451.2
50.448906,12.914741,Pfahlberg,996.0
50.428772,12.917805,Wurzelberg,1059.0
50.481956,12.999636,Feuerturm,851.0
50.499855,12.964825,Pollmerfelsen,819.0
50.494816,12.981131,Habichtsberg,797.0
50.349945,12.909296,Popovská hora,901.0
50.291344,12.796404,Dvorsky vrch,573.0
50.316006,12.7961235,Nad Matysem,736.0
50.29197,12.781919,Hutnicky vrch,635.0
50.34949,12.785604,Dračí skála,953.0
50.32195,12.867854,Rozhled,706.0
50.329815,12.834561,Vlčinec,972.0
50.3333,12.790037,Trousnická skála,951.0
50.340954,12.558676,Komáří vrch,951.7
50.34085,12.539203,Kocici skala,830.0
50.48454,12.595397,Adlerfelsen,778.0
50.482803,12.576526,Mühlberg,825.0
50.47482,12.559474,Riedertberg,776.2
50.421726,12.850596,Tetřeví hora,1007.1
49.54081,12.525853,Stückberg,809.0
50.396946,12.527591,Jelení vrch,959.0
50.46187,13.275962,Poustevna,823.0
50.488377,12.935207,Kalkberg,818.2
50.428665,13.0134535,Vlčí kopec,973.0
49.570892,13.443119,Kožich,584.0
49.555794,13.426205,Hájek,588.0
50.22426,12.941291,Bukový vrch,700.0
49.816555,13.343695,Na Skalce,437.0
49.666557,12.984358,Šibeniční vrch,539.0
49.802975,13.341077,Krkavec,504.0
49.78544,13.347466,Sytná,451.0
50.36748,12.511531,Olověný vrch,802.4
49.60492,12.859987,Rozsocha,600.0
49.654125,12.926648,Valuška,483.0
49.634895,12.886307,Nad myslivnou,512.0
49.64204,12.910554,Liščí vrch,481.0
49.585617,12.763758,Zámecký vrch,564.0
49.623657,12.677004,Čapka,601.0
49.61117,12.665932,Kamenný vrch,739.0
49.507076,12.617139,Hochfels,755.0
49.664543,12.5113125,Greifenstein,619.0
49.67871,12.50046,Landerhübel,677.0
49.667377,12.504756,Waidhauser Sulzberg,640.0
50.499138,12.530878,Knock,725.5
50.484432,12.637232,Buckerberg,735.9
50.49022,12.630908,Tangelberg,721.6
50.390846,13.007473,Meluzína,1094.0
49.664574,12.52251,Rippelberg,553.0
50.405853,12.60188,Jeřábí vrch,965.0
50.464714,12.793474,Hirschsprung,852.0
49.72009,13.486194,Stradiště,489.0
49.508823,13.286668,Stramchyně,543.0
49.567223,12.639915,Mufloní vrch,690.3
50.03534,12.615793,Lesný,983.0
50.02254,12.651498,Lysina,978.0
50.02163,12.701421,Lovecký pahorek,854.0
50.10161,12.786409,Na vyhlídce,778.0
50.08007,13.215739,Vladař,693.2
49.534496,13.325531,Taneček (Lužanská Hora),500.2
49.62188,13.21319,Křížový vrch,487.0
50.21883,12.87137,Výšina přátelství,556.0
50.205723,12.896726,Vítkův vrch,644.0
50.205532,12.963764,Andělská hora,717.0
49.76875,13.343719,Sylvánský vrch,414.0
50.375294,12.896094,Hřeben,967.9
50.36036,12.902837,Čimický vrch,934.0
50.35634,12.5155525,Tisovec,807.0
50.181984,12.851722,Červený vrch,568.0
50.183975,12.684188,Těšovický vrch,469.0
50.236668,12.547587,šibeniční vrch,665.0
50.23965,12.577926,Boučský vrch,666.0
50.143135,12.719615,Zelený močál,797.0
50.155464,12.723245,Spálený vrch,746.0
49.52087,12.959803,Šibeniční vrch,459.0
50.389538,12.508826,Kamenáč,936.0
50.38697,12.512725,Tři skalky,915.0
50.40317,12.682909,Liščí hora,948.3
50.41035,12.681334,Buchschachtelberg,973.0
50.40314,12.665298,Liščí hůrka,933.2
49.994392,13.15799,Kozelka,659.8
50.49572,12.519191,Schuchhübel,728.0
50.499245,12.528989,Baumannsberg,721.0
49.810658,12.855639,Vlčí hora,704.0
50.384266,13.25815,Svatý vrch,402.0
50.440712,12.697299,Fastenberg,891.0
50.41977,12.703831,Silberberg,847.0
50.30274,12.572198,U chaty,640.0
50.44967,12.552467,Wölfeberg,816.0
50.462418,12.895579,Falscher Taufichtig,972.0
49.980392,13.17743,Špičák,610.8
49.720013,13.440727,Háje,436.0
49.60652,13.270198,Hůrka,426.0
50.43512,12.517574,Schuppenberg,764.0
50.42458,12.602761,Otterberg,917.0
50.313248,13.03733,Bukovec,506.7
50.336662,13.14546,Havraň,736.3
50.34339,13.14617,Humnický vrch,705.9
50.31759,13.05871,Jakubovský vrch,799.0
50.320213,13.094682,Malá Jehličná,726.9
50.34713,13.091472,Stoličná,731.3
50.342293,13.174685,Tok,720.4
50.31935,13.078144,Velká Jehličná,827.8
49.6842,13.412597,Valík,435.0
50.48325,13.183342,Komáří vrch,905.9
49.506714,12.574605,Drechselberg,836.0
49.99926,13.292331,Výrovec,490.0
50.45372,13.076585,Střední Špičák,924.2
50.40438,12.635265,Plochá hora,939.0
50.473618,12.698037,Hinterer Märzenberg,822.0
50.36873,12.925069,Klobouk,811.2
50.3721,12.927153,Stráž,839.2
49.664078,12.6776495,Šibeník,756.6
49.880993,12.799109,Homole,681.0
49.66594,13.413975,Štěnovický vrch,458.0
50.45442,12.712872,Kanzelstein,819.0
50.150826,12.930547,Výhledy,708.0
50.444855,12.950951,Gifthüttenberg,1047.0
50.181477,12.743723,Robič,536.0
50.17022,12.761891,Lněný vrch,605.0
50.178925,12.759606,Robotník,538.0
50.2201,12.859037,Čertův kámen,512.0
49.932175,12.503112,Hraniční vrch,735.0
49.939434,12.548167,Tišina,792.0
49.955845,12.558886,Hřebínek,703.0
49.963085,12.593432,Kameniště,718.0
50.247566,12.930074,Ve Spálené,461.0
50.252068,12.978,Na pastvinách,518.0
50.36419,13.088126,Nad Bočí,433.0
50.361633,13.109401,Holý kopec,440.0
50.36206,13.0546465,Pekelská skála,774.0
50.348465,13.045283,Nebesa,638.0
50.343727,13.034322,Dubový vrch,570.0
50.33383,13.023037,Šibeniční vrch,476.0
50.341755,13.009308,Chlůmek,538.0
50.317337,13.018419,Špičák,504.0
50.32819,12.998365,Táhlý vrch,553.0
50.318314,12.990925,Náhon,514.0
50.314316,13.009251,Na Valech,537.0
50.304024,13.079969,Nad Kyselkou,639.0
50.30315,13.090795,Strážný vrch,426.0
50.28421,12.998707,Liščí vrch,486.0
50.278233,12.998029,Košťál,467.0
50.29128,12.9611025,Zřícenina,499.0
50.28463,12.976763,Nad Rybníkem,485.0
50.26269,12.975309,Studený vrch,569.0
50.259556,12.945426,Lysý vrch,512.0
50.39112,12.689248,U štoly,941.6
50.457638,12.768876,Sauberg,797.0
50.19038,12.773893,Loketský vrch,565.0
49.534798,12.639513,Malý Zvon,847.0
50.1329,12.641001,U kaple,660.0
49.563713,13.118052,Kamenná hora,507.0
50.348827,12.735569,Tisovský vrch,976.6
50.378475,12.916136,Šance,925.6
50.255634,13.004897,Bučina,582.0
50.000816,12.7257595,Myslivny,794.0
50.372837,13.049805,Na Pastvinách,780.0
49.690308,12.691726,Jalovcový vrch,650.5
49.782944,13.479472,Chlum,414.0
49.80453,13.49414,Na Kameni,339.0
49.811695,13.46528,Vlčiny,397.0
49.71186,13.359431,Chlum,365.0
49.72368,13.398048,Velká Homolka,371.0
49.769062,13.469773,Černá mýť,419.0
49.832394,13.453482,U Petra,406.0
49.771255,13.447217,Holý vrch,373.0
49.815422,13.437151,Za křížkem,368.0
50.00797,13.205043,Chlumská hora,652.0
49.843735,13.459196,Peklo,393.0
49.854248,13.432092,Hůrka,397.0
49.86648,13.435118,Dolíčka,463.0
49.860195,13.43996,Kosina,456.0
49.884377,13.419769,Červený vrch,515.0
49.887833,13.452153,Kamenný vrch,460.0
49.901283,13.451603,Střední vrch,414.0
49.899094,13.405244,Na můstkách,485.0
49.910244,13.381725,Na Hrbech,434.0
49.91686,13.366527,Na Krásnici,462.0
49.90698,13.33392,Jezevčiny,507.0
49.69161,13.341169,Dubová hora,408.0
49.684612,13.329048,Farská hora,363.0
49.641212,13.315514,Hujáb,410.0
49.680027,13.337725,Hůrka,395.0
49.672832,13.324433,Březový vrch,391.0
49.666306,13.321885,Šlovický vrch,431.0
49.64144,13.374382,Jelení vrch,523.0
49.656853,13.357467,Kluk,465.0
49.640472,13.382607,Kozí kámen,500.0
49.627277,13.379812,Tlustá hora,477.0
49.870865,12.988182,Hradišťský vrch,633.0
49.879513,13.014152,Kozí vrch,533.0
49.86174,13.044964,Kozinec,530.0
49.831276,13.033052,Sviňomazský vrch,486.0
49.825592,13.021546,Zadní kopec,490.0
49.855713,13.027156,Slovanské hradiště,465.0
49.837723,12.9778,Zářečí,499.0
49.849197,12.941484,Očínská výšina,561.0
49.86502,12.929902,Nad vodojemem,558.0
49.87728,12.931852,Krasíkov,632.0
49.89232,12.933797,Ovčí vrch,697.0
49.935818,13.043184,Polínský vrch,685.0
49.88899,12.921467,Milkovské čihadlo,675.0
49.936436,12.947752,Kázek,654.0
49.979416,13.014952,Sepuska,716.0
49.956562,12.943867,Špičák,726.7
49.963295,12.962985,Stěnský vrch,762.0
49.892025,12.898203,Selský les,602.0
49.863583,12.888628,Herma,596.0
49.862267,12.861125,Kamenný vrch,608.0
49.855373,12.856528,Dlouhý vrch,579.0
49.849693,12.871957,Obecní les,583.0
49.777275,12.885634,Ostrovský vrch,503.0
49.769333,12.875938,Šárka,448.0
49.774303,12.7968855,Peklo,559.0
49.785168,12.79095,Kluzký vrch,556.0
49.80152,12.794077,Čihadlo,584.0
49.809834,12.801475,Spálený vrch,586.0
49.816906,12.783805,Výhledy,591.0
49.84312,12.824418,Na Palouku,535.0
49.851116,12.8354,Valaší vrch,560.0
49.862717,12.833178,Na Mýtince,581.0
50.141064,13.459117,Peklo,416.0
50.13098,13.485399,Vlčí hora,481.9
50.168476,13.499827,Běsenský vrch,402.0
50.079086,13.469611,Drahoušský vrch,549.0
50.055836,13.482393,Chlum,590.0
50.06508,13.471671,Přívraty,594.0
50.043972,13.476291,Lhotský vrch,606.0
49.970272,13.216889,Kněží hora,532.0
49.92576,13.097277,Lišák,677.1
49.952713,13.163815,Pachtínská stráň,622.4
49.969727,13.174458,Vysoký vrch,608.5
49.93651,13.203663,Lom,657.0
49.945496,13.187583,Velká mýť,658.0
49.938538,13.257311,Krmníky,597.0
49.94887,13.279645,Cíteř,589.0
49.960728,13.281048,Hůrka,532.0
49.97007,13.284702,Hůrky,532.0
49.93669,13.136113,Na vyhlídce,616.0
49.92374,13.168736,Čertův vrch,623.0
49.913486,13.207087,Prašivý vrch,606.0
49.900063,13.254674,Kozinec,524.0
49.883778,13.2336,Hřebensko,576.0
49.86852,13.183271,Nad Dvorem,516.0
49.871807,13.177268,Ovčácký vrch,524.0
49.859188,13.20151,Březový vrch,506.0
49.850266,13.213948,Kočičí vrch,484.0
49.85563,13.224889,Bukový vrch,510.0
49.864975,13.27055,Doubrava,496.0
49.790806,13.277084,Komberk,414.0
49.791115,13.302457,Stráž,440.0
49.684315,13.180352,Jetelový vrch,381.0
49.686314,13.1346245,Tříkopec,403.0
49.768112,13.087058,Flaška,507.0
49.691605,13.087215,Železný kopec,444.0
49.722244,13.052677,Kamenný vršek,491.0
49.733204,13.045748,Pořízek,467.0
49.72901,13.021634,Jirná,523.0
49.752514,13.015113,Křížový vrch,477.0
49.756298,13.023764,Evangelista,470.3
49.753483,13.080411,Klasnice,488.0
49.781147,13.111694,Sýkora,458.0
49.776375,13.083962,U Rájové,471.0
49.768394,13.133362,Burda,482.0
49.748817,13.125958,Harabaska,502.0
49.738266,13.190798,Dobrák,456.0
49.691494,13.284209,Ke Lhotě,364.0
49.69211,13.302638,Volský vrch,363.0
49.807785,13.154943,Čelín,450.0
49.8095,13.027221,Chlum,496.0
49.816044,13.015228,Kamenná hůrka,499.0
49.81166,12.995872,Kšický vrch,523.0
49.801872,12.982169,Stelka,545.0
50.007294,13.486639,Velký Špičák,555.0
49.99396,13.454409,Červená hora,510.1
49.96165,13.433216,Sv. Jan,514.0
49.946106,13.438411,Spálená hora,512.0
49.92676,13.40147,Špitál,411.0
49.92363,13.419322,Lazy,424.0
49.98819,13.400526,Na Babce,523.0
49.931355,13.368691,Na Kole,405.0
49.95598,13.381537,Na Hůrce,481.0
50.014862,12.691626,Modrý kámen,853.0
49.827488,13.345802,Špitál,404.0
49.806763,13.38353,Orlík,400.0
49.82406,13.416779,Luhová,410.0
49.832596,13.362679,Na Horách,416.0
49.838135,13.38477,Velká Lužina,402.0
49.852333,13.404845,Kamenný vrch,453.0
49.88041,13.340068,Berdovna,513.0
50.40379,12.858114,Psárkový vrch,1031.0
49.98877,12.513496,Mechový vrch,642.0
50.003216,12.532178,Lipovka,671.0
49.986267,12.526286,Střední vrch,738.0
49.987976,12.541282,Stráž,738.0
49.991165,12.560092,Chebský vršek,679.0
49.507023,12.752657,Nademlýnský vrch,562.0
49.508965,12.764599,Vraní hora,548.0
49.512608,12.773812,Skalky,533.0
49.52182,12.792227,Černava,512.0
49.9021,13.157403,Malý Špičák,605.0
49.941734,12.59251,Ovčí vrch,670.0
49.928856,12.591192,Cikánka,658.0
49.92039,12.595425,Medvědí vrch,621.0
49.905605,12.594339,Jezevčí vrch,633.0
49.894825,12.601495,Židův kopec,590.0
49.898525,12.55328,Hraniční vrch,660.0
49.891163,12.6271925,Nad Rybníčkem,587.0
49.91501,12.622524,Mlýnský vrch,652.0
49.91969,12.637962,Kraví hora,650.0
49.935123,12.638072,Panský vrch,658.0
49.95855,12.646533,Dubový vrch,630.0
49.968685,12.641967,Chlumek,606.0
49.971943,12.69683,Suchý vrch,650.0
49.972095,12.727333,Zádubská výšina,779.0
49.98255,12.706572,Žižkův vrch,750.0
49.96096,12.728218,Výhledy,704.0
49.613228,13.497227,Vlčtejn,522.0
50.416218,12.829499,Tokaniště,971.0
50.42907,12.804019,Kraví hora,958.0
50.448193,12.847513,Hraniční vrch,936.0
50.43707,12.866254,Nad starou šachtou,936.0
50.409508,12.790583,Sněžná hůrka,949.0
50.389225,12.791046,Smrčina,999.1
50.394405,12.762711,Jelení hora,936.0
50.386585,12.744188,Vlčí hora,946.0
50.434757,12.751934,Rudná,852.0
50.419147,12.74842,Dolina,811.0
50.41511,12.776052,Lískovec,892.0
50.417835,12.785979,Čupřina,949.0
50.357788,12.92106,Stříbrný vrch,876.0
50.351116,12.892605,Vlčí hřbet,901.6
50.35436,12.863023,Kamenná hůrka,828.0
50.356903,12.8526535,Skalka,935.0
50.36252,12.854554,Jelení,955.0
50.38517,12.93491,Hadí hora,940.0
50.41309,13.026938,Vápenný kopec,965.0
50.38633,12.99353,Na skalách,1037.2
50.368313,13.008228,Kupa,835.0
50.389004,13.0229845,Křížová hora,1027.0
50.380527,12.97473,Černá skála,1130.0
50.35749,13.025323,Nad Osvinovem,662.0
50.357674,12.990956,Nad Krásným lesem,802.0
50.38826,13.054696,Obora,865.0
50.254154,13.43775,Rubín,353.0
50.38432,12.560003,Skaliny,893.3
50.48972,12.512378,Oberer Keilberg,689.0
50.489323,12.529097,Unterer Keilberg,686.0
50.494186,12.567522,Krinitzberg,752.0
50.493607,12.668639,Sonnenberg,734.0
50.48876,12.657741,Hirschknochen,742.0
50.47997,12.676774,Eselsberg,867.0
50.482254,12.695054,Fällberg,844.0
50.48407,12.686237,Vorderer Märzenberg,805.0
50.49036,12.91434,Kleiner Hemmberg,742.1
50.465366,12.947569,Kuhbrückenberg,898.0
50.490406,12.894772,Großer Hemmberg,829.0
50.496536,12.841153,Bärskamm,686.0
50.48532,12.758194,Zechenhübel,770.0
50.493557,12.801972,Zigeuner,689.0
50.485565,12.800337,Sonnenberg,758.0
50.481056,12.814514,Ochsenkopf,833.0
50.46078,12.827551,Strobelberg,774.0
50.455776,12.880404,Dreiberg,960.0
50.473003,12.92084,Katzenstein,877.0
50.47987,12.940471,Steinkamm,812.0
50.478813,12.950575,Morgenberg,818.0
50.481136,12.826159,Hirtenberg,805.2
50.442314,12.58389,Steinberg,915.0
50.44047,12.630187,Schöne Aussicht,883.0
50.417618,12.649686,Bruchkamm,943.0
50.46442,12.7162,Fastenberg,769.4
50.475437,12.717081,Brandberg,711.0
50.480827,12.736277,Kammerstein,726.0
50.456703,12.624598,Ellbogen,899.0
50.421215,12.521126,Saurücken,761.0
49.85033,12.602681,Štokovský vrch,722.0
49.630886,12.870242,Chlum,610.0
50.198616,13.177457,Mlýnský vrch,815.0
50.204487,13.173216,Větrník,801.0
50.208904,13.171271,Seč,826.0
50.199005,13.147918,Za Tonkou,844.0
50.193527,13.138474,Stěna,814.0
50.193985,13.120108,Vysoká hora,871.0
50.185352,13.126378,Císařský vrch,784.0
50.186897,13.152478,Na Tonce,801.0
50.293957,12.633816,Větrník,706.4
50.366226,12.716693,Dvorský vrch,839.0
50.218525,13.064998,Větrovec,900.9
50.209576,13.021307,U Borovic,747.0
50.202927,13.04678,Vysoká pláň,890.0
50.200924,13.073391,Na raketě,911.7
50.225925,13.200427,Jedlová,719.8
50.203583,13.223419,Číhaná,747.5
50.184616,13.226756,Prokopy,750.0
50.19453,13.218731,Pilíř,762.6
50.17396,13.207657,Janský vrch,718.7
50.184177,13.183224,Zlatý vrch,786.1
50.212757,13.153445,Jírovské strážiště,855.5
50.227406,13.079728,U tokaniště,835.7
50.21777,13.12658,Hradiště,934.0
50.222885,13.132235,Železná hora,884.5
50.223984,13.146478,Hřeblo,864.1
50.22956,13.165247,Nad zunou,748.2
50.270004,13.149583,Trmovský vrch,743.9
50.26776,13.1921015,Obrovická hora,603.8
50.234196,13.221488,lopota,640.8
50.236748,13.214879,Konický vrch,624.8
50.239403,13.194183,Dubina,730.0
50.236412,13.17574,Kamenná hůrka,657.0
50.2397,13.151483,Zlatá hora,721.0
50.27617,13.110069,Huseň,762.0
50.279015,13.063839,Pekelný vrch,690.5
50.286583,13.076884,Kameniště,698.3
50.304707,13.033562,Klobouk,522.5
50.294823,13.065513,Na zabitém,607.5
50.296284,13.047102,Petrovský vrch,613.4
50.288063,13.029056,Na pastvinách,523.0
50.27334,13.040085,Na hřebenu,601.7
50.269592,13.059203,Špičák,626.4
50.263847,13.085553,U střelnice,635.2
50.254353,13.064868,Na hradě,593.8
50.253777,13.03826,Na větrné,573.3
50.23602,13.063474,Svěrák,700.2
50.231876,13.116453,Tmavý vrch,857.1
49.74604,13.015092,Hůrka,466.7
49.66563,12.6528015,Ovčí kopec,705.5
49.658092,12.659527,Pšeničný vrch,720.0
49.669697,12.639108,Židovská stráň,650.5
49.664387,12.62811,Tomáška,631.3
49.648026,12.666334,Málkovský vrch,760.9
49.682182,12.685717,Lískový vrch,708.5
49.653156,12.633513,Suchý kopec,615.6
49.652466,12.641026,Na Výhledech,625.2
49.676407,12.711833,Křížový vrch,583.1
49.57233,12.645126,Dlouhý vrch,662.0
50.357487,12.602628,Čertova hora,987.0
49.622,12.855641,Racovský vrch,619.0
49.61353,12.856328,Třístolec,589.0
49.60735,12.869435,Písečný vrch,582.0
49.605545,12.881378,Rybniční vrch,562.0
49.612995,12.872043,Jedlový vrch,523.0
49.615105,12.880866,Stinný vrch,545.0
49.607494,12.900188,Křakovský vrch,563.0
49.612442,12.9040785,Malý Křakovský vrch,532.0
49.602642,12.932485,Prasečí,522.0
49.611607,12.928706,Semněvický les,519.0
49.818146,12.522214,Jezvinec,698.0
50.180946,12.788639,Koule,659.0
50.458424,12.580218,Zeisiggesang,922.0
49.519547,13.340298,Loupensko,560.0
49.681942,12.612163,Sklárenský vrch,593.0
49.76596,13.384095,Mikulka,378.0
49.824936,12.76642,Soví vrch,583.6
50.11734,12.54494,Smrčný,524.0
50.065273,12.593103,Kozák,747.0
50.05634,12.572477,Na Srázu,698.0
49.748383,13.463485,Holý vrch,441.1
50.07887,12.807682,Zelená hora,665.0
50.144318,12.533771,Zelený vrch,570.0
50.255062,12.614288,Špičák,731.0
50.26651,12.652936,Bílá skála,711.6
49.64474,12.507282,Kreuzberg,532.0
50.04558,12.581537,Kamenná hora,794.0
49.648,12.509299,Lehenbühl,540.0
50.454712,12.808931,Fritzschberg,854.3
50.025158,13.137363,Zbraslavský vrch,675.0
50.491814,12.645999,Hirschkopf,697.2
50.468727,12.536855,Ameisenhübel,696.5
50.43483,12.63895,Leistnerhübel,875.0
50.35945,13.238057,Úhošť,593.0
50.445267,12.859115,Kaffenberg,924.5
49.704094,13.222461,Šibeniční vrch,355.1
49.77683,12.573681,Polom,711.0
49.764412,12.592049,Rozsocha,758.0
49.759754,12.604151,Ptáčník,691.0
49.751606,12.56278,Borek,744.0
49.741566,12.604408,Brtník,678.0
49.726254,12.617326,Pořejovský vrch,707.0
49.708218,12.5348,Jestřábí vrch,663.0
49.740566,12.535572,Peklo,715.0
49.74595,12.55218,Holý vrch,714.0
49.734966,12.554369,Smrčina,658.0
49.69162,12.533941,Jezevčí vrch,630.0
49.741512,12.527332,Pustý vrch,745.0
49.76225,12.512569,Kamenny vrch,714.0
49.74312,12.504501,Sklarský vrch,763.0
49.704166,12.521839,Javorný vrch,680.0
49.72642,12.524929,Chloumek,730.0
49.715767,12.518406,Liščí vrch,710.0
49.696728,12.519565,Hamerský vrch,605.0
49.805256,12.554326,Pastvina,625.0
49.817787,12.537031,Oborský vrch,656.0
49.809464,12.585139,Dvorský vrch,594.0
49.867203,12.611167,Obecni les,642.0
49.87539,12.606297,Na Homoli,619.0
49.825912,12.559347,Vysina,730.0
49.822037,12.571278,Zeleny vrch,620.0
49.85756,12.541194,Kammený vrch,750.0
49.798496,12.500124,Lisčí vrch,709.0
49.806767,12.513277,Uhlířský vrch,650.0
49.83481,12.583616,Nad Krizkem,630.0
49.84014,12.519908,Branka,675.0
49.52738,12.656937,Železný vrch,790.0
49.520195,12.651529,Velká sk.,794.0
49.57203,12.690701,Smolovský vrch,611.0
49.56783,12.693285,Bystřický vrch,618.0
49.55834,12.682373,Výšina,708.0
49.568478,12.668867,Srnčí vrch,564.0
49.584797,12.635222,Bukovina,659.0
49.58242,12.657666,Nad rybníkem,567.0
49.69684,12.644148,Farská stráň,692.0
49.690952,12.630672,Kámen,629.0
49.69101,12.653675,Spáleniště,647.0
49.684345,12.64492,Šibeniční vrch,637.0
49.63097,12.576884,Třískolupský vrch,533.0
49.64242,12.572754,Jelení vrch,514.0
49.619053,12.61445,Bukáč,571.0
49.61871,12.651759,Lísková,606.0
49.636997,12.640328,Kamenice,663.0
49.63876,12.633268,Kamenice,655.0
49.63976,12.638354,Srní vrch,649.0
49.53243,12.686896,Horšínský háj,598.0
49.518185,12.7045765,Stráž,753.0
49.525486,12.709122,Mošna,717.0
49.571457,12.620759,U vodojemu,641.0
49.547897,12.598989,Plešský vrch,794.0
49.560463,12.6078415,U Svícnové jedle,731.0
49.69756,12.62784,Mlýnský vrch,648.0
49.652092,12.6115,Šestý železný hamr,521.0
49.69024,12.579023,U mostu,527.0
49.680195,12.59516,Pansky vrch,561.0
49.69448,12.553157,Medvědí vrch,575.0
49.638092,12.532529,Mělký důl,516.9
49.64846,12.525015,Strebelsky vrch,566.0
49.654137,12.54777,Smrčina,541.9
49.659904,12.5267315,Nad celnicí,549.0
49.66067,12.548315,Nad Rašelinami,576.4
49.66917,12.542846,Březový vrch,625.0
49.68182,12.562362,Tchoří vrch,572.0
49.5253,12.601071,Schillerberg,784.0
49.536705,12.567544,Lindauer Berg,737.0
49.53383,12.576031,Gradelhöhe,745.0
49.525276,12.557931,Steinbühl,730.0
49.518356,12.5348,Geißbühel,731.0
49.52169,12.52451,Luderberg,742.0
49.53193,12.543479,Gruberberg,686.0
49.571888,12.500306,Pflugbühl,561.0
49.53011,12.519714,Greiner,788.0
50.229523,12.96998,Šemnická skála,644.0
50.171158,13.431275,Na výhledech,385.0
50.48631,13.328649,Klenovec,757.0
50.164818,12.801612,Buková,736.0
50.460514,13.01279,Steinberg,877.0
50.45355,13.013062,Bachberg,883.0
50.140095,12.724929,Krudum,839.0
50.1101,13.328122,Čertovka,587.2
50.226955,12.891703,Ottova výšina,601.0
50.372765,13.146758,Šumburk,541.0
49.613937,12.773366,U Křížku,558.0
49.66063,12.803675,Hamerský vrch,494.0
49.6536,12.80522,Homolka,509.0
49.64508,12.8033695,Homole,579.0
49.638878,12.802216,Pískový vrch,579.0
49.67216,12.754929,Čihadlo,516.0
49.66049,12.756049,Výhled,573.0
49.552906,12.82186,Ptáčník,507.0
49.543034,12.808557,Slatinský vrch,519.0
50.47508,13.026539,Nad Vodárnou,814.0
50.48755,13.028486,Nad Pivovarem,781.0
50.46966,13.013745,Luxberg,795.0
49.540295,13.184856,Srnčí vrch,535.0
50.279285,13.011268,Králák,387.0
49.86674,13.103123,Vinice,590.0
49.548424,13.1889925,Lipový vrch,433.0
49.529243,13.15391,Smrčí,477.0
49.517338,13.179526,Ptenínská hora,492.0
49.50059,13.177505,Chlumec,489.0
49.519993,13.210028,Spáleniště,479.0
49.68269,12.668411,Přimda,848.1
50.164154,13.212415,Hlavákovský vrch,682.9
50.089085,13.258882,Nad Střelou,600.9
50.073963,13.294088,Nad Dvorcem,562.1
49.99544,13.165284,Doubravický vrch,658.0
49.97719,13.246118,Vítovka,479.0
50.12221,13.365825,Kapucín,470.0
50.068214,12.792529,U Kyselky,750.0
50.083374,12.717003,Zaječí vrch,839.0
50.138382,12.670972,Pasecký vrch,751.0
50.31119,13.275594,Vintířovský vrch,386.0
49.892654,13.403515,Zadní Puchýř,494.0
49.932842,13.442341,Pytel,486.0
50.389046,12.603835,Milíře,942.0
49.88788,13.31051,Červený vrch,476.0
49.54699,13.386152,Jindřín,535.0
49.53246,13.363933,Černý les,542.0
49.531822,13.409863,Nevěrná,571.0
49.541145,13.428429,Klesinka,587.0
49.55707,13.395477,Hůrka,490.0
50.250957,13.429193,Homole,349.0
49.521275,13.320123,Skalka,484.0
49.503162,13.388952,Luh,564.0
49.50424,13.405324,Holý vrch,569.0
49.50574,13.452152,Rampich,592.0
50.160378,13.281529,Orlík,552.0
50.33626,13.260522,Kobyla,619.0
50.335045,13.289356,Kolina,507.0
49.901085,13.411922,Křístalův vrch,476.0
49.810905,12.607339,Světecký vrch,616.0
50.11198,12.769631,Šibeník,819.0
50.49521,13.093517,Černopotocký vrch,849.5
50.467537,13.114559,Hájiště,808.3
50.404655,13.097163,Vysoká,805.0
50.274345,12.630954,Jedlovník,720.7
50.295746,12.648542,Dančí vrch,719.0
50.33806,12.516054,Hradiště,717.1
50.380768,12.525062,Nad mlýnem,817.3
50.36626,12.532606,Stříbrný vrch,766.0
50.356216,12.557645,Bukový vrch,904.0
50.37109,12.549232,Šišák,856.0
50.37255,12.538164,Oslí vrch,826.5
50.388836,12.549416,Vyhlídka,874.6
50.39925,12.557223,Zadní Ostružník,957.9
50.392357,12.57022,Přední Ostružník,950.0
50.37913,12.569081,Bukovec,904.7
50.361317,12.580892,Jelení hora,954.2
50.37759,12.593614,Smrčina,946.1
50.374184,12.624786,Vlčí hora,928.6
50.369755,12.644239,Skalisko,913.2
50.3469,12.65017,Pláň,943.8
50.341476,12.647443,Strmý vrch,923.2
50.336605,12.664871,Stráž,909.3
50.331825,12.664195,Javorník,900.8
50.376766,12.710111,Čihadlo,897.0
50.36821,12.737391,Borový vrch,924.1
50.385986,12.623843,Rolavský vrch,951.0
49.905262,13.378652,Bílý vrch,436.0
50.418774,13.003625,Hajský kopec,989.4
50.445595,13.034918,Kamenný vrch,962.8
50.457653,13.035273,Strážce,932.3
50.470604,13.146341,Holý vrch,795.9
50.33752,12.691811,Jedlovec,853.5
49.689976,12.898488,Kleštiny,494.0
50.30007,13.279681,Kopeček,363.0
49.575718,13.370847,Střížov,522.0
50.01415,13.002245,Třebouňský vrch,825.0
50.001984,12.995691,Branišovský vrch,813.0
50.11071,12.716468,Rozhledy,859.0
49.863647,13.325361,U Perta,452.0
50.13466,12.708292,Lobezský vrch,806.0
50.356995,12.691044,Havraní vrch,841.0
50.01174,12.667182,Za rozcestím,879.0
50.006126,12.6503725,Holina,806.0
49.9848,12.656885,Na hvězdě,622.0
49.989456,12.724745,Na Polomu,807.0
50.008144,12.7513,V Karpatech,779.0
50.03048,12.727173,Vlčí kámen,883.0
50.040375,12.752023,V boru,861.0
50.04288,12.756463,Císařský les,851.0
50.060886,12.7739525,V boru,801.0
50.087082,12.786062,Širák,760.0
50.11493,12.762051,Špičák,829.0
50.118313,12.766844,Malý Špičák,825.0
50.11259,12.740686,Komáří vrch,791.0
50.120693,12.733833,Na jelení,766.0
50.128555,12.746855,Svárov,711.0
50.145924,12.710594,Uhlířský vrch,736.0
50.14017,12.689527,Zlatý vrch,779.0
50.124405,12.619639,Letná,601.0
50.088345,12.658147,Říjiště,784.0
50.06529,12.665308,Ztracená,855.0
50.09069,12.7104645,Sklený vrch,831.0
50.11351,12.693453,Stolec,785.0
50.03777,12.675352,Hvězdice,844.0
50.036057,12.663995,Vlčinec,872.0
50.040905,12.598626,Ovčák,899.0
50.029114,12.592704,Kružný,863.0
50.05832,12.579002,Javořík,707.0
50.023357,12.599545,Homole,785.0
50.025,12.613333,Obora,857.0
50.016087,12.634511,Valy,867.0
50.011536,12.632753,Špičák,809.0
50.051952,12.625774,Lazský vrch,849.0
50.06655,12.62806,Žitný,794.0
50.136154,12.622149,Rudolecký vrch,514.0
50.146397,12.686048,Pařez,702.0
50.162178,12.71053,Květný vrch,640.0
50.182632,12.778193,U lovčí komory,619.0
50.16288,12.779895,Srázný vrch,614.0
50.18305,12.807284,Bučina,628.0
50.18276,12.826429,Jelení vrch,645.0
50.188957,12.824958,Březinka,605.0
50.159,12.819931,Stránisko,704.0
50.142204,12.821145,Nad větrným dvorem,630.0
50.139923,12.842047,V březí,640.0
50.127876,12.832347,Lesnický kopec,690.0
49.978672,12.710968,Mlýnský vrch,711.0
49.980915,12.686522,Srnčí hřbet,701.0
50.339138,13.035015,Na skalách,545.0
49.69883,13.440298,Ostrá Hůrka,397.0
49.7586,13.377802,U Všech svatých,337.0
50.17015,13.317965,Skytalský vrch,552.4
49.64572,13.374734,Vysoká,521.0
50.38661,12.87307,Barbora,1033.3
50.373947,12.756021,Liščí hora,993.3
50.32819,12.804005,Trousnice,951.7
50.323692,12.788745,Komora,852.8
50.318764,12.773679,Smolný vrch,757.9
50.33602,12.756559,Vysoká jedle,851.7
50.3278,12.770764,Světlina,815.2
50.33489,12.769454,Oldřichovský vrch,843.3
50.4042,12.582549,Bažiňák,946.0
50.395847,12.58773,Vysoký vrch,946.0
50.41186,12.984462,Na kopci,986.1
50.086685,12.853469,Psí skála,708.0
50.080612,12.841086,Zlatý vrch,604.0
50.073868,12.834425,Petrova hora,644.0
50.072002,12.848985,Homolka,697.0
50.062878,12.839272,Nad tratí,695.0
50.067577,12.861423,U hájenky,713.0
50.037014,12.847236,Tisovský vrch,740.0
50.047745,12.840595,Lysý vrch,714.0
50.039017,12.833323,Nad zastávkou,692.0
50.033337,12.858494,Liščí vrch,712.0
50.023865,12.831768,Spálený,736.0
50.02358,12.854121,U židovského hřbitova,703.0
50.019455,12.878299,Holý kopec,696.0
50.050983,12.858695,U chaty,691.0
50.059616,12.880671,Nad roklí,684.0
50.071865,12.896172,U Bečova,701.0
50.07882,12.883768,U Vitriolky,703.0
50.084675,12.897691,U odolenovických hranic,739.0
50.08209,12.916351,Nad chalupou,684.0
50.080963,12.95634,Nad ovčínem,660.0
50.07156,13.000793,Šibeniční vrch,653.0
50.102127,13.016235,Pěčkovický kopec,668.0
50.12515,13.006021,Mirotický vrch,791.0
50.141483,13.036409,Zámecký vrch,736.0
50.15009,13.011328,Kozel,698.0
50.14842,12.986876,Liščí hora,706.0
50.18808,12.86943,Zámecký vrch,624.0
50.18201,12.865331,Stanovický kopec,546.0
50.162025,12.85739,U křížku,610.0
50.16118,12.848922,Mlýnský vrch,577.0
50.158787,12.851958,Nad lomem,593.0
50.15849,12.871107,U silnice,587.0
50.151443,12.864815,Zimní stráň,635.0
50.149082,12.880942,Dražovský vrch,689.0
50.142414,12.860284,Bečovský kopec,598.0
50.136715,12.867297,V zákoutí,613.0
50.13511,12.888903,Kameník,724.0
50.11835,12.893832,Hůrka,817.0
50.120758,12.857833,Skalnatý vrch,673.0
50.11166,12.858495,Dřevařský vrch,697.0
50.104362,12.869938,Besídka,713.0
50.10161,12.874219,Paseka,707.0
50.108387,12.879561,Tančírna,716.0
50.105553,12.886079,Mezicestí,718.0
50.114616,12.9381,Chloumecký kopec,788.0
50.102695,12.95049,Chylický les,659.0
50.09775,12.948598,Ješátkův kopec,653.0
50.123062,12.973877,Bučka,722.0
50.131077,12.952633,Lysina,753.0
50.143726,12.912652,Uhelný vrch,773.0
50.407097,12.947526,Bartholomäusberg,1155.0
50.066624,13.05969,Homolka,713.0
50.06713,13.094487,Stubelka,672.0
50.068974,13.11979,Ptačí vrch,626.0
50.060497,13.140057,Pohořelec,567.0
50.0681,13.144205,Za transformátorem,593.0
50.08332,13.166435,Nevděk,630.0
50.098343,13.166758,Hlínovec,607.0
50.10553,13.136586,Lamberk,701.0
50.11461,13.125796,Holý vrch,695.0
50.121983,13.109883,Havraní vrch,694.0
50.140198,13.078695,Pastviny,677.0
50.15047,13.083128,Nad sklepem,651.0
50.170815,13.066727,Valovský vrch,763.0
50.179806,13.080285,Jelení komora,787.0
50.189903,13.100838,Klobouk,789.0
50.20106,13.101799,Znělec,825.0
50.170654,13.031741,Roháč,728.0
50.175327,13.012077,Mezník,724.0
50.193867,13.026807,Plešivec,841.0
50.211273,13.000335,Podkova,749.0
50.22107,12.973037,Kamenný vrch,628.0
50.235504,13.013511,Lučinský vrch,535.0
50.24944,13.01332,Na Klobouku,604.0
50.271088,13.020848,Uhlířský vrch,533.0
50.10919,13.056517,Jesínecký vrch,718.0
50.099125,13.061805,Muriňák,665.0
50.09088,13.044176,Mašličky,631.0
50.084843,13.047763,Jánský vrch,624.0
50.085358,13.067864,Čertův vrch,611.0
50.09102,13.072467,Čerťák,646.0
50.08878,13.091696,Na zadu,578.0
50.097332,13.099281,Nad hřbitovem,630.0
50.09824,13.0861435,Vraní vrch,638.0
50.080925,13.111356,Mlyňanský vrch,634.0
50.105064,13.110176,Doubrava,604.0
49.998566,13.153419,Špičák,597.0
49.953133,13.072408,U višně,678.0
49.96333,13.069238,Ovčí hora,692.0
49.970215,13.062453,Saskův kopec,679.0
49.948036,13.0267315,Na rovníčkách,614.0
49.928986,13.152499,Jedlový vrch,624.0
50.130493,13.219276,U Bošova,588.0
50.115486,13.221782,Nad ovčínem,580.0
50.110966,13.206274,Na Karlově,586.0
50.12153,13.267057,Jezerský vrch,590.0
50.11328,13.272577,Buš,542.0
50.110046,13.2862015,Na Žďárku,570.0
50.10242,13.26868,Vyhlídka,546.0
50.077515,13.264688,Nad Luby,572.0
50.086205,13.288198,Číhaná,582.0
50.096848,13.301484,Horka,601.0
50.045498,13.273085,Gamberk,538.0
50.047535,13.254439,Za lesem,538.0
50.038643,13.24035,U Vísky,479.0
50.027054,13.22296,Červený vrch,495.0
50.032352,13.169409,Návrší,573.0
50.067314,13.191179,Na vršku,582.0
50.076397,13.169605,Krkavec,574.0
50.06213,13.3027935,Poustky,597.0
50.066353,13.318666,Kočičí vrch,607.0
50.03962,13.328427,Hajka,590.0
50.024395,13.318638,Strážný vrch,554.0
50.011215,13.2746315,Úvratec,548.0
50.01872,13.267992,Úvratce,518.0
50.02684,13.281294,Na spáleném,505.0
50.035408,13.263606,Čelín,525.0
49.985855,13.269198,Doubravický vrch,555.0
50.32415,13.215945,Dlouhý Luh,755.0
50.385693,12.6724205,Jelení vrch,933.0
50.367355,12.661077,Chaloupecký vrch,900.0
50.369896,12.686139,Vysoký vrch,883.0
50.359406,12.711181,Křovitá stráň,828.0
50.32589,12.578396,Kosina,770.0
50.325176,12.593767,Oborský vrch,732.0
50.322918,12.587432,Dolní Obora,688.0
50.320385,12.582585,Kozlík,695.0
50.31552,12.589287,Dobytčí vrch,653.0
50.32012,12.543387,Sklenský vrch,816.0
50.32818,12.519975,Šibeniční vrch,660.0
50.381176,12.535329,Jelínek,809.0
50.34091,12.584755,Dřevák,861.0
50.341152,12.597783,Stolice,832.0
50.340504,12.629414,Vršina,900.0
50.345783,12.659154,Široký kopec,870.0
50.328457,12.680689,Bernovská hora,792.0
50.32837,12.694139,Nejdecký Špičák,784.5
50.341045,12.679477,Skalnatý vrch,907.0
50.34095,12.671168,Díže,919.0
50.351444,12.66154,Rudenský Špičák,926.5
50.357067,12.63991,Rudenské návrší,934.0
50.352226,12.632811,Kameniště,928.0
50.3672,12.760512,Perninský vrch,999.6
50.168396,13.108153,Tiský vrch,732.0
50.16028,13.076483,Na kupě,712.0
50.170902,13.131298,Mlýnský vršek,712.0
50.177486,13.143158,Kamenný vršek,767.0
50.16903,13.1477165,Lomy,687.0
50.153152,13.140347,Záhořský vrch,710.0
50.16124,13.1762705,Albeřická hůrka,632.0
50.18914,13.2479105,Šibeniční vrch,675.0
50.185966,13.255874,Jedliny,702.0
50.180645,13.265397,Na spravedlnosti,632.0
50.176144,13.272768,Šibeniční vrch,619.0
50.156002,13.275682,Záhořský les,558.0
50.18092,13.324253,Nad lomem,505.0
50.186142,13.316637,Kružínský vrch,536.0
50.199646,13.359787,Dubový vrch,476.0
50.19865,13.396024,U silnice,397.0
50.20448,13.404071,Kozinec,393.0
50.19811,13.305763,Dětaňský chlum,540.0
50.191456,13.27114,Korunka,577.0
50.14224,13.3447485,Vysoká stráž,414.0
50.126324,13.359939,Jelení,427.0
50.150204,13.316815,Libyňský kopec,450.0
50.15243,13.317024,Vochlice,448.0
50.143833,13.32996,Na skalce,416.0
50.13853,13.297859,U pískovny,428.0
50.1633,13.240746,Na Kalvárii,604.0
50.162064,13.339581,Na kopci,401.0
50.14926,13.372704,Kapucínský vrch,410.0
50.160137,13.377699,Červený vrch,356.0
50.17552,13.390054,Mlýnský kopec,344.0
50.174034,13.391458,Knorův vrch,337.0
50.16881,13.397541,Agátový vrch,345.0
50.167347,13.418898,Šibeník,333.0
50.15215,13.425704,Klíčovka,399.0
50.132896,13.3914995,Mlýnský vrch,416.0
50.213593,13.329404,Velká,493.0
50.216766,13.358686,Šibeník,411.0
50.210293,13.3606415,Skřivánčí,397.0
50.21467,13.423302,Valovský kopec,380.0
50.46171,13.032447,Vysoký kámen,920.0
