latitude,longitude,name,elevation
64.23262,15.934804,Tåsjöberget,635.0
63.583534,15.910432,Granberget,490.0
64.14685,16.30071,Fågelhasberget,462.0
63.71344,16.086647,Brattforsberget,325.0
64.16946,16.42636,Långmyrberget,494.0
64.24075,16.383852,Fäbodberget,503.0
63.752903,16.30626,Mångmansberget,445.0
63.83662,16.350876,Landsomberget,427.0
63.97507,16.224789,Österhållen,469.0
64.025986,16.244272,Brattforsberget,398.0
64.27509,15.841239,Brattberget,445.0
64.26514,15.87059,Hallahotberget,443.0
