latitude,longitude,name,elevation
24.600595,85.580795,Dubaur,676.0
24.741842,86.07112,Math Pahar,550.0
24.789562,85.61897,Baksoti,241.0
24.694546,85.588104,Budua,555.0
24.68965,85.66412,Tiktikwa,622.0
24.71783,85.766075,Muhāwar,673.0
24.585344,85.97156,Kāla Pahār,382.0
24.693815,86.0281,Manihāri,442.0
24.54453,85.7031,Baghrujot,519.0
24.570082,85.66219,Māromāko Pahār,623.0
