latitude,longitude,name,elevation
45.038887,98.32839,Улаан Овоо,3215.0
44.87884,98.279724,Эрдэнэхүрэн,2632.2
45.49808,97.50036,Өндөр Улаан,2402.7
45.339092,97.519295,цэг /орой/,3539.7
45.207684,97.8934,цэг,2965.0
45.18846,98.03531,Хан хайрхан,3191.3
