latitude,longitude,name,elevation
7.683889,122.4875,Utong Hill,131.0
7.549167,122.41639,Mount Cinital,221.0
7.6575,122.44278,Lingatungan Hill,188.0
7.701667,122.353615,Tupilac Peak,683.0
7.761667,122.49,Quipit Peak,899.0
