latitude,longitude,name,elevation
-20.588657,164.77028,Mont Panié,1629.0
-21.311008,165.26157,Pic Adjio,703.0
-21.176472,165.26784,Mont Aoupinié,1006.0
-21.027828,164.73741,Mont Kaféaté,264.0
-20.923513,164.70247,Kathépaïk,621.9
-21.4177,165.36418,Keiyouma,1424.0
-20.656857,164.80788,Paepoa,609.0
