latitude,longitude,name,elevation
-20.721111,140.53723,Mount Avarice,291.0
-20.6625,140.65306,Mount Douglas,277.0
-20.558332,140.505,Mount Marathon,249.0
-20.918888,140.69806,Mount Norna,415.0
-20.991945,140.73889,Soldiers Cap,377.0
-20.87086,140.61629,Camel Hill,337.0
-20.58172,140.65965,Castle Rock,196.0
-20.93245,140.61617,Davis Hill,385.0
