latitude,longitude,name,elevation
51.936474,-176.7423,Mount Moffett,1196.0
51.9901,-176.5872,Mount Adagdak,610.0
51.973938,-176.62254,Ayagaachux,328.0
51.767723,-176.77036,Mount Vincennes,591.0
51.824673,-176.7013,Mount Reed,588.0
51.886127,-176.64034,Red Bluff,22.0
51.711594,-176.75362,Split Top,587.0
