latitude,longitude,name,elevation
46.607746,12.044572,Col Becchei Dessora,2794.0
46.577614,12.288273,Cima Cadin di San Lucano,2839.0
46.946487,11.507796,Rollspitze - Cima Rolle,2800.0
46.507397,12.340437,Cimon del Froppa,2932.0
46.87189,12.357969,Weiße Spitze,2962.0
47.337444,12.49528,Geißstein,2363.0
47.33311,12.296294,Großer Rettenstein Kreuzgipfel,2362.0
47.45845,11.764812,Hochiss,2299.0
47.46502,12.204175,Hohe Salve,1829.0
46.575447,12.200544,Monte Cristallo,3221.0
47.060097,12.039613,Napfspitz - Cima Cadini,3144.0
46.672512,12.185548,Dürrenstein - Picco di Vallandro,2839.0
46.506943,12.211667,Punta Sorapiss,3205.0
46.688747,12.277805,Haunold - Rocca dei Baranci,2966.0
46.55099,12.065492,Tofana di Mezzo,3244.0
46.537006,12.051053,Tofana di Rozes,3225.0
47.494793,12.139456,Juffinger Jöchl / Paisslberg,1181.0
46.564236,11.905194,Piz la Ila,2078.0
46.556427,11.921819,Piz de Surega,2011.0
46.516644,11.884716,Cherz,2095.0
46.554253,11.888123,Col Alt,1980.0
46.712303,11.518825,Lorenzen - Cima San Lorenzo,2484.0
47.129223,11.917803,Ahornspitze,2976.0
47.172604,11.962213,Brandberger Kolm,2700.0
47.377983,12.266278,Brechhorn,2032.0
47.336838,11.975879,Großer Galtenberg,2424.0
47.058056,11.890833,Gigalitz,3001.0
47.26797,11.743018,Gilfert,2506.0
47.09317,12.308585,Großer Geiger,3360.0
47.10927,12.345336,Großvenediger,3657.0
47.207596,11.528383,Glungezer,2677.0
47.423794,12.3649235,Hahnenkamm,1712.0
47.491943,12.271667,Hartkaiser,1555.0
46.977974,11.717999,Hochferner - Gran Vedretta,3470.0
47.367325,11.617999,Hochnissl,2546.0
47.476124,12.429794,Kitzbüheler Horn,1996.0
47.319054,11.770543,Kreuzjoch/Kellerjoch,2343.0
47.046734,12.3591,Kreuzspitze,3155.0
47.251495,11.9826,Kreuzjoch,2558.0
47.298744,12.1649475,Kröndlhorn,2444.0
47.049366,12.259237,Nördliche Malhamspitz,3373.0
46.975903,12.355038,Lasörling,3098.0
47.456738,11.611501,Plumsjoch,1921.0
47.031334,11.865051,Großer Mörchner,3285.0
47.402237,11.645741,Rappenspitze,2223.0
47.204304,11.75088,Rastkogel,2762.0
47.10085,12.364146,Rainerhorn,3559.0
47.081318,11.70434,Hoher Riffler,3231.0
47.05019,12.287684,Rostocker Eck,2749.0
47.039726,12.349837,Rote Säule,2820.0
47.008667,11.773036,Schönbichler Horn,3133.0
47.41238,11.605138,Sonnjoch,2458.0
47.34144,12.190085,Steinbergstein,2215.0
46.77452,12.382907,Thurntaler,2408.0
47.361237,11.922877,Wiedersberger Horn,2127.0
47.104027,12.459468,Wildenkogel,3021.0
47.050434,11.8378315,Zsigmondyspitze,3062.0
47.285755,12.297397,Wildkogel,2224.0
47.224857,12.135278,Plattenkogel,2039.0
47.146103,12.093028,Schneekarspitze,3210.0
47.122963,12.24303,Schlieferspitze,3290.0
46.54462,11.865117,Crëp de Sela,1867.0
46.56312,11.835248,Sass da Ciampac,2667.0
46.59459,11.848221,Piza de Gherdenacia,2673.0
46.945915,12.418621,Speikboden,2653.0
46.947285,12.427394,Donnerstein,2725.0
46.73878,11.958311,Kronplatz - Plan de Corones,2275.0
47.45555,11.584523,Kompar,2011.0
46.575935,12.129961,Punta Fiames,2240.0
46.58579,12.097698,Col Rosà,2165.0
47.404922,12.265758,Gampenkogel,1957.0
47.04228,12.139784,Rötkreuz,2074.0
47.092556,12.283777,Hinterer Maurerkeeskopf,3311.0
46.752975,11.825201,Campill - Campiglio,2190.0
46.762856,11.808769,Astjoch - Cima Lasta,2194.0
47.45325,11.797962,Sagzahn,2228.0
47.44469,11.801053,Vorderes Sonnwendjoch,2224.0
47.44401,11.780372,Haidachstellwand,2192.0
47.466057,11.803156,Marchspitze,2004.0
47.466866,11.827025,Roßkogel,1940.0
47.44543,11.752356,Rotspitze,2067.0
47.461803,11.756025,Stuhlböcklkopf,2169.0
47.18421,11.774814,Wanglspitze,2420.0
46.85954,11.686882,Gitsch - Monte Cuzzo,2510.0
47.40608,12.161866,Glanterer Kogel,1473.0
46.97746,11.994673,Breite Rast,2105.0
46.967148,11.883759,Schönberg - Montebello,2273.0
47.485977,11.504557,Schönalmjoch,1986.0
47.476856,11.542521,Grasberg,2020.0
46.508938,11.828348,Piz Boè,3152.0
46.5106,11.732966,Punta Grohmann - Grohmannspitze,3114.0
46.514133,11.715771,Sasplat - Plattkofel - Sasso Piatto,2958.0
46.53303,11.915636,Pralongiá,2109.0
46.51785,11.852024,Col de Stagn,2517.0
46.545605,11.987723,Cé de Salares,2283.0
46.55133,12.014281,Piza de Medo - Punta di mezzo,2989.0
46.6133,11.781847,Wasserkofel - Sas dal'Ega - Furchetta Grande,2924.0
46.609287,11.76682,Sas Rigais,3025.0
46.603756,11.75573,Geislerspitze - Gran Odla - Grande Odla,2832.0
46.614483,11.951485,Le Ciaval,2907.0
46.565453,11.998364,Col de Locia,2069.0
46.557556,12.00267,Piza dl Lech,2654.0
46.630413,12.315178,Monte Paterno - Paternkofel,2744.0
46.630344,11.981072,Piza dales Nü,2968.0
46.697742,11.818382,Alfreider Joch - Giogo d'Alfarei,2280.0
46.709072,11.584278,Hundskopf - Cima Cane,2356.0
46.71021,11.578547,Radlseenock - Punta del Lago Rodella,2391.0
46.71212,11.556254,Kühberg (Stangele) - Monte delle Vacche,2429.0
46.713177,11.552471,Eiskofel,2421.0
46.67665,12.056355,Le Seneser - Senneser Karspitze - Punta Quaira di Sennes,2659.0
46.700825,12.413834,Hornischegg - Monte Arnese,2550.0
46.69909,12.427042,Hollbrucker Spitze - Cima di Pontegrotta,2580.0
46.690193,12.446139,Demutspitze - La Muta,2592.0
46.667973,12.3176,Dreischusterspitze - Punta dei Tre Scarperi,3152.0
46.657116,12.316516,Schusterplatte - Lastron dei Scarperi,2956.0
46.72393,11.511361,Geißhorn - Cima di Capra,2519.0
46.722298,12.377623,Rauchegg,2078.0
46.74593,11.507971,Liffelspitz - Monte Livolo,2590.0
46.780243,11.5294285,Kreuzjoch - Monte della Croce,2560.0
46.771286,11.516549,Marchspitze - Cima Mercato,2544.0
46.79145,12.280758,Gaishörndl,2615.0
46.827126,11.505808,Onsberg - Monte Ones,1952.0
46.843006,11.914272,Scheibe,2050.0
46.86335,11.9025755,Windeck - Cima del Vento,2418.0
46.8645,11.863429,Putzenhöhe - Cime di Pozzo,2438.0
46.86772,11.823317,Mutenock - Monte Mutta,2484.0
46.870632,11.844525,Zwölferspitz - Cima Dodici,2351.0
46.873753,12.218142,Hinterbergkofel - Monte di Dentro,2727.0
46.867405,11.909057,Kandlkopf,2354.0
46.876434,11.91367,Rixer Nock,2205.0
46.870293,11.755608,Eidechsspitze - Cima di Terento,2738.0
46.880215,11.769942,Kleiner Grubbachspitz - Rocca dei Camosci,2756.0
46.882507,11.769726,Hochgrubbachspitz - Monte Gruppo,2809.0
46.90695,11.583583,Ebengrubenspitz - Cima di Pianbello,2989.0
46.883896,11.588405,Blauer Stoan,2584.0
46.87802,11.594135,Schwarzenstoan,2696.0
46.85438,11.589539,Schellenberg,2355.0
46.84249,11.592888,Gänsebichl - Monte di dentro,2100.0
46.927242,11.613618,Sandturm - Cima della Rena,2755.0
46.92587,11.6177635,Sandspitz,2719.0
46.926006,11.623004,Rübespitz - Punta Riva,2787.0
46.890255,11.661245,Bretterspitz - Cima di San Paolo,2695.0
46.87088,11.676828,Fallmetzer - Monte Val di Mezzo,2568.0
46.95752,11.7360115,Niederer Weißzint - Punta Bianca Bassa,3263.0
46.90832,11.738771,Blauwand,2584.0
46.988506,12.077057,Schwarzerspitz,2862.0
46.952366,11.813215,Schaflahnernock - Cima delle Pecore,2703.0
46.94711,11.811575,Weiße Wand - Croda Bianca,2666.0
47.005737,12.121234,Gabelspitze - Cima di Forca,3076.0
47.00795,12.108845,Kleiner Alprechtspitz,2855.0
47.05852,12.059505,Wagnerschneid Spitz - Cima Triangolo,2893.0
47.06917,12.240752,Dreiherrnspitze,3499.0
46.644497,12.212676,Strudelkopf - Monte Specie,2307.0
46.7061,11.50065,Ritzlar,2528.0
46.511826,11.574892,Petz - Monte Pez,2568.0
46.658855,11.820535,Peitlerkofel - Sass de Pütia - Sass de Putia,2875.0
47.48171,12.253366,Eiberg,1673.0
47.4773,12.248934,Holzalmjoch,1680.0
47.349174,12.498596,Schusterkogel,2207.0
47.47429,12.308789,Rauher Kopf,1580.0
47.368614,12.343901,Schwarzkogel,2030.0
46.98419,11.537797,Wolfendorn - Spina del Lupo,2774.0
46.993828,11.5282,Geigenspitze - Cima Posta,2334.0
47.351997,11.789692,Gerstkopf,1714.0
46.9724,11.72759,Hochfeiler - Gran Pilastro,3509.0
46.99148,11.786667,Kleiner Möseler - Piccolo Mèsule,3405.0
46.990932,11.794748,Möselernock,3297.0
46.991783,11.803741,Rossruggspitz - Dosso di Cavallo,3298.0
46.998432,11.840124,IV. Hornspitz,3198.0
47.000126,11.852357,I. Hornspitz,3172.0
47.010082,11.874057,Schwarzenstein - Sasso Nero,3369.0
47.023067,11.90111,Östliche Floitenspitze - Cima di Floite Est,3154.0
47.02894,11.914636,Tribbachspitze - Punta di Rio Torbo,3267.0
47.032528,11.91565,Großer Löffler - Monte Lovello,3378.0
47.033432,11.946911,Keilbachspitz - Punta del Conio,3093.0
47.038883,11.951522,Kasseler Spitze,2952.0
47.04347,11.956706,Grüne Wand - Croda Verde,2947.0
47.040535,11.968486,Gfallenspitz - Punta del Cavallo,2964.0
47.05005,11.97953,Wollbachspitz - Punta di Valle,3210.0
47.054817,12.032388,Sonnwand,2852.0
47.076046,12.091974,Rauchkofel - Monte Fumo,3251.0
47.073227,12.118922,Winkelkopf,2857.0
47.07736,12.133554,Südlicher Windbachspitz,2867.0
47.08067,12.136024,Dreiecker - Cima di Campo,2892.0
47.183605,11.924878,Hochfeld,2350.0
47.411945,11.585123,Bärenwandkopf,1871.0
47.402855,11.585953,Gramaijoch,2017.0
47.49208,12.245409,Brandstadl,1650.0
47.099384,12.268805,Gamsspitzl,2888.0
47.3855,12.085244,Feldalphorn,1923.0
47.425655,12.070437,Rosskopf,1731.0
47.05452,11.547413,Ottenspitze,2192.0
47.41497,11.947693,Gratlspitze,1894.0
47.400543,11.860118,Reither Kogel,1336.0
47.41784,11.545445,Gamsjoch Westgipfel,2438.0
46.725334,11.829984,Glittner Joch - Giogo di Colletto,2191.0
47.38999,11.984123,Schatzberg,1903.0
47.17408,12.403507,Larmkogel,3017.0
47.29008,11.759179,Kleiner Gamsstein,1924.0
47.371475,12.087625,Schwaigberghorn,1990.0
46.657875,11.815961,Kleiner Peitlerkofel - Piccolo Sas de Pütia,2813.0
46.7044,11.821144,Maurer Berg - Monte Muro,2332.0
46.690247,11.762998,Großer Gabler - Monte Forca Grande,2574.0
47.33014,12.022458,Gressenstein,2216.0
47.341484,12.027046,Großer Beil,2309.0
47.355755,12.025298,Lämpersberg,2202.0
47.346237,12.024508,Seekopf,2189.0
47.349834,12.026957,Kleiner Beil,2197.0
47.26678,11.828029,Gedrechter,2217.0
47.402126,11.502041,Ladizköpfl,1920.0
47.395844,11.84887,Spitzerköpfel,810.0
46.603672,11.656297,Resciesa Dedora - Ausserraschötz - Rasciesa di Fuori,2283.0
47.442436,11.655466,Feilkopf,1562.0
47.35605,12.307163,Spießnägel,1880.0
47.205803,12.042767,Arbiskogel,2048.0
47.19155,12.043127,Kirchspitze,2312.0
47.248516,12.013172,Isskogel,2263.0
46.600594,11.725783,Secёda - Monte Seceda,2519.0
47.382683,11.591194,Lamsenspitze,2508.0
47.353817,12.07271,Breiteggspitze,1868.0
46.675003,12.072609,Croda del Becco - Sas dla Porta - Seekofel,2810.0
47.297836,12.267549,Frühmesser,2233.0
46.973953,11.901981,Wolfeskofel - Monte Lupo,2050.0
46.964077,12.131068,Dreieckspitze,3031.0
46.960625,12.125228,Bärenluegspitze,2960.0
47.31452,12.114272,Schafsiedel,2447.0
46.703014,12.192933,Sarlkofel - Monte Serla,2378.0
46.682304,12.182911,Sarlkopf - Punta di Serla,2314.0
46.67704,12.170682,Kirchler Schroppen - Rocce della Chiesa,2280.0
46.59064,12.28228,Cime Ciadin dei Toce,2283.0
47.136486,12.311841,Keeskogel,3291.0
46.919952,11.830711,Zinsnock,2430.0
46.916775,11.8376045,Wurmtaler Spitz - Giogo del Corno,2343.0
46.958633,11.510957,Kalkwandspitze - Cima della Stanga,2388.0
47.22125,11.752459,Rosskopf,2576.0
47.22586,11.818102,Rauhenkopf,2258.0
47.23305,11.800867,Kreuzjoch,2338.0
46.932697,11.763028,Seebergl,2705.0
46.94347,11.797922,Schreckwand,2505.0
46.546158,12.018446,Punta Sud di Fanes - Südliche Fanisspitze,2989.0
47.102013,12.419864,Innerer Knorrkogel,2884.0
47.412354,11.507892,Mahnkopf,2093.0
46.533344,11.722588,Col de Ciaulonch,2114.0
46.577614,12.035403,Piz Forcia Rossa III,2791.0
46.558517,11.806191,Gran Cir - Große Cirspitze - Grande Cir,2592.0
46.639313,12.348014,Einserkofel - Cima Una,2698.0
46.585125,11.971113,Piz de Lavarela - La Varella,3055.0
46.581623,12.189972,Cristallino d'Ampezzo,3008.0
46.51613,11.958978,Pico Setsas,2429.0
47.32854,12.335256,Rossgruber,2156.0
47.337032,12.341933,Kleiner Rettenstein,2217.0
47.19783,11.6680765,Hippoldspitze,2642.0
46.56794,11.864299,Sassongher,2665.0
47.468548,12.069828,Eisstein,1110.0
47.29298,12.106993,Östlicher Salzachgeier,2466.0
47.457787,12.079738,Hoher Stein,1099.0
47.45892,12.0687685,Sonnberger Jöchl,1285.0
47.450356,12.020268,Kragenjoch,1425.0
47.241676,11.592572,Largoz,2214.0
47.329727,11.522159,Hüttenspitze,1858.0
47.340282,11.534486,Hohe Fürleg,2570.0
47.340088,11.537585,Walderkampspitze,2565.0
47.3411,11.558237,Hundskopf,2243.0
47.33872,11.5960455,Walder Joch,1636.0
47.367573,11.644431,Fiechter Spitze,2299.0
46.51941,11.823826,l'Antersass,2908.0
47.363464,11.508146,Brantlspitze,2626.0
47.373505,11.519179,Roßlochspitze,2538.0
47.368748,11.557421,Spitzkarlspitze,2376.0
47.377514,11.536868,Plattenspitze,2492.0
47.369522,11.57427,Kaiserkopf,2506.0
47.362473,11.578556,Huderbankspitze,2318.0
47.37754,11.588984,Mitterkarlspitze,2418.0
47.38132,11.578787,Barthspitze,2461.0
47.382454,11.583971,Schafkarspitze,2505.0
47.38213,11.587431,Mitterspitze,2496.0
47.378983,11.596693,Lamsenhüttenturm,2216.0
47.356403,11.610779,Sunnschartspitze,1982.0
47.36073,11.635475,Unterer Bärenkopf,1942.0
47.363567,11.625337,Niedernissl,2067.0
47.366695,11.635774,Schneekopf,2313.0
47.368263,11.642315,Mittagsspitze,2333.0
46.528873,11.829775,Dent de Mezdi,2881.0
46.510765,11.81835,Col Aut,2882.0
46.51335,11.819651,Col Turont,2927.0
46.51426,11.832741,Piz Léch Dlacè - Eisseespitze,3009.0
46.513016,11.8391695,Le Ponte - Le Punte,2791.0
46.53957,11.805782,Murfreitspitze,2634.0
47.117153,12.3575,Kleinvenediger,3470.0
47.444714,11.507622,Kleiner Falk,2190.0
47.439888,11.524882,Turmfalk,2201.0
47.442535,11.525394,Totenfalk,2131.0
47.406757,11.539444,Gumpenspitze,2176.0
47.41833,11.548839,Gamsjoch,2452.0
47.422455,11.55603,Ruederkarspitze,2240.0
47.434578,11.556711,Roßkopfspitze,2015.0
47.438396,11.554404,Unterer Roßkopf,1814.0
47.435287,11.630929,Falzthurnjoch,2150.0
47.445698,11.641566,Gütenbergkopf,1664.0
47.381256,11.614403,Schafjöchl,2157.0
47.38699,11.622968,Rauher Knöll,2277.0
47.395832,11.634642,Lunstkopf,2142.0
47.388195,11.6471815,Brentenkopf,2024.0
47.42051,11.663773,Dristenkopf,2005.0
47.404865,11.644421,Larchkarlkopf,2162.0
47.40079,11.667091,Gamskarspitze,2098.0
47.40395,11.657185,Kaserjochspitze,2198.0
47.39875,11.680199,Ochsenkopf,2148.0
46.7896,11.904127,Sonnenburger Kopf - Colle del Castello,975.0
47.40672,12.069223,Turmkogel,1648.0
46.782825,12.284522,Toblacher Pfannhorn - Corno di Fana,2663.0
46.5844,11.782862,Col dala Piëres,2747.0
47.0552,11.575901,Gammerspitze,2537.0
47.45724,11.777979,Seekarlspitze,2261.0
47.455803,11.772906,Spieljoch,2236.0
47.05944,11.584607,Gampes Spitze,2624.0
47.06247,11.589308,Hohe Warte,2687.0
47.10545,11.537338,Sunntiger,2400.0
47.10286,11.554035,Schafseitenspitze,2602.0
47.074203,11.583666,Rauher Kopf,2150.0
47.10539,11.571624,Scheibenspitze,2489.0
47.055992,11.613473,Kahlwandspitze,2546.0
47.056843,11.628071,Steinernes Lamm,2528.0
47.150543,11.53145,Hirschstein,2281.0
47.21916,11.726538,Nafingköpfl,2454.0
47.228104,11.727787,Hoher Kopf,2373.0
47.20505,11.703507,Hobarjoch,2512.0
47.20459,11.730311,Halslspitze,2574.0
47.2133,11.75006,Dreispitzkopf,2604.0
47.271965,11.75574,Sonntagsköpfl,2244.0
47.346844,11.982465,Heimjoch (Mareitkopf),2004.0
47.239346,11.724161,Roßlaufspitze,2248.0
47.24236,11.720954,Alplköpfl,2141.0
47.22505,11.673824,Wildofen,2553.0
46.85426,11.673802,Kleingitsch - Piccolo Monte Cuzzo,2262.0
47.371914,12.0018215,Joelspitze,1964.0
47.23592,11.753083,Kleiner Gilfert,2388.0
46.913975,11.637788,Wurmaulspitze - Cima Valmala,3022.0
47.335033,12.256225,Großer Tanzkogel,2097.0
47.335636,11.994605,Torkopf,2116.0
46.689034,12.327092,Aussergsell - Monte Casella di Fuori,2007.0
46.671158,12.412912,Seikofel - Monte Covolo,1908.0
47.47442,11.888393,Voldöppberg,1509.0
47.47485,11.887799,Voldöpper Spitze,1507.0
46.651405,12.047591,Col de Lasta Gran - Colle di Lasta Grande,2311.0
46.865196,12.291853,Höllböden - Monte Chiaro,2710.0
46.848984,12.421585,Hochgrabe,2951.0
47.176773,12.328645,Kesselkarkopf,2703.0
47.07851,12.269141,Vorderer Maurerkeeskopf,3325.0
47.46758,12.1846075,Kleine Salve,1565.0
47.27145,12.0041,Torhelm,2494.0
47.275112,12.078619,Ochsenkopf,2469.0
46.822483,11.602912,Altes Karl - Monte Campo Quaira,2031.0
46.950127,12.4430275,Griften (Zupalkogel),2723.0
47.30963,11.769669,Kuhmesser,2246.0
47.34102,12.067473,Hengstkogel,1803.0
47.36073,12.078851,Wildkarspitze,1961.0
47.36622,12.079603,Breitegg Gern,1981.0
47.46764,12.104471,Riederberg,1045.0
47.4687,12.0495825,Wörgler Berg,932.0
47.426506,11.959386,Grassbergjöchl,1536.0
46.701122,12.430614,Hollbrucker Kreuz,2581.0
46.71099,12.399829,Füllhorn - Corno Copia,2445.0
46.702602,12.430281,Hollbrucker Egg,2573.0
46.707306,12.436628,Zenzerspitz,2393.0
46.89347,12.325207,Langschneid,2688.0
46.949986,12.367479,Hofspitze,2819.0
46.868866,12.393098,Großes Degenhorn,2946.0
46.87615,12.399498,Wagenstein,2849.0
46.88037,12.41263,Rotegg,2796.0
46.94592,12.491404,Kreuzberg,2743.0
46.8825,12.421066,Karnase,2713.0
47.053772,12.406641,Hoher Eichham,3371.0
47.070698,12.4088335,Hinterer Seekopf,3234.0
47.100094,12.377606,Hoher Zaun,3457.0
47.10384,12.370166,Schwarze Wand,3506.0
47.41639,12.248178,Nachtsöllberg,1886.0
47.048447,12.420127,Säulkopf,3209.0
47.15261,12.399656,Kratzenberg,3022.0
47.141647,12.362656,Hohe Fürleg,3243.0
46.95081,12.0225525,Großer Moosstock - Picco Palù,3059.0
47.311172,12.11699,Aleitenspitze,2449.0
46.864628,12.179532,Rote Wand - Croda Rossa,2818.0
46.90223,12.333213,Wetterkreuz,2230.0
47.141167,11.745183,Tettensjoch,2276.0
47.42729,11.696011,Zwölferkopf,1491.0
46.923794,12.342472,Sprung,1816.0
46.667347,12.472373,Col Quaternà,2503.0
47.15034,12.434532,Abretter,2980.0
46.708176,12.173318,Alwartstein - Sasso del Pozzo,1954.0
46.76343,12.332931,Gampenkofel,2281.0
46.705555,12.266814,Gantraste - Pausa Ganda,2130.0
46.701496,12.291307,Haunoldköpfl Ostgipfel - Piccola Rocca dei Baranci Cima Est,2158.0
46.6982,12.178565,Lungkofel - Monte Lungo,2282.0
46.779358,12.236494,Rosszogel,2170.0
47.157417,11.693165,Grüblspitze,2395.0
46.7854,12.255646,Golfen - Monte Calvo,2469.0
46.639416,11.801473,Zendleser Kofel - Col di Poma,2422.0
47.04544,11.668531,Riepenkopf,2900.0
46.71501,11.840031,Col dal Lé,2175.0
47.368145,12.477038,Tristkogel,2096.0
46.6873,12.468955,Eisenreich - Montagna del Ferro,2665.0
46.613518,11.841327,Crep da les Dodesc - Zwischenkofel - Punta delle Dodici,2384.0
46.688572,11.919296,Piz de Corn,1893.0
46.62485,12.07468,Lavinores - Sas dla Para,2462.0
47.332718,11.935812,Tapenkopf,2206.0
47.335155,11.928794,Standkopf,2241.0
47.33121,11.97172,Kleiner Galtenberg,2318.0
47.33225,11.942573,Gamskopf,2205.0
46.734787,11.671433,Vogeltennen - Dossi d'Elvas,921.0
46.5572,12.064366,Tofana di Dentro,3238.0
46.847725,12.296706,Riepenspitze,2774.0
46.84215,12.370642,Rotes Kinkele,2763.0
46.87634,12.34435,Rote Spitze,2956.0
47.23409,12.461274,Pihapper,2513.0
46.509075,12.051868,Torre Grande,2361.0
47.194218,11.923857,Gerlosstein,2166.0
46.530537,11.923107,Störes,2185.0
46.596394,11.847821,Ciampani,2668.0
46.639084,12.308193,Sextner Stein - Sasso di Sesto,2539.0
46.948265,12.273625,Seespitze,3021.0
46.97946,12.295401,Gösleswand,2912.0
46.65263,12.290753,Morgenkopf - Monte Mattina,2493.0
46.692154,12.266784,Gantkofel Südostgipfel- Cima Ganda Sud-Est,2697.0
46.654915,12.26862,Schwalbenkofel Nordgipfel - Croda dei Rondoi Cima Nord,2769.0
46.663322,12.260796,Südlicher Bullkopf - Cima Bulla Sud,2848.0
46.66623,12.259918,Nördlicher Bullkopf - Cima Bulla Nord,2817.0
46.68022,12.257035,Hochebenkofel - Cima Piatta Alta,2905.0
46.6453,12.383275,Sextener Rotwand Gipfelkreuz,2936.0
47.231304,12.35667,Schottmeiler,2306.0
47.22834,12.359689,Breitkopf,2421.0
47.235874,12.353193,Zwölferkogel,2281.0
46.885963,11.66322,Karspitz - Punta Corno,2620.0
46.88876,11.649941,Seefeldspitz - Cima di Campolago,2719.0
46.903057,11.642042,Rotwand - Croda Rossa,2926.0
46.938976,11.614522,Grabspitz - Cima Grava,3059.0
46.898052,11.64139,Ribigenspitz,2939.0
46.91976,11.6327,Rosskopf,2839.0
46.87804,11.665752,Nock - Monte Campanella,2531.0
46.921177,11.626667,Pfannespitz,2709.0
46.653534,11.775117,Tullen,2655.0
46.89533,11.753215,Neblnock - Dosso Malo,2615.0
46.911156,11.737616,Dengelstein - Monte Dengolo,2698.0
46.898342,11.748485,Grinth - Cima Zappa,2620.0
46.93312,11.74211,Eisbruggspitz - Cima Ponte di Ghiaccio,2787.0
46.91811,11.73839,Schwarze Riffl - Scoglio Nero,2744.0
46.904793,11.742018,Hörndle - Cima Gelata,2603.0
46.66827,12.241166,Ebenkofel - Dosso Piano,2463.0
46.64771,12.268853,Großer Rautkofel - Monte Rudo Grande,2818.0
46.668156,12.273259,Unterebenkofel - Cima Piatta Bassa,2581.0
46.676388,12.264592,Mitterebenkofel - Cima Piatta di Mezzo,2858.0
46.670273,12.232997,Nasswand - Croda Bagnata,2254.0
46.6753,12.32647,Südlicher Gsellknoten - Cima di Sesto Sud,2855.0
46.6184,12.292638,Sasso di Landro - Zinnenkopf,2731.0
46.665302,12.196348,Große Pyramide am Helltaler Schlechten - Grande Piramide di Valchiara,2711.0
46.85476,11.895992,Sambock - Monte Sommo,2396.0
47.455612,12.48754,Karstein,1922.0
47.441338,12.465489,Stuckkogel,1888.0
47.43381,12.462536,Brunnerkogel,1749.0
46.711864,12.16375,Badmeisterkofel - Monte dei Bagni,1861.0
46.684242,12.130111,Schwalbenkofel - Monte delle Rondini,2481.0
46.68914,12.109334,Gametzalpenkopf Nordgipfel - Monte Alpe del Camoscio Cima Nord,2590.0
46.68299,12.115649,Kleiner Rosskopf - Piccolo Sasso Rosso di Braies,2450.0
46.70611,12.131778,Astspitz - Monte Riva,1803.0
46.686752,12.118338,Großer Rosskopf - Sasso Rosso di Braies,2559.0
46.666225,12.120632,Kleiner Jaufen - Giovo Piccolo,2366.0
46.94987,11.688221,Röteck - Cima Rossa,2930.0
46.94603,11.63,Felbe,2849.0
46.950726,11.677609,Engberg - Monte Stretto,2816.0
46.950336,11.713969,Westlicher Hochwart - Monte Guardia Alta Ovest,3045.0
46.952785,11.660726,Rotes Beil - Punta Rossa,2949.0
46.953453,11.723994,Pockshorn,3021.0
46.950832,11.719768,Östlicher Hochwart - Monte Guardia Alta Est,3068.0
47.101963,12.35006,Hohes Aderl,3506.0
46.711803,11.980017,Piz da Peres,2507.0
46.818947,11.760741,Pürstallkopf,1081.0
46.83441,11.697461,Stollberg - Monte delle Cave,1827.0
46.819214,11.720019,Bergl,865.0
47.042862,11.507263,Padauner Kogel,2066.0
46.512756,12.383548,Pupo di San Lorenzo,2377.0
46.513855,12.386187,Monte Ciarìdo,2504.0
46.507317,12.419657,Col Cervera,1920.0
46.86817,11.778946,Kompfoßspitz,2561.0
46.873356,11.77584,Donnerschlag,2585.0
46.865753,11.778715,Steinspitz - Punta del Sasso,2509.0
46.95418,11.501795,Daxspitz - Punta del Tasso,2645.0
46.944496,11.502273,Amthorspitze - Cima Gallina,2748.0
46.87502,11.592544,Grantspitz,2653.0
46.886974,11.580776,Dreiländerspitz,2666.0
46.88089,11.592419,Nornspitz - Monte Domenar,2718.0
46.87689,11.807008,Terner Nock,2596.0
46.886303,11.788908,Graunock - Monte Grigio,2872.0
46.87838,11.792744,Kempspitz - Monte Pausa di Gruppo,2704.0
47.430256,12.101523,Markbachjoch,1496.0
46.943516,11.687138,Dannelspitz - Punta di Dan,2806.0
46.927692,11.670603,Fassnacht - Monte Botte,2537.0
46.930584,11.6876135,Weißwand - Croda Bianca,2458.0
46.70647,11.570479,Königsanger - Monte del Pascolo,2436.0
47.217854,11.663211,Hirzer,2725.0
47.02307,11.54055,Vennspitze,2390.0
46.660213,11.970288,Piz de Pares,2394.0
46.90063,11.671386,Tschoren,2519.0
46.89824,11.664265,Sternspitz - Punta Stella,2421.0
47.140118,11.63287,Geier,2857.0
47.086536,11.536781,Sumpfkopf,2341.0
46.872192,11.802868,Kleiner Terner Nock,2350.0
46.84752,11.818264,Hühnerspiel,2064.0
46.548447,11.64884,Piz,1939.0
46.56417,11.616524,Puflatschspitz - Monte Bullaccia,2177.0
46.528816,11.600952,Spitzbühel - Punta di Razzes,1935.0
46.51084,11.56075,Schlern - Sciliar,2448.0
46.85999,11.583377,Rensenspitz,2473.0
46.858524,11.5853195,Sattelspitz,2454.0
46.867573,11.591759,Plattspitz - Cima Piatta,2669.0
46.873215,11.592726,Dreihornspitz - Cima Tre Corni,2666.0
46.86419,11.587464,Mutaspitz,2596.0
46.881245,11.652023,Wieser Kragen,2619.0
46.863514,11.644513,Gaisjoch - Cima della Capra (Gurnatsch),2641.0
46.865196,11.6500225,Jochspitz,2581.0
46.87694,11.651732,Fensterlekofel - Cima della Finestra,2564.0
46.885002,11.647815,Tschiffernaun - Monte Cavernone,2698.0
46.871407,11.6491585,Kurzkofel,2591.0
47.17937,11.938225,Geiskopf,2277.0
47.164104,11.98935,Innerer Falk,2666.0
47.140934,12.113305,Gabler,3263.0
46.894676,11.586128,Kalkgrubenspitz,2738.0
46.909115,11.5785675,Ochsenalmspitz,2867.0
46.84949,11.913434,Rauchkopf - Dosso del Fumo,2170.0
46.865566,11.882976,Bärentaler Spitz - Cima Valperna,2450.0
47.47471,12.091046,Möslalmkreuz,1105.0
46.732883,11.512008,Schrotthorn - Corno del Ceppo,2590.0
46.90552,12.084082,Monte Nevoso - Schneebiger Nock,3358.0
46.620308,11.621985,Glander - Monte Campo di Gardena,1883.0
46.61504,11.641081,Brandegg,2010.0
46.52538,11.570361,Santner - Punta di Santner,2414.0
46.523895,11.572602,Euringer - Punta Euringer,2394.0
46.751633,11.518127,Muckleitn,2561.0
46.75382,11.527987,Kristen,2425.0
46.756622,11.538683,Märzenhörndle,2547.0
46.749195,11.501434,Pfannspitz,2621.0
46.574062,12.140235,Croda del Pomagagnon,2450.0
46.50317,12.208981,Croda Marcora,3154.0
46.79102,11.527821,Scheibenspitz - Cima del Bersaglio,2381.0
47.316296,11.5011015,Rädermacher,1499.0
46.511086,11.777963,3. Ciampanil dl Sela - 3. Sellaturm - III° Torre del Sella,2696.0
46.53142,11.809086,Sass dai Ciamorces,2999.0
46.529762,11.803555,Piz Rotic,2973.0
46.509384,11.774633,1. Ciampanil dl Sela - 1. Sellaturm - I° Torre del Sella,2534.0
46.509903,11.775902,2. Ciampanil dl Sela - 2. Sellaturm - II° Torre del Sella,2599.0
46.50912,11.772745,Locomotiva - Lokomotive,2392.0
47.415478,12.492987,Großer Gebra (Ranggen),2057.0
47.348797,12.178471,Ramkarkopf,2062.0
47.36346,12.173012,Lodron,1925.0
47.132217,11.882456,Filzenkogel,2227.0
47.214176,12.3057165,Heuschartenkopf,2498.0
47.19465,12.320779,Breitfuß,2853.0
47.200264,12.314276,Hundskirch,2733.0
47.22383,12.312226,Gamskogel,2100.0
47.160187,12.351213,Habachspitze,3064.0
46.527477,11.841093,Piz da Lêch,2913.0
46.93388,12.065912,12er Nock,2516.0
47.434147,11.891204,Stadtberg,908.0
47.323452,12.349597,Zweitausender,2004.0
46.51493,11.790878,Piz Sëlva,2940.0
47.182487,12.326429,Sonntagskopf,2740.0
47.167225,12.347539,Leiterhorn,2966.0
47.149014,12.359359,Törlbirgkopf,3115.0
47.154354,12.355239,Gamsmutter,3089.0
47.18885,12.323662,Abretterkopf,2774.0
47.211624,12.308518,Kl. Finagl,2670.0
47.21075,12.319642,Plattachkopf,2435.0
47.22115,12.294541,Popberg,2188.0
47.22426,12.28907,Hachelkopf,2040.0
47.173462,12.138801,Wildkarspitze,3073.0
47.160393,12.153483,Rettenkarkopf,2968.0
47.16461,12.14399,Hoher Schaflkopf,3057.0
47.377,11.558749,Eiskarlspitze,2610.0
46.535664,12.040588,Il Castelletto,2656.0
46.93677,12.3087635,Weißes Beil,2766.0
47.26764,12.144917,Ronachgeier,2236.0
47.27678,12.146861,Baumgartgeier,2392.0
47.28913,12.144305,Dristkopf,2361.0
47.265972,12.186526,Gernkogel,2267.0
47.26147,12.089793,Königsleitenspitze,2315.0
47.282585,12.086306,Nebelkarsspitze,2339.0
47.286304,12.0946665,Kleefeldkopf,2348.0
47.269028,12.111889,Brucheck,2144.0
47.306305,12.114472,Schwebenkopf,2354.0
47.18252,11.622039,Mölsberg,2479.0
46.55673,11.79978,Pitla Cir - Kleine Cirspitze - Cir V,2520.0
47.298634,12.236788,Steinkogel,2299.0
47.479553,11.682389,Seekarspitze,2053.0
47.038555,12.363672,Vorderer Sajatkopf,2915.0
46.992466,11.781782,Großer Möseler - Grande Mèsule,3479.0
46.76587,12.365561,Parggenspitze,2323.0
46.802635,12.292256,Pürglesgungge,2500.0
47.42558,11.773752,Ebner Joch,1957.0
47.321606,12.486051,Rinnkogel,2147.0
46.653168,12.052526,Col de Lasta Picio - Colle di Lasta Piccolo,2297.0
47.45765,11.793189,Rofanspitze,2259.0
47.48283,11.579828,Kuppel,1771.0
47.472553,11.579272,Heimjoch (Eiskönigspitze),1871.0
47.49659,11.591133,Larchköpfl,1418.0
46.714966,12.387055,Helm - Monte Elmo,2433.0
46.642868,12.421259,Cima dei Colesei,1972.0
46.58024,11.724657,Pic - Monte Pic - Pitschberg,2363.0
47.325214,11.909354,Hamberg,2100.0
46.899746,12.195564,Kleines Mandl,2591.0
46.902775,12.191104,Großes Mandl,2818.0
46.907085,12.177385,Große Ohrenspitze,3101.0
46.933254,12.167828,Fenneregg,3123.0
46.93951,12.166639,Lenkstein,3236.0
46.95102,12.154158,Mulle,3158.0
46.97099,12.1360035,Graunock,2961.0
46.973583,12.137051,Gstötsch,2870.0
46.979713,12.137602,Am Hengst,2462.0
46.99788,12.126358,Großer Reinhard,2790.0
47.007668,12.22501,Hohes Kreuz,3159.0
47.008434,12.12316,Alprechtspitz - Punta di Alpre,3083.0
47.015713,12.13103,Lengspitz - Pizzo Lungo,3090.0
47.021435,12.294721,Mullwitzkogel,2767.0
47.023678,12.173601,Kleiner Löffler - Punta Cucchiaio Piccolo,3050.0
47.0249,12.147411,Merbspitz,3090.0
47.02698,12.204877,Rötspitz,3495.0
47.058685,12.216559,Hoher Rosshuf,3199.0
47.071934,12.329095,Kleiner Happ,2852.0
47.079277,12.151545,Schüttalkopf - Punta Val di Frane,2773.0
47.080162,12.227937,Grasleitenkopf,2954.0
47.086082,12.215424,Luckner - Il Picco,2777.0
47.088726,12.197902,Steinkarspitze - Cima Quadra,2871.0
47.091057,12.189954,Östlicher Zwillingskopf - Testa Gemella Orientale,2843.0
47.09117,12.180573,Klockerkarkopf - Vetta d'Italia,2912.0
47.13965,12.110669,Reichenspitze,3303.0
47.19187,12.097909,Sedlkopf,2188.0
47.45133,11.603585,Satteljoch,1935.0
47.123665,11.649309,Gschützspitze,2717.0
47.121544,11.656189,Wandspitze,2614.0
47.14398,11.630589,Lizumer Reckner,2886.0
47.12279,11.638468,Gamskarspitze,2750.0
47.194267,12.154689,Arbeskopf,2400.0
46.818573,12.207609,Hörneckele,2127.0
46.8028,12.129101,Durakopf,2275.0
46.55549,12.052457,Nemesis,2755.0
47.48336,11.829256,Kreuzeinjoch,1702.0
47.497566,11.827496,Ameiskogel,1518.0
47.361507,12.034907,Steinernes Manndl,1920.0
46.52912,12.02957,Col dei Bos,2559.0
47.3012,12.164687,Kröndlberg,2440.0
47.33052,11.770199,Gratzenkopf,2087.0
47.33769,11.762815,Proxenstand,1896.0
47.479126,11.5301,Hölzelstaljoch,2012.0
47.448547,11.7515335,Dalfazer Roßkopf,2143.0
46.53995,12.071318,Punta Anna,2731.0
47.45855,11.734718,Klobenjoch,2041.0
47.479218,11.604861,Der Kotzen,1779.0
47.476795,11.6189,Der Mantschen,1825.0
46.88975,12.016957,Große Windschar - Cima del Vento,3041.0
46.89663,12.083094,Gelttalspitze - Cima Valfredda,3126.0
46.8906,12.009788,Kleine Windschar - Piccola Cima del Vento,2981.0
47.488808,11.928478,Zimmerer Kopf,1246.0
46.95823,12.162712,Fleischbachspitze,3157.0
46.83322,11.599938,Stoanamandl,2118.0
47.093697,12.399508,Kristallwand,3310.0
47.034496,12.474685,Ochsenbug,3007.0
47.076122,12.392838,Weißspitze,3300.0
47.395477,11.594582,Hahnkampl,2080.0
47.047375,12.354838,Schernerskopf,3033.0
47.27725,11.805532,Wetterkreuzspitze,2256.0
47.24143,11.961312,Karspitz,2264.0
46.97276,12.357765,Kleiner Lasörling,3055.0
46.780212,11.858794,Kienberg - Monte Abete,1222.0
46.78806,11.936986,Kühbergl - Monte Spalliera,1013.0
46.80618,11.851675,Irenberg,1077.0
46.8427,11.893742,Platte - Monte Plat,2175.0
47.364426,12.467804,Gamshag,2178.0
47.249023,11.647591,Rote Wand,2253.0
47.369583,12.456834,Schützkogel,2069.0
46.783672,11.881389,Pflaurenzer Kopf - Colle di Floronzo,968.0
47.43869,11.50685,Risser Falk,2414.0
47.18037,11.955956,Torhelm,2452.0
47.414783,11.712273,Bärenkopf,1991.0
47.399555,11.69927,Stanser Joch,2102.0
47.430943,11.617751,Bettlerkarspitze,2268.0
47.433743,11.617756,Bettlerkarspitze (Vorgipfel),2075.0
47.422726,11.607353,Schaufelspitze,2306.0
47.373672,11.6062565,Rotwandlspitze,2322.0
47.381283,11.551469,Spritzkarspitze,2606.0
47.388435,11.514008,Dreizinkenspitze,2602.0
47.344227,11.519874,Großer Bettelwurf,2725.0
47.380775,11.52211,Grubenkarspitze,2663.0
47.39788,11.526153,Teufelskopf,1978.0
47.42714,11.512359,Steinfalk,2348.0
47.435123,11.51913,Laliderer Falk,2428.0
47.391293,11.500261,Laliderer Spitze,2583.0
47.47474,11.65827,Hohe Gans,1950.0
47.466106,11.679225,Seebergspitze,2085.0
46.718327,11.511112,Plankenhorn - Corno Planca,2547.0
46.737225,11.507361,Leierspitz - Monte Lira,2541.0
46.552876,12.01001,Piza Scotoni - Cima Scotoni,2874.0
46.578156,11.973179,Piz dles Döes Forceles,2929.0
46.58386,11.967343,Lavarela de Fora,3034.0
46.60739,11.950452,Piz dl Zuber,2718.0
46.67542,12.065316,Kleiner Seekofel - Piccola Croda del Becco,2750.0
46.67648,12.037073,Cima de Riciogogn,2647.0
46.693954,11.758878,Kleiner Gabler - Monte Forca Piccola,2561.0
46.69508,11.751533,Pfannspitz - Monte Fana,2545.0
46.701275,11.733069,Telegraph - Monte Telegrafo,2491.0
46.709286,11.992102,Coi Alc - Dreifingerspitz - Punta Tre Dita,2479.0
46.761204,11.563429,Karspitze - Punta Quaira,2514.0
46.772217,11.599902,Seekofel,1913.0
46.7806,11.546421,Sackermahdspitz - Punta Pradisacco,2381.0
46.996307,11.850416,Breiter Kopf,2880.0
46.74579,11.933697,Ciomagne,2039.0
46.669353,11.862228,Col Varencinch,2109.0
46.69327,11.956435,Col de Pla,1615.0
46.71204,11.846391,Col dla Vedla,2100.0
46.90996,11.778397,Eggespitz,2187.0
46.96193,11.965449,Faden,2136.0
46.91864,11.855522,Fadner - Gallina,2457.0
47.016205,11.880476,Felsköpfl - Punta del Balzo,3235.0
46.87731,11.772882,Gamsburg,2694.0
46.980072,11.840777,Gelenknock,2882.0
46.788322,11.731888,Getzenberg - Monghezzo,1744.0
46.988182,11.889084,Golaitkopf,2510.0
46.91621,11.852785,Gornerberg (Henne) - Monte Corno,2475.0
46.926964,11.888482,Großer Nock - Il Dosso Grande,2400.0
46.993763,11.881881,Großfadnler - Cima Fadnler Grande,2764.0
46.92642,11.711549,Gschirn - Monte Cirne,2335.0
46.97654,11.87121,Hantigenklammspitz,2574.0
46.881706,11.925016,Hühnerspiel,2066.0
46.924305,11.912246,Hühnerspiel,2110.0
46.966946,11.980869,Hühnerspiel - Cima Gallina,2383.0
46.98982,11.841472,Innere Grüne Platte - Monte Corno di dentro,2589.0
47.021084,11.920006,Innerer Speikkofel,2910.0
46.87434,11.911729,Kandelknopf,2200.0
47.036846,11.911626,Kleiner Löffler,3225.0
46.935596,11.715853,Kleiner Magstein,2522.0
46.931404,11.899975,Kleinerer Nock - Il Dosso Piccolo,2227.0
46.982815,11.895083,Kleinfadnler - Cima Fadnler Piccola,2302.0
46.869484,11.869136,Knapphenne,2277.0
46.998672,11.903756,Kreuzkofl - Sasso della Croce,2420.0
46.888363,11.790877,Königswand,2742.0
46.94587,11.691541,Lochwand,2618.0
46.941776,11.709621,Magsteinwipfel - Picco del Sasso,2761.0
46.88285,11.759541,Milchegger,2456.0
46.9742,11.845313,Möselnock,2712.0
46.95073,11.96592,Obersteiner Holm - Cima di Sassalto,2395.0
46.89475,11.78996,Passennock - Picco del Passo,2671.0
46.971134,11.814376,Pfaffennock - Cima del Prete,2973.0
46.68138,11.923609,Plan de Corn,1873.0
46.954403,11.972633,Pojerspitz - Cresta di Poia,2453.0
46.946667,11.68806,Rotalpe,2852.0
46.960766,11.749454,Salzkopfl,2935.0
46.97081,12.000615,Sattelnock - Corno del Passo,2352.0
46.97278,11.874344,Schafbretter Spitz,2520.0
46.92219,11.725661,Schaflahner,2621.0
46.98658,11.861867,Scharhaggen - Cima della Gola,2649.0
47.00248,11.928941,Schaufler,2265.0
47.005608,11.876157,Schwarzenbachspitz - Monte Rio Nero,3246.0
46.743904,11.96676,Spitzhorn,2173.0
46.9495,11.950206,Steiner Holm - Monte Petroso,2123.0
46.989975,11.885708,Steinstreichen,2602.0
46.980713,11.784256,Südlicher Möselenock,3066.0
47.00813,11.929186,Wagner,2571.0
46.885185,11.760181,Wechselkofl,2647.0
46.740154,11.91805,Willeitkopf - Corn de Pezes,1998.0
46.911175,11.788801,Zosenbich,2061.0
46.99816,11.880748,Zwilcher,2846.0
46.915913,11.713972,Riegler,2221.0
46.96636,11.807527,Gamslahnernock - Cima dei Camosci,2869.0
46.975807,11.813884,Äußerer Sattelnock - Cima di Sella di Fuori,2936.0
46.979885,11.8141985,Sattelnock - Cima di Sella,3084.0
46.98476,11.839711,Äußere Grüne Platte - Monte Corno di Fuori,2800.0
47.014244,11.923858,Äußerer Speikkofel,2725.0
47.05331,11.658719,Olperer,3476.0
47.0603,11.657478,Großer Kaserer,3263.0
47.068306,11.645876,Kleiner Kaserer,3093.0
47.078094,11.722333,Kleiner Riffler,2837.0
46.93183,11.8262415,Ringelstein,2551.0
46.91818,11.8902645,Speikboden - Monte Spico,2518.0
46.94425,11.819153,Tristenspitz - Cima dei Covoni,2716.0
46.8718,11.895363,Donnerschlag - Cima dei Tuoni,2299.0
46.961113,12.029029,Durreck - Cima Dura,3135.0
46.972496,12.047007,Hirbernock - Cima di Moia,3010.0
46.97966,12.059496,Katzenkofel - Cima del Gatto,2912.0
47.055176,12.105041,Am Archl - Monte Arca,2265.0
47.060497,12.104582,Archbichl,2414.0
47.044132,11.994497,Außerbrunner,2543.0
47.032295,11.991384,Beim Mannl,2420.0
47.043755,12.042032,Beim Zatlan,2390.0
46.994812,12.075594,Beralspitz,2738.0
46.995934,12.055762,Blauspitz - Cima Pila,2558.0
47.079105,12.205688,Bockegg,2441.0
47.055386,12.051386,Brandberg,2685.0
47.04614,12.181868,Däuml,2540.0
47.038204,12.06578,Faden,2288.0
47.03316,12.017803,Fadenkopf - Cima Faden,2197.0
47.06874,12.099356,Gamsspitz,2682.0
47.033985,12.13823,Gebauer Ötschen,2560.0
47.02232,11.951342,Hohe Wand,2632.0
47.02299,11.9974785,Hühnerspiel,2095.0
47.042747,12.002437,Innerbrunner,2304.0
47.015285,11.981245,Kellerkopf,2124.0
46.959133,12.009364,Klausnock - Cima Chiusetta,2819.0
47.060165,12.20143,Kleiner Gamstod,3012.0
47.03924,11.994282,Kleiner Golter,2496.0
46.99587,12.118427,Kleiner Reinhard,2631.0
47.03252,12.140965,Kleiner Ötschen,2749.0
47.040684,12.012784,Knospe,2392.0
47.01789,11.950882,Kopfkraxe,2376.0
47.00419,12.047449,Lutterkopf - Monte Luta,2295.0
47.061104,12.055202,Löffelspitz,3018.0
47.036606,12.028937,Muslahner,2209.0
47.024254,12.124299,Obere Lenk,2573.0
47.02915,11.993928,Obermooskopf,2275.0
47.02715,11.949734,Obwasserer,2910.0
47.04324,12.012136,Öfenle,2351.0
47.058357,12.095157,Plattakopf,2213.0
47.04555,12.002056,Platten,2548.0
47.04259,12.179562,Rainhart Spitz,2891.0
46.958702,11.997486,Rauchkofel - Monte Fumo di Cadipietra,2653.0
47.029556,12.118911,Riepe,2254.0
47.03952,11.985813,Rotwand,2958.0
47.05845,12.195322,Innere Hohe Warte (Sauspitze),2843.0
47.06562,12.091647,Sauwipfel,2643.0
47.004494,12.106366,Schneespitz - Cima della Neve,2925.0
47.004684,12.067183,Schottenberg,2394.0
47.07048,12.152132,Schroppa,2305.0
47.07388,12.135825,Schwarzkopf,2666.0
47.00233,12.03044,Schönberg,1938.0
46.988094,12.03753,Schönbergspitz - Belmonte,2472.0
47.01674,11.9800825,Fuchskopf,2188.0
47.03568,11.943208,Sonntaggabel,3047.0
47.04158,11.9851465,Speiker - Cima di Croda Rossa,3062.0
47.018784,11.979171,Hochkopf,2239.0
47.02146,12.120717,Stege Ötschen,2598.0
47.02749,12.121441,Untere Lenk,2436.0
47.02547,11.9966755,Untermooskopf,2214.0
47.04977,12.060514,Wagner,2704.0
46.98785,12.087261,Weiße Wand,2517.0
47.051025,12.04266,Zatlkopf,2689.0
47.04268,12.062228,Zirbner,2418.0
46.92972,12.131768,Riesernock,2937.0
47.00454,11.773785,Furtschaglspitze,3190.0
46.986813,11.7285795,Pfitscher Grat,2767.0
47.04705,11.903109,Greizer Spitze,3010.0
47.05166,11.899374,Lappenspitze,2996.0
47.057453,11.97572,Hintere Stangenspitze,3225.0
47.024864,11.628314,Sagwandspitze,3227.0
47.026993,11.642467,Schrammacher,3410.0
47.013298,11.627211,Hohe Wand - Croda Alta,3289.0
47.0901,12.021969,Hoher Ribler,2975.0
47.08837,12.080139,Kleinspitze,3169.0
47.323956,12.470267,Maurerkogel,2129.0
47.10354,11.522132,Bendelstein,2436.0
47.102314,11.507769,Schröflkogl,2150.0
47.18032,11.672239,Torspitze,2663.0
47.193993,11.58242,Sunntiger,2667.0
47.179558,11.5793,Gipfelkreuz Seekarspitze,2649.0
47.171494,11.574458,Naviser Sonnenspitze,2620.0
47.16333,11.597485,Nördlicher Klammerschober,2448.0
47.16054,11.598411,Südlicher Klammerschober,2377.0
47.13211,11.598034,Kreuzjöchl,2536.0
46.90778,11.602906,Blickenspitz - Cima Vista,2988.0
46.87163,11.612805,Kofelspitz - Cima del Covolo,2261.0
46.937683,11.599292,Rübespitz - Cima Riva,2766.0
46.865932,11.637088,Steinwand,2297.0
46.94743,11.602281,Viedspitz,2583.0
46.944687,11.60243,Zwölferspitz - Cima Dodici,2690.0
47.156723,11.518508,Mislkopf,2623.0
47.161114,11.521048,Pfoner Kreuzjöchl,2638.0
47.165924,11.53097,Seeblesspitze,2628.0
47.171616,11.552149,Grafmartspitze,2720.0
47.174152,11.546956,Grünbergspitze,2790.0
47.180202,11.5431595,Rosenjoch,2796.0
47.18509,11.536136,Kreuzspitze,2746.0
47.18579,11.525051,Durrenseespitze,2651.0
47.187416,11.508424,Morgenkogel,2607.0
47.19835,11.531848,Gamslahnerspitze,2681.0
46.910847,12.140246,Hochgall - Monte Collalto,3436.0
46.799965,12.287654,Rosserspitze,2500.0
46.873787,12.2754,Hochkreuzspitze,2739.0
46.890873,12.242155,Defregger Pfannhorn,2820.0
46.70617,12.410041,Hochgruben - Tovo Alto,2537.0
46.774536,12.357593,Hochrast - Pausa Alta,2433.0
46.77688,12.341216,Gumriaul,2526.0
46.78074,12.327718,Marchkinkele - Cornetto Di Confine,2545.0
46.783295,12.290077,Spitzkinkele,2507.0
46.78425,12.312108,Blankenstein - Sasso Planca,2483.0
46.602085,11.746429,Obere Fermeda - Ferméda di Sopra,2630.0
46.602024,11.74318,Untere Fermeda - Ferméda di Sotto,2590.0
46.602608,11.751483,Große Fermeda - Gran Fermeda - Grande Fermeda,2873.0
46.603462,11.753222,Villnößerturm - Ciampanil de Funes - Campanile di Fùnes,2834.0
46.60809,11.762376,Pitl Sas Rigais,2888.0
46.61212,11.773639,La Furchёta,3025.0
47.37814,12.283373,Duracher Kogel,1773.0
47.059196,12.259242,Vordere Gubachspitze,3316.0
47.06413,12.257844,Hintere Gubachspitze,3387.0
47.07277,12.261463,Westliche Simonyspitze,3481.0
47.075386,12.267662,Östliche Simonyspitze,3448.0
47.0852,12.311552,Großer Happ,3352.0
47.10799,12.266105,Krimmler Törlkopf,3063.0
47.111988,12.258852,Hintere Sonntagsköpfe,3136.0
47.114735,12.255419,Schliefertürme,3142.0
47.037296,12.260695,Malhamhorn,3186.0
47.044228,12.2566805,Südliche Malhamspitze,3326.0
47.374016,11.5716,Hochglück,2573.0
46.800167,12.484694,Rauchegg,2594.0
47.381527,11.992291,Gern,1853.0
47.38513,11.984462,Hahnkopf,1902.0
47.065178,12.307097,Kleiner Geiger,2816.0
47.063942,12.314868,Türml,2844.0
47.05156,12.362579,Tulpspitze,3054.0
47.057465,12.361421,Zopetspitze,3198.0
47.066986,12.426726,Hohe Achsel,3161.0
46.829205,12.312914,Kreuzspitze/Eggeberg,2624.0
46.88721,12.277597,Kahorn,2692.0
47.056637,11.787953,Großer Ingent,2917.0
47.06295,11.795118,Südliche Kellerspitze,2712.0
47.045555,11.803568,Hennsteigenspitze,3002.0
47.04346,11.823125,Rotkopf,2985.0
47.068092,11.973931,Vordere Stangenspitze,3127.0
47.08309,11.959374,Rosswandspitze,3157.0
47.10067,11.954338,Grundschartner,3065.0
47.106693,11.96836,Mulner,2818.0
47.1197,11.982678,Stange,2635.0
47.116535,11.926746,Popbergspitze,2891.0
47.109875,11.933394,Wilhelmer,2937.0
47.10541,11.941925,Mugler,2958.0
47.098446,12.021846,Hohe Gaulschneide,2827.0
47.10348,12.0677595,Großer Magner,2873.0
47.100384,12.0745325,Südlicher Magnerkopf,2892.0
47.10138,12.071607,Nördlicher Magnerkopf,2878.0
47.104275,12.129424,Zillerplattenspitze,3148.0
47.109615,12.127974,Rainbachspitze,3129.0
47.11527,12.122268,Nadelspitze,2972.0
47.12152,12.114776,Südlicher Schwarzkopf,3042.0
47.118664,12.118175,Spaten,2953.0
47.132477,12.113266,Zillerspitze,3092.0
47.138687,12.041313,Aukarkopf,2736.0
47.062923,11.885544,Kreuzspitze,2886.0
47.07198,11.881166,Birbergspitze,2849.0
47.078285,11.873603,Toifler,2727.0
47.08839,11.870675,Floitenturm,2805.0
47.09959,11.860429,Rofelspitze,2714.0
47.104366,11.854532,Blaser,2695.0
47.113537,11.839134,Tristner,2767.0
47.076176,11.825945,Friderich,2638.0
47.067955,11.829311,Kellerkopf,2722.0
47.062374,11.832169,Tiefenkarspitze,2702.0
47.04579,12.42897,Rauhkopf,3070.0
47.403526,12.249489,Fleiding,1892.0
46.697845,12.107169,Herrstein - Sasso del Signore,2447.0
47.212894,12.129891,Farnbühel,2026.0
46.91523,11.90787,Sonnklar Nock,2390.0
46.925606,12.103029,Tristennöckl,2455.0
46.529594,12.003338,Lagazuòi Piccolo,2778.0
47.18058,12.400589,Blessachkopf,3050.0
47.47352,11.646711,Schleimsjoch,1806.0
47.146957,12.406714,Seekopf,2921.0
47.14649,12.444204,Rote Säule,2993.0
47.15143,12.4817,Fechtebenkogel,2867.0
47.147003,12.463989,Dichtenkogel,2839.0
46.59796,11.813812,Piza de Puez - Östliche Puezspitze - Piz de Puez,2913.0
46.598705,11.810678,Westliche Puezspitze - Piz de Puez,2918.0
46.71954,11.528474,Gissplatte - Monte Lasta,2323.0
46.78201,11.542601,Hochgschier - Monte Casura,2443.0
47.267933,12.077195,Falschriedel,2420.0
46.513393,11.736938,Pizes di Cin Dëic - Punta delle Cinque Dita,2997.0
46.52494,11.735311,Saslonch - Langkofel - Sassolungo,3181.0
46.865032,11.89014,Plattner Spitze,2439.0
46.79363,12.098314,Lutterkopf - Monte Luta,2145.0
47.128624,12.11449,Richterspitze,3052.0
46.70957,12.190449,Suiskopf - Monte Sues,2051.0
47.2862,12.062044,Pallspitze,2389.0
46.523605,11.795408,Piz Miara,2964.0
46.630745,11.871607,Cëndles,1963.0
46.61586,12.242665,Monte Piana,2324.0
46.623592,12.245102,Monte Piano,2306.0
47.34796,11.926245,Hochstand,2058.0
47.24032,11.796317,Kraxentrager,2425.0
47.4926,11.852764,Pramakopf,1475.0
47.345467,11.510031,Kleiner Bettelwurf,2650.0
47.448105,12.009825,Schönberger Joch (Bracher Joch),1313.0
47.43402,11.908841,Hauskogel,1009.0
47.41997,11.935391,Tondlkopf,1431.0
47.494984,12.315557,Schwaiglerkogel,1277.0
47.475452,11.840853,Hörndl,1627.0
47.454697,11.844936,Pletzachkogel,1544.0
47.431526,11.789239,Burgaukopf,1232.0
47.42317,11.817457,Bürglberg,693.0
47.460712,11.812711,Latschberg,1944.0
47.424797,11.784738,Martlspitze,1540.0
47.333355,11.524858,Kleine Wechselspitze,2099.0
47.401745,11.848115,Hinterkogel,1069.0
47.168797,11.799689,Penken,2095.0
47.370575,11.908342,Luderstein,1825.0
46.63121,12.384294,Cresta Zsigmondy - Zsigmondkopf,2998.0
46.63604,12.378774,Cima Undici - Elferkofel,3090.0
46.64396,12.406274,Arzalpenkopf - Croda Sora i Colesei,2369.0
46.60614,12.209534,Monte Scabro - Rauhkofel,2126.0
46.61911,12.289285,Torre Lavaredo,2536.0
46.61877,12.297234,Cima Ovest - Westliche Zinne,2973.0
46.619392,12.306126,Cima Piccola - Kleine Zinne,2857.0
46.619347,12.281167,Col de Medo - Col di Mezzo,2254.0
46.620365,12.307688,Punta di Frida,2789.0
46.62248,12.268762,Croda dell'Arghena - Katzenleitenkopf,2262.0
46.623802,12.386485,Monte Giralba di Sopra,2994.0
46.624325,12.316491,Cime Passaporto - Passportenkofel,2697.0
46.62446,12.350286,Collerena - Sandbühel,2607.0
46.556183,12.01869,Piza Nord - Punta Nord,2969.0
46.56373,12.027698,Mont Ciase - Monte Casale,2894.0
46.56748,12.028501,Mont Ciastel - Monte Castello,2817.0
46.57548,12.033534,Piz Forcia Rossa IV,2806.0
46.57965,12.040235,Piz Forcia Rossa II,2703.0
46.583916,12.046516,Piz Forcia Rossa I,2644.0
46.618683,12.052686,Ciamin,2610.0
46.634064,12.144667,Crep Checio - Hohe Gaisl - Croda Rossa d'Ampezzo,3140.0
46.644188,12.13409,Crodaccia Alta - Hohe Schlecht Gaisl,3015.0
46.645775,12.124407,Kleine Gaisl - Piccola Croda Rossa,2860.0
46.65227,12.1120405,Remeda Rossa - Rote Wand,2605.0
46.65663,12.10879,Roter Turm,2553.0
47.02953,12.286596,Hochkarkopf,2940.0
47.04422,12.320361,Schlüsselspitze,2778.0
47.031746,12.324317,Finsterwitzkopf,2257.0
46.52734,12.183732,Monte Faloria,2352.0
47.219307,11.536481,Schartenkogel,2311.0
47.214436,11.706901,Hubertusspitze,2205.0
47.31613,12.180574,Schneegrubenspitze,2237.0
47.328285,12.118028,Dürnbergstein,2205.0
47.32998,12.112186,Foischingköpfl,2106.0
47.299168,12.105968,Fünfmandling,2403.0
47.33245,12.195573,Haldenstein,2074.0
47.337,12.123178,Kreuzjoch,2069.0
47.30024,12.180168,Mitterkopf,2306.0
47.312622,12.17458,Molterfeldspitze,2248.0
47.290005,12.169109,Sonnwendkogel,2289.0
47.32511,12.121203,Stanglhöhe,2242.0
47.29368,12.103398,Westlicher Salzachgeier,2469.0
47.210224,11.52383,Sonnenspitze,2639.0
47.272896,12.045761,Kastenwendenkopf,2329.0
46.505127,12.351541,Croda Bianca,2841.0
46.509293,12.272522,Croda Rotta,2632.0
46.871956,12.277219,Mittlerhochkreuz - Monte Croce d Mezzo,2718.0
46.871246,12.271281,Unterhochkreuz,2631.0
46.87988,12.222293,Innerrodelkunke,2729.0
46.837822,12.199548,Fellhorn - Monte Quaina,2518.0
46.798824,12.267758,Beispitz,2277.0
46.79826,12.259743,Sealaspitz,2493.0
46.81784,12.254235,Gerichtshals,2239.0
46.819542,12.262051,Hochstein,2464.0
46.814938,12.282927,Körlspitz - Pizzo Quaira,2612.0
46.793037,12.265589,Hochhorn,2625.0
46.78066,12.231882,Rosskofel,2165.0
46.713017,12.045127,Hochalpenkopf - Col Alt,2539.0
46.671974,12.018545,Muntejela de Sennes - Monte Sella di Sennes,2787.0
46.79741,12.141857,Rudlhorn - Roda di Scandole,2448.0
46.816814,12.154593,Million - Col Million,2438.0
46.825394,12.158356,Frisiberg - Monte Frisio,2538.0
46.805386,12.17239,Laxiedenspitz - Cima dell'Acquasetta,2404.0
46.802013,12.15527,Eisatz - Monte Novale di fuori,2493.0
46.81066,12.160019,Innerriedl - Monte Novale di dentro,2372.0
47.275112,11.711346,Nonsjöchl,2028.0
46.728546,11.568961,Schalderer Nock - Dosso di Scaleres,1854.0
46.72965,11.597165,Sonnegg - Dosso del Sole,1590.0
46.51954,11.574387,Ciastelat - Burgstall - Monte Castello,2516.0
46.514137,11.555621,Jungschlern - Piccolo Sciliar,2282.0
46.723446,11.555536,Seenock - Cima Gelata,2064.0
46.72931,11.538905,Kälberberg - Monte dei Vitelli,1920.0
46.758892,11.553467,Schneelahnspitz - Cima della Valanga,2539.0
46.75628,11.543213,Kaserbacher Hörndle,2578.0
46.753105,11.590884,Berger Gipfele,1970.0
46.753273,11.60619,Spilucker Köpfl - Castelliera,1605.0
46.761997,11.591982,Lufiskofel - Dosso Lives,1890.0
46.717747,11.5824995,Rösslspitze - Monte Cavallino,2237.0
46.762238,11.605337,Waldkofel,1772.0
46.62747,11.797027,Medalges,2454.0
46.61107,11.833414,Antersasc,2471.0
47.449112,12.037251,Bemberger Joch,1355.0
47.33913,12.034591,Gamskarkopf,2242.0
47.40373,11.984432,Latschenk,1729.0
47.414513,11.993878,Rauher Kopf,1441.0
47.427147,11.989386,Thierbacher Kogel,1310.0
47.08969,11.649023,Weiße Wand,2518.0
46.764755,11.607671,Scheibenberg - Monte del Bersaglio,1925.0
46.784782,11.527896,Rotes Mandl - Ometto Rosso,2417.0
46.77534,11.574515,Sattelspitz - Monte Sella,2047.0
46.791416,11.585209,Mühltalegg,1420.0
46.789215,11.591816,Grannbichl - Monte Riol,1542.0
46.817272,11.596553,Sölderleegg,1790.0
46.799625,11.575193,Lenzkofel,1252.0
46.800846,11.558946,Lundenegg - Dosso Lunden,1566.0
46.790203,11.565954,Sandbühel - Dosso di Rena,1806.0
46.79284,11.618609,Mahdlkopf,1249.0
46.79791,11.625187,Brandegg - Monte Bruciato,1675.0
46.793625,11.622204,Nudelkopf,1410.0
46.808453,11.612055,Hut,1949.0
46.830112,11.563759,Kampelespitz - Cima di Campo,2088.0
47.348335,12.26095,Gerstinger Joch,2043.0
47.45402,12.121784,Bruggberg,1025.0
47.432175,12.106343,Mittermooser Joch,1448.0
47.31085,12.022591,Niederjochkogel,2143.0
46.58071,11.765972,La Piza,2555.0
46.996273,12.2554655,Großschober,3054.0
46.98846,12.254374,Rosenspitze,3060.0
47.34485,11.523834,Fallbachkartürme,2620.0
47.362995,11.502574,Gamskarspitze,2601.0
47.335587,11.523963,Große Wechselspitze,2319.0
47.313553,11.509817,Heuberg,980.0
47.320515,11.506269,Lärchberg,1367.0
47.347137,11.501173,Signalkopf,2478.0
46.662,11.52437,Mittagsnock - Cima Mezzodì,1376.0
46.662018,11.516673,Morgitsnock - Cima Mattina,1570.0
46.666504,11.506994,Pfreiner Nock - Monte di Freina,1928.0
46.68086,11.506909,Gamp - Monte Campo,2148.0
46.517963,11.741236,Langkofeleck - Spallone del Sassolungo,3081.0
47.005398,11.589913,Kraxentrager - La Gerla,2999.0
47.15181,12.138349,Rosskopf,2845.0
46.519928,11.997866,Sas de Stria,2477.0
46.992447,11.606236,Durregg,2272.0
46.985115,11.60982,Sameregg,2134.0
46.986073,11.657307,Jochplatte,2100.0
46.69805,11.911702,Col d'Ancona,1600.0
46.70506,11.897231,Piz de Plaies,1700.0
46.887207,11.522223,Höllenkragen - Giogo di Trens,2387.0
46.575706,11.977771,Piz dles Cunturines,3064.0
46.713146,12.430465,Scheibenegg,2269.0
46.67733,12.48716,Cima Frugnoni,2561.0
46.698235,12.481196,Gatterspitze,2430.0
46.711437,12.466372,Schusteregg,2032.0
46.69353,12.471946,Tscharrespitz,2499.0
46.707447,12.46391,Weißer Knoten,2202.0
46.696907,12.456659,Widerschwing,2395.0
46.78726,12.335846,Gannekofel,2488.0
46.79442,12.331464,Gruberspitze,2355.0
46.789818,12.348262,Schwebaskofel,2274.0
47.12566,11.776114,Vordere Grinbergspitze,2765.0
46.77474,12.3221445,Monte della Chiesa - Strickberg,2553.0
46.616856,11.78548,Campiller Turm,2599.0
46.602444,11.750005,Kleine Fermeda - Pitla Fermeda - Piccola Fermeda,2814.0
46.616173,11.783862,Wasserstuhl,2644.0
46.612263,11.776217,Odla de Valdusa,2942.0
46.60463,11.755311,Villnößer Geisel - Odle de Cisles - Odla di Funes,2800.0
46.60385,11.758537,Kumedel,2738.0
46.608604,11.7764015,Sas dla Porta - Torkofel,2967.0
46.71318,12.034234,Munt de Fora - Maurerkopf,2567.0
46.602486,12.297601,Monte Campedelle,2362.0
46.53149,11.824824,Piz Pisciadù - Pisciadù-Spitze - Cima Pisciadù,2985.0
46.64341,12.497168,Col Rosson,2304.0
46.68193,12.256011,Birkenkofel - Croda dei Baranci,2922.0
47.185806,11.927354,Steinkarspitze,2287.0
46.777042,12.494294,Bichl,2056.0
46.773983,12.456139,Glinzzipf,2126.0
46.782166,12.470826,Kühegg,2253.0
47.42255,11.77142,Kirchenspitz,1770.0
46.8381,11.564275,Notköpfl,2036.0
46.692284,11.571985,Kühbühl - Monte delle Vacche,1997.0
46.698578,11.571307,Muntschegge,2164.0
46.693947,11.570245,Kühberg - Monte delle Vacche,2007.0
47.365967,12.263182,Floch (Hauptgipfel),2057.0
47.44342,12.451483,Hochetzkogel,1738.0
46.8411,12.483206,Bürgler,2240.0
46.823006,12.481307,Dreiheggenspitze,2368.0
46.867878,12.483606,Kugelspitze,2796.0
46.83623,12.497093,Rappler,2812.0
46.860664,12.490215,Regenstein,2891.0
46.806377,12.494972,Weißlachberg,2671.0
46.895657,12.437459,Beilspitze,2587.0
46.81909,12.423781,Gabesitten,2665.0
46.814342,12.41843,Gabesittenhang,2525.0
46.889606,12.473931,Gagenhöhe,2463.0
46.84686,12.450394,Grabenstein,2665.0
46.884476,12.382461,Großer Leppleskofel,2811.0
46.831703,12.3692,Grumauerberg,2670.0
46.88294,12.457831,Hochalmspitze,2797.0
46.880016,12.393492,Hochleitenspitze,2877.0
46.88672,12.439823,Hochwand,2730.0
46.831997,12.431105,Hohes Haus,2784.0
46.834297,12.426081,Hohes Kreuz,2746.0
46.867508,12.399035,Kleines Degenhorn,2849.0
46.85395,12.408132,Kugelwand,2803.0
46.82832,12.407227,Kesseberg,2589.0
46.87252,12.46115,Marcheggenspitze,2684.0
46.887714,12.462923,Röte,2649.0
46.84662,12.446216,Sauspitze,2604.0
46.87009,12.468173,Spitz beim Kreuz,2655.0
46.85428,12.349275,Steinteralm,2459.0
46.86827,12.37421,Storfenspitze,2895.0
46.844112,12.421062,Wildegg,2830.0
46.969204,12.241195,Keeseck,3173.0
46.573307,12.21924,Torre NE di Popena,2479.0
47.484665,12.428318,Harschbichl,1604.0
46.57019,12.219866,Corno d'Angolo,2425.0
46.644325,11.567292,Säbener Berg - Monte Sabiona,673.0
46.882183,12.323922,Gamsburg,2729.0
46.87999,12.324906,Gschritt,2750.0
46.863167,12.3001585,Pfannschneid,2500.0
46.871365,12.304987,Pfannspitze,2676.0
46.910267,12.215034,Almersäulen,2613.0
46.916084,12.152108,Barmer Spitze,3200.0
46.940628,12.199587,Bretterspitzen,2834.0
46.904747,12.260985,Hirschbichl,2141.0
46.92446,12.218902,Hofer,2113.0
46.906902,12.16249,Kleine Ohrenspitze,2938.0
46.88874,12.236165,Kärlskopf,2836.0
46.910137,12.169731,Mittlere Ohrenspitze,3005.0
46.936626,12.209307,Rothorn,2648.0
46.934032,12.17864,Rosshorn,3068.0
46.885437,12.2140045,Roßkopf,2548.0
46.67629,12.105019,Großer Jaufen - Giavo Grande,2475.0
46.625607,11.649884,Segenbühl - Col Seghen,1628.0
46.946262,12.483535,Deferegger Höhe,2658.0
46.94724,12.451037,Melspitze,2641.0
46.904446,12.473162,Penzenkopf,2233.0
46.909214,12.447497,Plöß,2229.0
46.943897,12.497808,Stanzling,2715.0
46.95386,12.489416,Torkogel,2730.0
46.89544,12.481918,Zeigerle,2311.0
46.892387,12.39222,Auf der Rahn,2450.0
46.8927,12.375116,Kleiner Leppleskofel,2469.0
47.070953,12.470339,Dabernitzhöhe-Hauptgipfel,2673.0
47.08776,12.467391,Dabernitzkogel,2969.0
47.059505,12.405454,Großer Hexenkopf,3314.0
47.08353,12.472409,Hintere Michlbachspitze,2905.0
47.10981,12.468328,Hinterer Plattenkogel,2741.0
47.0614,12.409942,Kleiner Hexenkopf,3194.0
47.097763,12.41089,Löbbenkopf,2917.0
47.053547,12.411926,Niederer Eichham,3247.0
47.08155,12.48405,Raneburgkogel,2925.0
47.144955,12.450675,Roter Kogel,2946.0
47.096996,12.482674,Schildkogel,2826.0
47.057907,12.43787,Schober,2745.0
47.150215,12.392061,Schwarzkopf,2996.0
47.10355,12.488824,Spitzkogel,2606.0
47.075214,12.489882,Stanzlegg,2814.0
47.07792,12.469105,Vordere Michlbachspitze,2821.0
47.124893,12.410035,Vorderer Kesselkopf,2713.0
47.11625,12.4699745,Vorderer Plattenkogel,2672.0
47.072384,12.401885,Vorderer Seekopf,3282.0
47.13606,12.433507,Zeigerpalfen,2506.0
47.10361,12.440271,Äußerer Knorrkogel,2920.0
46.96937,12.4433,Achsel,2220.0
47.006584,12.433509,Burg,1416.0
46.975845,12.475825,Grübl,1968.0
46.96235,12.445963,Legerle,2527.0
46.963764,12.410577,Lunebischhöhe,2567.0
46.959473,12.470341,Oberstkogel,2570.0
47.009865,12.240064,Achsel,2673.0
46.9944,12.332432,Almspitz,2275.0
46.957798,12.260325,Alplesspitze,3149.0
46.928276,12.250904,Am Putzen,2591.0
46.9759,12.275267,Bachlenkenkopf,2759.0
46.994534,12.382185,Berger Kogel,2656.0
46.96896,12.331329,Blindis,3000.0
46.989635,12.398759,Bläß,2225.0
47.016308,12.2068615,Daberspitze,3402.0
46.97378,12.304684,Finsterkarspitze,3029.0
46.974785,12.247647,Gamsköpfl,2720.0
46.936035,12.367953,Gasser Hörndle,2612.0
47.013874,12.163714,Glockhaus,3103.0
46.956993,12.389807,Gosachkofel,2536.0
46.97715,12.262594,Graue Wand,2816.0
46.940887,12.387989,Gritzer Hörndle,2631.0
46.946445,12.404129,Gritzer Riegel,2736.0
46.969418,12.293777,Hainzenspitze,2930.0
46.933453,12.347363,Happ,2210.0
46.951637,12.406485,Hoher Gang,2506.0
46.936573,12.247219,Hutner,2885.0
46.991993,12.160174,Hörnle,2744.0
46.968628,12.189387,Hüttenkopf,2204.0
47.009533,12.163128,Jagdhausspitze,3165.0
46.94304,12.283928,Kauschkahorn,2903.0
46.971035,12.303216,Kesselpater,2985.0
46.983284,12.296908,Kleinbachkopf,2844.0
46.999657,12.270964,Kleinschober,2806.0
46.988472,12.318712,Kriselachspitze,2848.0
46.993946,12.352862,Muhskopf,2651.0
47.023144,12.276481,Ogasilspitze,3032.0
46.976414,12.221416,Panargenspitze,3117.0
46.96686,12.33962,Pizleshorn,2942.0
47.033237,12.268638,Quirl,3251.0
46.9982,12.268142,Rasenegg,2784.0
46.985535,12.259827,Reichenberger Spitze,3030.0
47.007973,12.204506,Rotenmannkopf,3127.0
46.983196,12.201818,Rotenmannspitze,3077.0
46.96531,12.372144,Roßleitenhöhe,2650.0
46.95791,12.182096,Salzkopf,2348.0
46.970905,12.2174635,Sandbichl,2921.0
46.9478,12.37797,Scheibe (Gritzer Bockshorn),2765.0
47.02098,12.259602,Schinagl,2875.0
46.980385,12.372861,Schober,2882.0
46.98583,12.376841,Seiche,2795.0
46.976097,12.376831,Staberegg,2668.0
46.97494,12.32121,Stampfleskopf,3071.0
46.953293,12.358447,Steingrubenhöhe,2895.0
47.031654,12.256422,Steingrubenkopf,3231.0
46.97356,12.3664465,Säule,2850.0
46.99658,12.322009,Toinigspitze,2666.0
46.9805,12.204278,Totenkarspitze,3133.0
47.01671,12.214861,Tredeberspitze,3134.0
46.957058,12.357265,Tögischer Bockshorn,2819.0
46.99519,12.200175,Törlspitze,3052.0
46.934727,12.268442,Weitstrahl,2734.0
46.98602,12.272658,Weißer Klapf,2702.0
46.944126,12.16258,Winkelspitze,3156.0
46.946983,12.390717,Wohl,2772.0
47.019363,12.243837,Zunagl,2285.0
47.036827,12.468042,Bretterspitze,3001.0
47.042694,12.442819,Galtenkogel,2986.0
47.02913,12.495129,Hintereggkogel,2638.0
47.047165,12.476157,Hohes Fenster,2567.0
47.047062,12.408093,Kuhhaut,3190.0
47.04003,12.450819,Mittereggspitze,3044.0
47.041573,12.463564,Nördliche Göriacher Röte,3011.0
47.031178,12.465089,Pegömlspitze,2726.0
47.021328,12.497683,Planlißbichl,2160.0
47.033245,12.427591,Schaufelspitze,2631.0
47.035618,12.433264,Stotzkopf,2669.0
47.039177,12.46658,Südliche Göriacher Röte,3020.0
47.017467,12.475106,Waldköpfl,1889.0
47.04336,12.40243,Wunspitze,3217.0
47.03222,12.449063,Zinizachspitze,2754.0
47.065998,12.369482,Gastacherwände,3074.0
47.043274,12.361875,Hinterer Sajatkopf,3092.0
47.076202,12.352496,Kapunitzköpfl,2816.0
47.04394,12.350672,Knappenspitze,2888.0
47.09063,12.3675995,Mullwitzaderl,3244.0
47.080296,12.359026,Mullwitzköpfl,2960.0
47.058693,12.31945,Niklaskogel,2791.0
47.08548,12.390179,Stein am Ferner,3246.0
47.040447,12.3972025,Wunwand,3061.0
47.04384,12.240544,Essener Eck,3006.0
47.13262,12.368894,Hinterer Santen,2705.8
47.12484,12.390633,Innerer Kesselkopf,2897.0
47.047226,12.258478,Mittlere Malhamspitz,3364.0
47.13701,12.39033,Mülleter Bichl,2514.0
47.131683,12.339147,Pillewizer,3000.0
47.140232,12.371793,Plattiger Habach,3207.0
47.054863,12.258544,Reggentörlturm,3176.0
47.070602,12.2483425,Umbalköpfl,3426.0
47.07763,12.074223,Schafkarlen,2536.0
47.09261,12.125438,Seekarkopf,2916.0
47.089874,12.128976,Seewlaser Schneid,2854.0
47.076073,12.035478,Hohe Warte,3097.0
47.11679,12.103955,Rainbachköpfl,2690.0
47.117485,12.091933,Sonntaglahnerkopf,2314.0
46.96134,12.100496,Stutennock,2738.0
46.95577,12.11644,Brunnaleitnspitz,2802.0
46.973137,12.106129,Knuttennock,2734.0
46.96451,12.120505,Saßenegg,2950.0
46.97563,12.119926,Napfe,2507.0
46.942448,11.978847,Kleines Jöchl - Col Piccolo,2272.0
46.622173,11.676208,Baumannspitz,1869.0
46.60804,11.677533,Piz da Ciastel - Schlosskofel,2204.0
47.170418,12.341762,Leiterkogel,2988.0
47.207153,12.311923,Großer Finagl,2730.0
46.663715,11.7277975,Hochegg - Monte dei Ginepri,1836.0
46.6582,11.706399,Tschnoschen - Monte di Mezzo,1808.0
46.614105,11.695307,Resciesa Dedite - Innerraschötz - Rasciesa di Dentro,2317.0
46.61641,11.716364,Laite va Piz,2304.0
46.60837,11.720516,Ёur de Bredles,2158.0
47.1813,12.088019,Ankenkopf,2700.0
47.15361,12.003637,Auf der Röte,2691.0
47.082428,11.872474,Drei Könige,2620.0
47.227528,12.071946,Filzegg,1734.0
47.219734,12.09317,Filzenhöhe,1948.0
47.314503,12.253377,Gamsbeil,2169.0
47.307575,12.252299,Geige,2084.0
47.184643,12.042415,Geißkopf,2320.0
47.105465,11.982198,Grünkarlegg,2454.0
47.32756,12.052141,Hahnenkopf,1914.0
47.19698,12.085073,Hanger,2472.0
47.322617,12.117037,Herzogkogel,2292.0
47.17236,11.946983,Kleiner Kolm,2223.0
47.173706,12.04411,Kuglater Hauer,2610.0
47.21111,12.087934,Lahnerhöhe,1964.0
47.091537,11.957631,Maderegglspitze,3050.0
47.10595,11.925336,Nofertenschneid,2434.0
47.20177,12.087351,Pfannkogel,2310.0
47.13296,12.063993,Plattkopf,2594.0
47.14318,12.029882,Rotkopf,2819.0
47.189186,12.07619,Schlafbichel,2146.0
47.141247,12.035565,Schneekarkopf,2842.0
47.16227,12.052875,Schwarzer Kopf,2778.0
47.215416,12.086191,Schönbichl,2049.0
47.171734,12.086242,Sendlspitze,2882.0
47.32162,12.022814,Sonnenjoch,2287.0
47.156307,12.055201,Steinkarkopf,2740.0
47.179577,12.039944,Wechselspitze,2637.0
47.174637,12.087143,Weißkarkopf,2850.0
47.31912,12.25627,Westerachkopf,2096.0
47.04002,11.794883,Hennsteigenkamp,2606.0
47.001694,11.845092,II. Hornspitze - Corno di Ghega,3199.0
47.00251,11.844921,III. Hornspitze (Berliner Spitze),3254.0
47.037445,11.856711,Kleiner Mörchner,3198.0
47.023678,11.78488,Schönbichl,2263.0
47.012093,11.8113985,Steinmandl,2634.0
46.993008,11.836198,Vordere Hornspitze - Monte Corno,3148.0
46.642536,11.819228,Col de Coltöres,2300.0
47.047337,11.8286295,Plattenkopf,2899.0
46.6482,11.794281,Ringspitz,2625.0
46.65254,11.760769,Weißlahnspitz - Cima Lavina Bianca,2494.0
47.141815,12.104459,Hahnenkamm,3209.0
47.092903,11.9711,Hasenkarkopf,2546.0
47.11205,12.056256,Kleiner Magner,2589.0
47.08495,11.929108,Weißkareggl,2137.0
47.05846,12.0194435,Roßkopf,2622.0
47.15887,11.997826,Hochsteinflache,2769.0
47.048595,12.003244,Hollenzkofel - Cima di Landro,2785.0
47.050823,12.031175,Napfe,2734.0
47.167236,12.048617,Stange,2714.0
47.10827,12.027236,Hahn,2453.0
47.047073,11.985638,Hollenzkopf,3194.0
47.12458,12.113746,Nördlicher Schwarzkopf,3079.0
47.16577,12.017228,Pfannstielkopf,2528.0
47.098328,11.933909,Hennsteigenkamm,2417.0
47.151367,12.02043,Höhenbergkarkopf,2791.0
47.148457,12.05933,Zillerkopf,2995.0
47.16728,12.091813,Sichelkopf,2982.0
47.047344,12.021445,Speikkofel/Mitterjoch - Giogo del Cornetto,2591.0
47.07645,11.790882,Bretterkopf,2251.0
46.996872,11.711382,Hochsteller,3098.0
47.024685,11.7412,Kleiner Greiner,2959.0
47.002926,11.70518,Kälberlahnerspitze,2928.0
47.033268,11.734442,Spitzeggkopf,2808.0
47.006084,11.747451,Furtschaglkopf,2603.0
47.07167,11.793348,Trenker,2399.0
47.139267,12.097319,Kuchelmooskopf,3214.0
47.03974,11.813014,Kirchl,2838.0
47.065643,11.795353,Nördliche Kellerspitze,2596.0
47.043995,11.815288,Ochsner,3107.0
47.069893,11.70972,Petersköpfl,2679.0
47.019592,11.69669,Zamser Egg,2467.0
47.03387,11.751904,Breitegg,2321.0
47.029064,11.735686,Greinermauer,2883.0
47.010914,11.701178,Kleiner Hochsteller,2860.0
47.058743,11.779862,Kleiner Ingent,2840.0
47.071423,11.827131,Lappenkopf,2714.0
47.064945,11.678887,Gefrorene-Wand-Spitzen,3288.0
47.01995,11.753675,Großer Greiner,3201.0
46.99325,11.711391,Haupenhöhe,3041.0
47.035877,11.672763,Schramerkopf,2764.0
47.051952,11.736205,Spiegelkopf,2102.0
47.0417,11.73614,Zwiselkopf,2584.0
47.38942,12.473786,Hahnenkampl,1812.0
47.459732,12.421784,Wilder Hag,1639.0
47.423298,12.475276,Gaisberg,1798.0
47.39961,12.465677,Laubkogel,1760.0
47.485134,12.473798,Obingkogel,1303.0
47.38135,12.498064,Staffkogel,2115.0
47.413826,12.485924,Kleiner Gebra (Ranggen),1910.0
47.40131,12.497107,Schotting,1799.0
47.45785,12.453261,Pfeiferkogel,1669.0
47.476757,12.470064,Reisenbergköpfl,1362.0
47.377903,12.482594,Saalkogel,2006.0
47.378834,12.479516,Rauber,1972.0
47.083885,11.8195505,Gaulspitze,2412.0
47.080383,11.822946,Lappin,2562.0
47.342045,12.477515,Kitzstein,2032.0
47.337147,12.44705,Kuhkaser,2054.0
47.355103,12.477149,Mittagskogel,2040.0
47.32635,12.478374,Rescheskogel,2182.0
47.328598,12.441748,Schellenberg,2048.0
47.325306,12.465901,Maureregg,1964.0
47.32723,12.447204,Sintersbachhöhe,2028.0
47.33267,12.438564,Schöntagweidkogel,2014.0
47.356224,12.469434,Teufelssprung,2174.0
46.680668,11.806776,Costaces,2119.0
47.02311,11.66514,Ameiskopf,2553.0
47.0571,11.656823,Falscher Kaserer,3254.0
47.047062,11.649474,Fußstein,3380.0
47.02619,11.576137,Grindlkopf,2049.0
47.05624,11.569505,Riepenspitze,2460.0
47.032814,11.607861,Hohe Kirche,2634.0
46.99285,11.565116,Wildseespitze - Punta Lago Romito,2733.0
47.027874,11.619562,Hohe Warte,2943.0
47.013336,11.566016,Saxalmwand,2635.0
47.007385,11.656045,Kellerkopf,2648.0
47.391003,12.348714,Pengelstein,1938.0
47.007076,11.526096,Kuhberg,1992.0
47.02244,11.54695,Roßgrubenkofel,2450.0
47.0222,11.554489,Silleskogel,2418.0
47.050804,11.502122,Rittengrat,1838.0
47.10285,11.559994,Pliderling,2515.0
47.05833,11.523692,Köpfl,1834.0
47.071217,11.58785,Hoher Napf,2245.0
47.115692,11.588584,Hohe Warte,2398.0
47.14413,11.62372,Naviser Reckner,2824.0
47.09408,11.552331,Reißenschuh,2470.0
47.164696,11.621644,Klammspitzen,2516.0
47.166958,11.6102085,Mölser Sonnenspitze,2489.0
47.18302,11.582326,Seekarspitze,2646.0
47.199986,11.6900215,Almkogel,2419.0
47.127422,11.633973,Bleijägerspitze,2669.0
47.12832,11.758706,Lappin,2430.0
47.08536,11.612452,Riepenkopf,2422.0
47.17953,11.753392,Rotkopf,2006.0
47.11,11.742177,Roßkopf,2971.0
47.22458,11.589975,Roßkopf,2382.0
47.083733,11.618707,Schönlahnerspitze,2424.0
47.197426,11.678162,Waxen,2390.0
47.1372,11.740946,Am Flach,2248.0
47.22101,11.8221245,Arbiskopf,2133.0
47.140114,11.640323,Pluderling,2781.0
47.10239,11.730508,Realspitze,3039.0
47.210735,11.782851,Sandegg,2360.0
47.167633,11.703282,Sattelkopf,2051.0
47.195515,11.786708,Schafskopf,2290.0
47.097378,11.714424,Grierer-Kar-Spitze,2952.0
47.18263,11.711752,Hennensteigen,1986.0
47.172943,11.808325,Knorren,2081.0
47.133762,11.654611,Dunkle Spitze,2479.0
47.2103,11.664787,Grafennsspitze/Krovenzspitze,2619.0
47.21311,11.601538,Haratzköpfl,2170.0
47.1914,11.790814,Hoarbergkarspitze,2278.0
47.134254,11.666476,Hochwartspitze,2491.0
47.13876,11.681338,Madseitberg,2292.0
47.11568,11.75779,Nestspitze,2966.0
47.10081,11.651139,Pfannköpfl,2388.0
47.205772,11.594566,Richteregg,2560.0
47.105698,11.705747,Schmittenberg,2731.0
47.133835,11.633913,Sägenhorst,2713.0
47.193073,11.810744,`s Gerennte,1934.0
47.19025,11.665253,Eiskarspitze,2611.0
47.08709,11.645007,Frauenwand,2541.0
47.19312,11.753852,Graue Spitze,2552.0
47.12605,11.675009,Kellenspitze,2179.0
47.187756,11.745436,Lämmerbichl,2278.0
47.08023,11.654361,Lärmstange,2686.0
47.200645,11.588404,Malgrübler,2749.0
47.122494,11.771041,Mittlere Grinbergspitze (Turm),2867.0
47.171192,11.662683,Graue Wand,2594.0
47.21218,11.584785,Haneburger,2596.0
47.118694,11.766353,Hintere Grinbergspitze,2884.0
47.113804,11.724196,Höllenstein,2874.0
47.090244,11.607847,Jochgrubenkopf,2453.0
47.15404,11.661449,Kalkwand,2826.0
47.093407,11.689111,Rauhegg,2456.0
47.131798,11.773447,Spitzegg,2647.0
47.10964,11.787438,Wildschrofen,2142.0
47.103188,11.635105,Hornspitze,2650.0
47.152405,11.657771,Reuterturm,2669.0
47.123226,11.721437,Wechselkopf,2139.0
47.21687,11.50283,Neunerspitze,2285.0
47.11124,11.910952,Popbergeggl,2350.0
47.13443,11.939393,Trenkner,2666.0
47.198574,11.911396,Arbiskogel,1835.0
47.140236,11.913312,Schafkarspitze,2397.0
47.10499,11.870869,Seichenkopf,2165.0
47.139015,11.936468,Trenknerkirchl,2481.0
47.17589,11.981743,Burgkopf,2221.0
47.186142,11.955229,Seichenkopf,2270.0
47.16573,11.984199,Äußerer Falk,2668.0
47.191845,11.926469,Freikopf,2201.0
47.202286,11.90426,Gerloskogerl,1682.0
47.18404,12.010402,Schafkogel,2097.0
47.17712,11.89174,Hollenzberg,1621.0
47.17609,12.012967,Kehlkopf,2230.0
47.20165,11.92616,Larchkopf,1856.0
47.178272,11.959289,Seespitze,2362.0
47.28195,12.009259,Grubachkogel,2343.0
47.274963,11.986386,Katzenkopf,2535.0
47.26952,11.968383,Manskirch,2393.0
47.234737,11.986342,Richtberg,2278.0
47.264385,11.972626,Rifflerkogel,2494.0
47.288937,11.985864,Schafkopf,2454.0
47.24122,11.987168,Pfeiler,2308.0
47.27667,11.960008,Speikspitze,2324.0
47.283398,11.9856,Hüttenkopf,2462.0
47.29886,12.197521,Freimöserkopf,2005.0
47.343597,12.301367,Die Hex,1939.0
47.33976,12.25073,Kleiner Tanzkogel,1974.0
47.41036,12.248522,Laubkogel,1769.0
47.37142,12.172524,Hundskopf,1836.0
47.31325,12.279336,Laubkogel,2114.0
47.33666,12.299695,Blaufeldköpfe,2073.0
47.397446,12.3507,Jufenkamm,1905.0
47.358814,12.176345,Wiesboden,1947.0
47.37012,12.387276,Wurzhöhe,1739.0
47.340534,12.381002,Bärenbadkogel,1883.0
47.30668,12.23215,Gamskogel,2206.0
47.302258,12.264109,Grasleitkopf,2158.0
47.30228,12.208118,Grünkogel,1963.0
47.314014,12.369287,Hanglhöhe,1940.0
47.387787,12.267119,Schledererkopf,1802.0
47.330086,12.256318,Schwarzkarkogel,2089.0
47.36501,12.276687,Schößpalfen,1772.0
47.302773,12.24135,Speikkogel,2232.0
47.35896,12.185674,Steinberg,1887.0
47.402176,12.367151,Steinbergkogel,1972.0
47.426895,12.28721,Gaisberg,1770.0
47.455997,12.37994,Lebenberg,883.0
47.418907,12.358872,Ehrenbachhöhe,1802.0
47.483307,12.3567705,Rettenberg,876.0
47.485485,12.193644,Salvenmooser Kogel,1238.0
47.476982,12.241334,Zinsberg,1668.0
47.479023,11.519176,Fleischbank,2028.0
47.455185,11.780678,Roßkopf,2257.0
46.903015,12.135375,Wildgall,3273.0
46.977818,11.7217455,Griesferner,3398.0
47.45945,11.759459,Streichkopf,2243.0
46.699036,12.064982,Schwarzberg - Monte Nero di Braies,2142.0
47.20233,12.379578,Graukogel,2834.0
47.214317,12.390714,Kühkopf,2395.0
47.185783,12.400254,Lienzinger,2944.0
47.23376,12.368161,Mahdleitenkopf,2341.0
47.208817,12.385892,Pailkopf,2518.0
47.2205,12.366807,Schafkopf,2502.0
47.1881,12.449524,Geißkopf,2740.0
47.17165,12.465507,Hochbirghöhe,2758.0
47.19931,12.449641,Hoher Herd,2819.0
47.20728,12.447546,Leitachkogel,2677.0
47.2153,12.446798,Pembachkogel,2453.0
47.241486,12.467558,Spielbergkogel,2096.0
47.228523,12.455968,Stubenkogel,2531.0
47.16342,12.428663,Weißeneck,2320.0
47.30711,12.382528,Resterhöhe,1892.0
47.12416,11.895301,Toreggenkopf,2470.0
47.180378,12.458306,Bockastenhöhe,2724.0
47.24017,12.368217,Elferkogel,2182.0
47.217453,12.39063,Gamskarhöhe,2337.0
47.182148,12.456377,Geißkopf,2741.0
47.195137,12.390891,Jägerköpfl,2546.0
47.185715,12.387208,Rosslahnerkopf,2855.0
47.168304,12.403561,Schafkopf,2902.0
47.18294,12.4019375,Säullahnspitze,2956.0
47.221397,12.393861,Wildloseck,2309.0
47.23802,12.383202,Zettachkopf,2007.0
47.20864,12.498773,Archenkopf,1915.0
47.194614,12.498887,Brentling,2242.0
47.174633,12.499464,Huggachköpfe,2475.0
46.885643,12.065853,Schwarze Wand - Croda Nera,3105.0
46.63575,12.337349,Oberbachernspitzen Westen - Croda Fiscalina Ovest,2635.0
46.637226,12.342065,Oberbachernspitzen Mittl - Croda Fiscalina di Mezzo,2675.0
47.36459,11.655712,Hirschkopf,1960.0
47.365902,11.656546,Jöchl,1913.0
46.684513,12.338864,Innergsell - Monte Casella di Dentro,2065.0
46.62577,12.290659,Col Forcellina,2232.0
47.29202,12.266346,Braunkogel,2167.0
47.29806,12.071338,Bärentalkopf,2186.0
47.019684,11.828508,Am Horn,2647.0
47.013397,11.7625,Talggenköpfe,3179.0
47.006584,11.712196,Hochstall,2466.0
46.53731,12.058713,II. Pilastro,2820.0
46.539776,12.05684,Punta Marietta,2973.0
46.54284,12.074866,2° Torrione di Pomedes,2767.0
47.26752,12.09884,Müllachgeier,2254.0
46.614113,12.117802,Croda de r'Ancona,2367.0
46.59318,11.824625,Pitla Piza de Puez,2725.0
46.564083,11.547473,Katzenlochbühel,1162.0
47.27327,11.960234,Mannskopf,2340.0
46.50642,12.108142,Becco d'Aial,1845.0
47.351532,12.364322,Talsenhöhe,1928.0
47.28223,11.747669,Großer Gamsstein,2142.0
47.25076,11.74625,Metzen,2355.0
47.242268,11.755191,Pfaffenbichl,2431.0
47.269238,11.73676,Wetterkreuz,2337.0
47.24382,11.801027,Gipfel,2445.0
47.251244,11.806096,Marchkopf,2499.0
46.519657,12.496894,Monte Tudaio,2141.0
46.654015,12.485656,Colle della Crodata,2313.0
46.50406,12.289518,Campanile di San Marco,2772.0
46.510788,12.335887,Cima Arduini,2769.0
46.516384,12.345215,Torre Augusto,2716.0
46.522823,12.340219,Cima dei Camosci,2675.0
46.51138,12.37741,Cima Del Carro Armato,2525.0
46.500217,12.300553,Cima di Tiziano,2802.0
46.505455,12.301494,Cima Schiavina,2782.0
46.500443,12.290126,Cima Vanedel,2797.0
46.501617,12.310089,Cime di Vallonga,2740.0
46.505333,12.32801,Cime Di Valtana,2722.0
46.527813,12.335382,Croda alta di Somprade,2654.0
46.52665,12.346092,Croda Bàion,2583.0
46.528717,12.350154,Croda da Rin,2407.0
46.51903,12.344739,Croda dell'Arbel,2728.0
46.512817,12.344571,Le Selle (Est),2851.0
46.51431,12.341068,Le Selle (Ovest),2828.0
46.507183,12.285826,Croda del Mescolo,2413.0
46.50524,12.364091,Monte Peronat,2408.0
46.50912,12.374994,Monte Ciastelin,2570.0
46.50456,12.339876,Monte Froppa,2840.0
46.517857,12.29662,Monte Meduce,2402.0
46.502556,12.3167,Monticello,2803.0
46.50116,12.297181,Pala di Meduce,2850.0
46.504288,12.336081,Punta Anita,2765.0
46.52167,12.347406,Spalla dell'Arbel,2678.0
46.526768,12.36007,Col di Baion,1735.0
46.510582,12.344302,Punta Teresa,2866.0
46.54921,11.676514,Col dal Lëuf - Wolfsbühel - Col del Lupo,1914.0
46.51335,11.637237,Goldknopf- Punta d'Oro- Mont de Cepëi,2248.0
46.518425,11.636806,Col dal Spiedl - Grunserbühl,2177.0
46.864376,11.574087,Mutakopf - Dosso Muta,2209.0
46.518276,11.55841,Gabels Mull,2389.0
46.501633,11.594723,Kranzer - Cranzes,2465.0
46.521473,11.574123,Kanzele,2478.0
47.153526,11.631142,Lizumer Sonnenspitze,2831.0
47.158237,11.622423,Tarntaler Köpfe,2756.0
46.502174,12.250564,Corno del Doge,2610.0
46.517117,12.308194,Tacco del Todesco,2321.0
47.366047,12.461655,Kleiner Schütz,2075.0
47.330322,11.798214,Spieljoch,1920.0
47.378307,11.816772,Larchkopf,1375.0
47.240433,11.648658,Poverer Jöchl,2318.0
47.233475,11.650868,Sagspitze,2401.0
46.99709,11.581366,Friedrichshöhe,2717.0
46.500732,11.807995,Sas de Pordoi,2950.0
46.60324,12.377977,Cima Pezzios,2445.0
46.627686,12.393371,Cima Popera,2964.0
46.60857,12.363722,Cima d'Auronzo,2918.0
46.59837,12.362755,Colle dell'Agnello,2406.0
46.614853,12.388866,Monte Giralba di Sotto,2881.0
46.60725,12.37089,Punta Maria,2660.0
46.604523,12.361225,Punta dell'Agnello,2724.0
46.624687,12.418375,Sasso di Selvapiana,2116.0
46.578762,12.290377,Cima Cadin Nord Est,2788.0
46.579723,12.28355,Cima Cadin Nord Ovest,2724.0
46.573177,12.279156,Cima Cadin della Neve,2752.0
46.57441,12.275996,Cima Cadin di Misurina,2670.0
46.576305,12.286723,Cima Eotvos,2825.0
46.585167,12.181057,Cima Padeon,2859.0
46.57811,12.196023,Cristallo di Mezzo,3150.0
46.58592,12.295725,Cimon di Croda Liscia,2569.0
46.569412,12.269475,Col di Varda,2220.0
46.578655,12.21112,Dito di Popena,2934.0
46.581367,12.221018,Guglie di Val Popena Alta,2564.0
46.590637,12.221779,Monte Cristallino di Misurina,2768.0
46.58524,12.243907,Monte Popena,2229.0
46.576393,12.20728,Piz Popena,3153.0
46.582024,12.214103,Punta Michele,2890.0
46.58668,12.300111,Torre Siorpaes,2556.0
46.58041,12.281128,Torre del Diavolo,2596.0
46.586708,12.178089,Vecio del Forame,2863.0
46.78267,12.301318,Ternegg,2422.0
46.826466,12.295848,Gail,2494.0
46.84348,12.295948,Großer Heimwald,2755.0
46.689594,12.453269,Schöntalspitze - Cima di Valbella,2635.0
46.511593,11.784904,Piz Ciavazes,2828.0
46.942047,11.742989,Pfeifholderspitz - Cima della Pipa,2862.0
46.995502,11.688532,Rotbachlspitze - Croda Rossa,2897.0
46.56498,11.651208,Piz Culac - Gulatschegge,1705.0
46.558193,11.653953,Piz Ridl - Col da la Dodesc,2108.0
47.02043,11.895186,Westliche Floitenspitze - Cima di Floite Ovest,3195.0
46.71622,12.066858,Kühwiesenkopf - Monte Prà della Vacca,2140.0
46.83418,12.019196,Hühnerspiel - Cima Specola,2136.0
46.860134,12.038236,Zinsnock - La Cima,2528.0
46.500553,12.0374775,Averau,2648.0
46.587624,12.054866,Monte del Vallon Bianco,2688.0
46.876072,11.866653,Knappnock - Dosso dei Canopi,2132.0
46.84634,12.031235,Schönbichl - Bel Colle,2449.0
46.622334,11.960889,Piza dales Diesc,3026.0
46.59402,11.990355,Monte Stiga,2786.0
46.58854,11.983371,Piz Parom,2954.0
46.578953,11.989751,Piz Taibun,2927.0
46.59565,11.976573,Seespitzen,2683.0
46.594685,11.960982,Piz de Medesc,2709.0
46.5659,11.97773,Col dal Canun,2397.0
46.56554,12.070916,Cima Formenton,2830.0
46.58063,12.446777,Monte Aiarnola,2456.0
46.509777,12.052289,Torre Lusy,2257.0
46.50958,12.051908,Torre Romano,2288.0
46.509674,12.052126,Torre del Barancio,2257.0
47.413883,12.496565,Namenloser,1985.0
46.655216,12.385024,Burgstall - Monte Castelliere,2168.0
46.852505,12.02899,Kor,2437.0
47.047855,12.21697,Ahrner Kopf - Cima del Vento,3051.0
47.261192,11.805712,Hüttenkogel,2386.0
47.2767,11.706708,Nonsberg,1928.0
47.24735,11.813965,Krösser,2243.0
46.821102,12.046446,Hochnall,2337.0
46.50339,12.024989,Croda Negra,2518.0
46.557335,12.090555,Ra Zestes,2420.0
46.88703,11.661625,Paulspitz,2645.0
47.18956,12.008469,Roller,1945.0
46.87383,12.018879,Schafkopf (Bramstaller),2559.0
46.577995,11.540712,Tisenser Bühlen - Rocce di Tisana,1229.0
47.09563,11.864127,Schliererspitze,2687.0
47.091255,11.882803,Zwieselegg,2300.0
46.585625,11.574125,Rendenbühl - Col di Rende,1296.0
46.60527,11.867366,Col Plö Alt,2315.0
47.330643,11.958112,Dristenkopf,2198.0
46.587433,11.606358,Hochsalames - Salames,1562.0
47.320267,11.776149,Metzenjoch,2313.0
47.202576,11.775014,Pangert,2550.0
46.580967,12.18603,Cresta Bianca,2932.0
46.568798,11.616895,Fortschelles - Furceles,1976.0
46.65529,12.431154,Monte Croce,1766.0
46.620502,12.339665,Monte Cengia,2559.0
47.16523,12.218744,Foißkarkopf,3029.0
47.169968,12.214039,Humbachkarkopf,2926.0
47.18482,12.2074375,Hütteltalkopf,2962.0
47.189423,12.224246,Hüttenkopf,2614.0
47.19228,12.234541,Oberhackenkopf,2406.0
47.177364,12.213678,Söllnkarkogel,2879.0
47.206688,12.225192,Hochwinkelkarkopf,2348.0
47.198273,12.219517,Hopffeldköpfe,2551.0
47.147446,12.249535,Krausenkarkopf,2757.0
47.154713,12.2221985,Schachenkarkopf,2984.0
47.165894,12.243254,Sonntagskarkopf,2571.0
47.157616,12.222261,Vorderkopf,3024.0
47.140427,12.221776,Weiglkarkopf,3009.0
47.212257,12.209925,Achkogel,2313.0
47.199047,12.19493,Breitlahner Gabel,2601.0
47.218494,12.217633,Elfer,2124.0
47.20893,12.207277,Federspitze,2264.0
47.20625,12.2686615,Krautgarten,2024.0
47.22352,12.224745,Rabenkopf,1967.0
47.188232,12.20166,Schönrainköpfe,2775.0
47.200863,12.273234,Silberofen,2022.0
47.203884,12.207972,Zwölfer,2404.0
47.196842,12.194825,Achselkopf,2666.0
47.292137,12.238068,Hüttenkopf,2180.0
47.27821,12.237382,Trattenbacheck,2063.0
46.521336,11.698734,Hochegge - Piza da Uridl,2102.0
46.558796,11.670502,Col da Mesdi,2008.0
46.518253,11.718531,Ciampantl de Sassplat - Plattkofeltürme - Torri del Sassopiatto,2688.0
46.51133,11.730223,Piza Innerkofler - Innerkoflerturm - Plan de Sass,3081.0
46.516563,11.728284,Piza de Dantersasc - Langkofelkarspitze - Punta Dantersasc,2820.0
46.527668,11.730866,Ciampanil Comici,2799.0
46.524178,11.73187,Ciampanil Wessely - Wesselyturm - Il Gran Campanile,3093.0
47.429623,12.079483,Lanerköpfl,1621.0
46.500916,11.68389,Palacia - Palatsch - La Palaccia,2351.0
47.305756,11.833587,Seebachkogel,1510.0
47.06062,12.36205,Zopetkopf,3087.0
47.398033,11.779018,Burgeck,734.0
46.84601,12.198951,Hoher Mann,2593.0
46.701153,11.752589,Kleiner Pfannspitz - Monte Fana Piccola,2434.0
47.094807,12.289251,Kleiner Maurerkeeskopf,3205.0
47.086746,12.278226,Mittlerer Maurerkeeskopf,3283.0
47.15795,12.483458,Tauernkogel,2988.0
46.71402,11.590902,Scheibenkofel - Punta del Lago Rodella,2252.0
46.88307,12.002234,Kahlgeifel - Punta Nuda,2734.0
46.8808,11.9951935,Blossberg,2619.0
46.86905,12.043938,Rote Nase - Naso Rosso,2624.0
46.86444,12.05939,Sattelleite,2538.0
46.870083,12.068306,Hochhorn - Corno Alto,2706.0
46.87862,11.808991,Reisnock - Monte Stipa,2663.0
46.834557,12.053082,Rammelstein - Montone,2483.0
46.71934,11.952686,Piz de Corda,1780.0
46.576412,11.763057,Pela de Vit,2493.0
46.53782,11.751017,Piza Pranseies,2254.0
46.580437,11.712936,Sëurasas,2176.0
46.58925,11.775827,Muntejela,2644.0
46.599224,11.783481,Kanzeln,2718.0
47.165874,12.291565,Goßkopf,2876.0
47.177296,12.283142,Großer Wartkopf,2640.0
47.146786,12.302247,Käferfeldeck,3070.0
47.15622,12.296149,Käferfeldspitze,2970.0
47.0107,11.955936,Kreuzkofel,2143.0
46.532055,11.750458,Piz Sella,2284.0
46.628654,11.803624,Sobutsch,2486.0
46.587715,12.286969,Torre Wundt,2517.0
46.575512,12.131986,Punta della Croce,2297.0
47.40961,11.733873,Schwarzegg,1283.0
47.098972,12.140074,Archbühelkopf,2712.0
47.167133,12.167533,Gamslahnerkopf,2466.0
47.110683,12.177146,Gamsspitz,2539.0
47.13221,12.165866,Graukarkopf,2663.0
47.15562,12.162015,Rainbachkopf,2669.0
47.106564,12.178057,Schlachtertauern,2750.0
47.098537,12.165499,Schneckenkarkopf,2526.0
47.09936,12.196997,Wagner,2537.0
47.127552,12.152866,Windbachkarkopf,2764.0
47.12085,12.14699,Windbachtalkogel,2843.0
47.208134,12.147499,Rauer Kopf,2055.0
47.181377,12.164122,Waldbergkarkopf,2374.0
46.914425,12.132505,Graues Nöckl - Dosso Grigio,3084.0
47.46805,11.658782,Juchtenkopf,1826.0
46.603127,11.7586975,Mittagsspitz - Sas de Mesdi,2762.0
46.601105,11.77512,Col dala Crëusc,2490.0
46.60531,11.8179035,Capuziner - Piz Somplunt,2732.0
46.595,11.839979,Muntejela,2666.0
46.57686,11.864923,Para da Giai,2503.0
46.58511,11.849798,Col de la Sonè,2633.0
47.41919,12.283394,Gaisbergjoch,1749.0
47.325546,11.791655,Onkeljoch,2066.0
47.14405,12.098112,Wildgerlosspitze,3280.0
47.17901,12.140765,Seekarspitze,2914.0
47.20135,12.13201,Steinkarkopf,2475.0
47.27326,12.186045,Laubkogel,2314.0
47.283463,12.192353,Toreck,2159.0
46.83076,12.128615,Schawisköpfl,2439.0
46.830666,12.137093,Amperspitze,2688.0
47.28711,12.177015,Trattenbachhöhe,2151.0
47.23224,11.591359,Wattenspitze,2321.0
47.02716,12.324661,Vorderer Finsterwitzkopf,2065.0
46.98746,11.91292,Rotberg - Monte Rosso,2003.0
47.014656,11.953115,Rislahnerturm,2230.0
46.98407,12.01633,Hochfeld - Campalto,2296.0
46.99828,12.029889,Schönbergspitz,2182.0
47.365257,12.006877,Saupanzen,1957.0
46.64139,11.736545,Villtatscher Berg - Monte Vallettaccia,1908.0
47.155617,12.173983,Greiflahnerkopf,2405.0
47.15318,12.172163,Rainbachegg,2530.0
47.184086,12.095387,Stierkopf,2501.0
47.183247,12.127362,Trisselkopf,2694.0
47.19365,12.13668,Seekarkopf,2608.0
47.196484,12.136079,Rosskopf,2606.0
47.13578,12.225323,Unlaßkarkopf,3074.0
47.128082,12.212046,Unlaßeck,2654.0
47.1059,12.231828,Leckerkopf,2477.0
47.217484,12.2979355,Leutachkopf,2293.0
47.179783,12.352269,Leiterer,2335.0
46.921032,12.059081,Gatternock,2888.0
46.927246,12.052129,Rastentalnock,2415.0
47.29806,12.103628,Molterfeldgeier,2422.0
46.83367,12.3696575,Glöckenkinkele,2675.0
46.84661,12.383309,Hochstein,2827.0
46.647205,11.516606,Hoadrichsberg - Monte di Greveccio,1723.0
46.64639,11.505054,Samberg - Monte Sommo,1833.0
46.673107,11.68901,Freienbühel - Colle Libero,1770.0
46.674736,11.9332,Gran Pizat,1940.0
46.521008,11.792511,Piz Gralba,2972.0
46.52776,11.800367,Piz Beguz,2974.0
46.534145,11.816511,Sas da Lech,2936.0
46.537743,11.832872,Torre Colfosco,2395.0
46.54239,11.824715,Tor Bornech - Torre Brunico,2495.0
46.515354,11.805309,Torre di Roces,2416.0
46.51441,11.7986355,Torre di Siela,2593.0
46.501713,11.823041,Punta de Joel,2945.0
46.972534,11.524312,Flatschspitz - Cima Vallaccia,2566.0
46.99922,11.623422,Zinnen,2567.0
47.005848,11.612105,Wasserfallköpfe,2575.0
47.00589,11.630458,Grawand,2987.0
46.97623,11.71049,Hinterer Weißspitz,3396.0
46.971355,11.67973,Gamsstetten - Crode dei Camosci,2713.0
46.96891,11.6833315,Blauer Kofel - Cima di Sottomonte,2867.0
46.970043,11.693785,Filtuidenkopf,3025.0
46.97284,11.699768,Vorderer Weißspitz - Cima di Sopramonte,3269.0
46.962578,11.654716,Pletzenspitz,2769.0
46.95999,11.636356,Vorderer Langspitz,2562.0
46.955555,11.636272,Hinterer Langspitz,2640.0
46.963047,11.624723,Hochegg,2229.0
46.943882,11.577339,Torwand - Croda della Porta,2639.0
46.926434,11.564655,Großbergspitz - Monte Grande,2701.0
46.924316,11.573659,Burgumspitz - Monte di Bargone,2581.0
46.927685,11.539306,Rauhnock,2031.0
46.923607,11.5419445,Leitnerwand - Croda delle Coste,2361.0
46.916492,11.546285,Ubersail - Cima del Cavo,2435.0
46.909,11.55703,Ochsenkopf - Cima Alpe di Bove,2644.0
46.908257,11.561387,Finsterstern,2695.0
46.90747,11.571666,Kramerspitz - Cima del Lago,2943.0
46.896263,11.540567,Pretzkopf,2240.0
46.89764,11.538651,Sengesspitz - Cima di Senges,2368.0
46.904507,11.554985,Elferkopf,2427.0
46.87833,11.524629,Jagerspitzl - Cima dei Cacciatori,2035.0
46.88784,11.5075,Zwölfernöckl - Cima delle Dodici,2048.0
46.93357,11.5013685,Bairnock - Punta del Dosso,2505.0
46.938484,11.502375,Weißspitze - Punta Bianca,2714.0
46.974804,11.518248,Unterer Flatschpitz,2466.0
46.885635,11.574532,Sattelkopf - Cima Sella,2647.0
46.88452,11.560055,Mahderkopf,2477.0
46.883553,11.557148,Weiße Geiß - Punta di Caprabianca,2390.0
46.879898,11.553602,Domenarspitz,2299.0
46.854748,11.57541,Hühnerspiel,1993.0
46.715008,11.840001,Col dal Lé,2180.0
46.912407,11.5932455,Wilde Kreuzspitze Südgipfel - Picco della Croce Cima Sud,3126.0
46.90458,11.636037,Stilonspitz,2759.0
46.940166,11.739947,Napfspitz - Cima Cadini,2888.0
46.924026,11.740445,Rote Riffl - Scoglio Rosso,2874.0
46.897373,11.766371,Flemberg - Monte Flemm,2696.0
46.863907,11.600897,Peachenspitz,2449.0
46.88577,11.795549,Bischofskappe,2589.0
46.860313,11.763117,Altberg,2385.0
46.862267,11.835949,Knarling,2316.0
46.54701,11.908956,Piz Bioch,2079.0
46.702366,12.288774,Haunoldköpfl Westgipfel - Piccola Rocca dei Baranci Cima Ovest,2158.0
47.16113,11.608629,Kuchlböden,2278.0
46.51686,12.430871,Col Vidal,1880.0
46.518417,12.410709,Col dei Buoi,1804.0
46.534008,12.428112,Colle di Villagrande,1673.0
46.53153,12.428555,Croda di Paterna,1668.0
46.50084,12.438071,Col de l Santo,1482.0
46.505512,12.430896,Somaquoilo,1689.0
46.50474,12.41469,Coi de Soramizoi,1903.0
46.505474,12.417126,Coi de Soramizoi,1901.0
46.51442,12.435273,Croda de Zopel,1733.0
46.512306,12.41869,Col de le Foie,1781.0
46.51809,12.416477,Colle di Fontanabona,1745.0
46.515327,12.389137,Monte Ciarìdo - Cima Nord Est,2450.0
46.516193,12.390122,Torre Artù,2370.0
46.516865,12.390265,Torre Pian dei Buoi,2356.0
46.51844,12.391034,Torre San Lorenzo,2284.0
46.531628,12.43963,Col Negro,1597.0
46.527866,12.45445,Croda Bassa,1419.0
46.530476,12.449,Croda Alta,1557.0
46.53294,12.447495,Col di Villapiccola,1549.0
46.54697,12.405325,Monte Agudo,1592.0
46.534325,12.407105,Col Burgion,1768.0
46.53977,12.399664,Croda di Grazioso,1677.0
46.626865,12.262185,Scoglio di San Marco,2005.0
46.61564,12.280062,Monte di Dentro,2250.0
46.610504,12.282114,Monte di Fuori,2221.0
46.591526,12.275328,Col dei Tocci,2090.0
46.602325,12.258663,Col de le Saline,1955.0
47.4662,11.61297,Montscheinspitze,2106.0
46.597416,12.289731,Cima Cadin di Rinbianco,2402.0
46.603333,12.29037,Col de le Bisse,2280.0
47.312763,12.413059,Rankenkopf,1496.0
46.900608,12.088954,Fernerköpfl,3249.0
46.899773,12.092746,Frauenköpfl,3251.0
46.600594,11.774978,Piza da la Creusc,2480.0
46.57676,11.759957,Juacturm,2350.0
46.566517,11.772157,Piz dai Schic,1750.0
46.59662,11.779382,Pitla Cansla,2400.0
46.708115,11.831455,Ju da Val,2177.0
47.46439,11.794471,Saukamp,1932.0
47.461655,11.79728,Rofanturm,2150.0
47.463264,11.786921,Seileggspitze,1981.0
47.462376,11.774483,Gamswandspitze (Ampmooser Rosskopf),1937.0
46.749737,12.259461,Scheibenegg,1957.0
46.860153,12.17019,Höllsteinspitz - Pietraforata,2764.0
46.857307,12.269169,Spielbühel,2272.0
46.60043,11.796573,Piz Duleda,2909.0
47.485996,11.548926,Laurisjoch,1826.0
46.90783,12.194698,Almerhorn,2985.0
47.36643,11.803038,Reiterkopf,1700.0
47.36256,11.798582,Durrajoch,1738.0
46.562485,12.025076,Monte Ciaval,2911.0
47.32065,11.746988,Arbeserkogel,2020.0
47.466934,12.432749,Hornköpfl,1773.0
46.521034,12.473876,Col Contras,1011.0
46.50807,12.4866,Col de Poeca,1407.0
46.5079,12.491711,Col Pramossei,1529.0
46.99774,12.352382,Muhsköpfl,2502.0
46.89337,12.047145,Großer Fensterlekofel,3171.0
46.89259,12.042454,Großer Rauchkofel,3143.0
46.89325,12.054195,Wasserkopf - Cima dell'Acqua,3135.0
46.59953,12.226539,Croda de le Bance,2305.0
47.213634,12.222384,Glatz,2014.0
47.134468,12.324488,Bachmayrspitze,3120.0
47.134098,12.331538,Schwarzes Hörndl,3100.0
46.88786,12.057612,Morgenkofel - Cima Mattina,3073.0
46.909546,12.031051,Achternock,2667.0
47.331326,12.299174,Rettenstein Pinzgauer Gipfel,2357.0
46.577034,12.329315,Col di Vezza,2158.0
46.569565,12.313393,Castellato di Setta,2159.0
46.557762,12.294728,Croda de Ciampoduro,2244.0
46.55939,12.302163,Pale di Menotto,2248.0
46.790684,12.12715,Salzla - Monte di Tesido,2131.0
46.639286,12.186049,Knollkopf - Col Rotondo dei Canopi,2172.0
46.61103,12.144345,Suóghe,2053.0
46.589584,12.422255,Castellato de Ambata,2006.0
46.580414,12.434528,Croda Grigna,2305.0
46.583088,12.444655,Cima Alberta,2424.0
46.581593,12.455932,Col di Val Pucera,1939.0
46.581135,12.46738,Monte Zovo,1711.0
46.589455,12.434423,Croda da Campo,2712.0
46.60911,12.423381,Punta Anna,2707.0
46.606747,12.445514,Rocca da Campo,2155.0
46.592304,12.44949,Corno Ciapelei,2062.0
46.5925,12.4402895,Torrione Canal,2490.0
46.59917,12.431797,Croda di Tacco,2612.0
46.60349,12.433256,Cima di Padola,2623.0
46.614067,12.435664,Rocca dei Bagni,2171.0
46.620754,12.408652,Campanile di Selvapiana,2741.0
46.600174,12.412482,Croda de Ligonto,2786.0
46.59952,12.411375,Monte Rosa,2786.0
46.596027,12.409938,Punta Lina,2612.0
46.608856,12.429872,Cima San Leonardo,2468.0
46.615337,12.410222,Cima Bagni,2983.0
46.605957,12.417924,Cima d'Ambata,2872.0
46.52088,12.249842,Croda del Banco,2150.0
46.508255,12.233516,Punte Tre Sorelle,3005.0
46.5106,12.212205,Zurlon,3053.0
46.506233,12.217978,Monte della Caccia Grande,3002.0
46.530693,12.2131195,Cime del Laudo,2670.0
46.52665,12.208053,La Cesta,2768.0
46.515545,12.218451,Dito di Dio,2603.0
46.513935,12.219221,Gusela del Rifugio,2547.0
46.611782,12.321282,Quota 2386,2385.0
46.51073,12.377108,Campanile Ciastelin,2602.0
46.519897,12.238346,Col del Fuoco,2567.0
47.175632,12.460717,Geieringhöhe,2747.0
47.18154,12.479668,Geißstein,1612.0
46.522526,11.836084,Sas dels Nü,2904.0
46.52486,11.8392935,Sas dles Diesc,2916.0
46.51719,11.837329,Cime del Vallon,2901.0
46.525455,11.823584,Sas de Mesdi,2970.0
46.52707,11.826843,Bech de Mesdi,2962.0
47.453518,12.025991,Kragenjoch,1387.0
47.21435,11.584562,Gipfelkreuz Haneburger,2580.0
47.130424,11.635179,Kristallner,2655.0
46.539326,12.017472,Lagazuòi Nord,2804.0
46.55389,11.983656,Sas Dlacia,2216.0
46.620853,11.973806,Ciastel de Fanes,2657.0
46.519455,11.957268,Setsas,2571.0
46.50091,11.954348,Sief,2424.0
46.63049,12.004191,Piz de Sant Antone,2655.0
46.56504,12.1525955,Sas del Rana,1825.0
46.617752,12.300056,Torre di Forcella della Grande,2673.0
46.618065,12.295358,Torre Comici,2798.0
46.620766,12.308385,Cima Piccolissima - Preußturm,2699.0
46.616394,12.298041,Il Mulo,2715.0
46.617783,12.295464,Croda Longeres,2827.0
46.61769,12.297068,Croda degli Alpini,2865.0
46.61709,12.294602,Croda di Mezzo,2732.0
46.61559,12.297177,Croda del Rifugio,2671.0
46.618935,12.306813,Anticima Sud,2819.0
47.34011,11.541169,Tratenspitze,2510.0
47.34106,11.541262,Bockkarlturm,2502.0
47.02203,11.528177,Padauner Berg,2228.0
46.556786,11.793141,Ciampanil de Cuecenes,2366.0
46.54017,11.780883,Piz Culac,2086.0
46.533836,11.794479,Grant Ciampanil de Murfreit,2714.0
46.53354,11.796381,Pitl Ciampanil de Murfreit,2710.0
46.549175,11.794114,Bustac,2252.0
46.52666,11.728634,Scialam,2836.0
46.54276,11.813228,Sas dla Luesa,2615.0
46.53955,11.825906,Exner,2496.0
46.557125,11.790294,II Piza Cuecena,2242.0
47.14732,12.128845,Mannlkarkopf,2870.0
47.114708,12.13854,Warze,2802.0
47.0176,12.164258,Löffelspitze,3190.0
46.797695,11.88019,Lothener Köpfl,1118.0
47.361237,11.522722,Hochkranztürme,2106.0
46.55665,12.36798,Monte Rusiana,1826.0
46.581753,12.24121,Campanile Misurina,2132.0
46.581684,12.241245,Guglia Edmondo De Amicis,2147.0
46.797215,12.16769,Hühnerspiel,2348.0
47.47432,12.092275,Möslalmkogel,1109.0
47.229733,11.811398,Mitterwandskopf,2280.0
46.542614,12.498901,Monte Piedo,1681.0
46.638138,12.345328,Östliche Oberbachernspitzen - Croda Fiscalina Est,2677.0
46.720135,12.442955,Eggwiesen,2025.0
46.6818,12.2699,Birkenschartlturm - Prima Torre dei Baranci,2641.0
47.12361,11.835401,Tristnereck,2328.0
46.648827,11.784884,Welscher Ring - Anèl Ladin,2607.0
46.57594,11.819548,Col Turond,2419.0
46.562893,11.607871,Gollerspitz,2099.0
47.49281,11.837398,Labegg-Kreuz,1595.0
46.629623,12.329002,Crode dei Piani,2668.0
47.131157,12.170319,Gamsbichlkopf,2645.0
47.11224,12.228544,Schlierfköpfe,2765.0
47.087532,12.2177105,Der Hohe,2723.0
47.188625,12.382912,Weißhorn,2828.0
47.19535,12.37722,Langerkopf,2752.0
47.213535,12.365102,Nasenhocheck,2383.0
47.210552,12.366367,Schneegrubenkopf,2389.0
47.203438,12.358683,Nasen,1997.0
47.206284,12.368235,Nasenkopf,2462.0
47.208042,11.517531,Vorderer Schönbichl,2397.0
47.19352,11.511729,Hinterer Schönbichl,2331.0
47.345036,11.5307,Fallbachkartürme,2535.0
47.34547,11.529328,Fallbachkartürme,2545.0
47.32572,11.502017,Eibenkopf,1275.0
46.843983,12.138835,Ochsenfelderspitze - Campobove,2612.0
46.847897,12.13205,Knebelstein - Monte Sbarra,2484.0
46.546146,12.070073,Torre Aglio,2980.0
46.57803,12.233804,Pala Nord Est,2300.0
46.5909,12.226743,Punta Mosca,2699.0
46.589813,12.223888,Punta Elfie,2734.0
46.52236,11.971451,Monte Castello,2371.0
46.548042,12.021297,Torre Travenanzes,2900.0
46.549038,12.024895,Torre Fanis,2922.0
46.570618,12.018926,Piza de Campestrin Sud - Cima Campestrin Sud,2910.0
46.57564,12.018362,Piza de Campestrin Nord - Cima Campestrin Nord,2834.0
46.897945,12.096473,Magerstein,3273.0
47.00364,12.120633,Mutti,2980.0
46.569344,11.801037,Ciastel de Chedul,2426.0
46.673252,12.181325,Glanvellturm - Punta Glanvell,2737.0
47.345577,11.755371,Mehrerkopf,1666.0
47.354904,11.773277,Blutskopf,1301.0
46.66512,11.945269,Crusc da Rit,2021.0
46.63092,11.915675,Col d'Arcogn,1878.0
46.771862,12.289787,Schlichten,2430.0
47.36395,11.635149,Oberer Bärenkopf,2085.0
46.500572,11.812463,Sass de Forcia Occidentale,2923.0
46.500202,11.817348,Sass de Forcia di Mezzo,2917.0
46.501453,11.821716,Sass de Forcia Orientale,2880.0
46.92154,11.581599,Hoacher Facknzond,2777.0
46.92181,11.885212,Seewassernock,2433.0
46.840466,12.306439,Rotlahner,2743.0
46.95119,11.650704,Hochsäge,2778.0
47.212185,11.654138,Lanner Kreuz,2412.0
47.104607,11.552522,Schafseitenspitze Vorgipfel,2573.0
47.03207,11.549309,Sillkogel,2070.0
46.723206,11.618915,Masitter Jöchl,1544.0
46.99019,11.80975,Turnerkamp - Cima di Campo,3416.0
46.804604,12.290023,Fisell,2447.0
46.884346,12.273762,Plankfeldspitz,2662.0
47.092148,12.185969,Westlicher Zwillingskopf - Testa Gemella Occidentale,2837.0
47.088703,12.178225,Pfaffenschneidkopf - Cima del Prete,2918.0
47.086933,12.169878,Großer Tauernkopf,2872.0
47.083458,12.165016,Kleiner Tauernkopf,2727.0
47.01682,11.892993,Tribbachkopf,3111.0
47.003277,11.855234,Schwarzenbachköpfl,3106.0
46.98874,11.780532,Möselekopf,3389.0
46.972748,11.76434,Muttenock - Monte Muta,3076.0
46.972813,11.758039,Breitnock - Dosso Largo,3212.0
47.003357,11.634781,Grawandkofel,2835.0
47.006653,11.603128,Kluppen - Cluppe,2940.0
46.880177,12.231231,Ausserrodelkunke,2690.0
46.923965,12.157684,Patscher Schneid,3082.0
46.953175,12.147771,Großer Rotstein,3147.0
46.956482,12.138144,Kleiner Rotstein,3048.0
47.025467,12.18009,Kemater Spitz,3005.0
47.04162,12.21243,Virgenkopf,3035.0
47.03285,12.209529,Untere Rötspitze,3290.0
47.44853,11.782167,Clesida,2080.0
46.569427,12.153035,Punta Erbing,2301.0
46.575523,12.138654,Croda de Longes,2443.0
46.570927,12.145895,Costa del Bartoldo,2435.0
46.570007,12.150707,Croda dei Zestelis,2432.0
46.650948,12.323345,Innichriedlknoten - Crodon di San Candido,2875.0
46.86275,11.89693,Östliche Bruggerspitze,2428.0
46.70595,12.054215,Spitzkofel,2280.0
46.645557,12.265495,Mittlerer Rautkofel - Monte Rudo di Mezzo,2775.0
46.646225,12.260791,Westlicher Rautkofel - Monte Rudo Ovest,2779.0
46.645176,12.2568245,Östlicher Rautkopf - Teston Est di Monte Rudo,2601.0
46.53969,12.491314,Col Piccolo,1541.0
47.172867,12.448405,Geiering,2516.0
47.438457,11.813412,Kammerkirchkopf,1610.0
46.501343,12.0322075,Punta Dallago,2470.0
46.500446,12.026382,Torre Esperia,2410.0
46.575012,12.288406,I Gemelli,2742.0
46.57644,12.292575,Cima Cadin del Deserto,2467.0
46.575294,12.286298,Campanile Eotvos,2750.0
46.576134,12.283428,Campanile Verzi,2660.0
46.574303,12.287811,Punta Cadin dele Pere,2550.0
46.58171,12.280405,Cima Punta Ellie,2650.0
46.582306,12.281422,Paracarro,2350.0
46.589947,12.285515,Castelletto dei Tocci,2456.0
46.59072,12.283959,Cadin dei Tocci SE,2489.0
46.591324,12.282962,Cadin dei Tocci Nord Ovest,2487.0
46.586414,12.287634,Cadin del Rifugio,2436.0
46.583214,12.278718,Cima dei Camosci,2540.0
46.584488,12.277991,Cima d'Antorno,2400.0
46.58531,12.276535,Punta degli Spiriti,2333.0
46.580666,12.280939,Il Gobbo,2580.0
46.58045,12.28368,Punta Anna,2711.0
46.583054,12.28514,Castello Incantato,2602.0
46.583626,12.285746,Torrione Alvise,2580.0
46.581253,12.285515,Pianoro dei Tocci,2675.0
46.580063,12.281049,Torre Leo,2560.0
46.58429,12.291159,Torre de Donato,2520.0
46.58388,12.292258,Torre della Forcella,2480.0
46.566883,11.975097,Piz Armentarola,2595.0
46.567837,11.977733,Parei dl'Cir - I° Pilastro,2407.0
46.5665,11.984996,Van da Bisces - II° Pilastro,2460.0
46.566654,11.9884815,Banc dla Stlu - IV° Pilastro,2362.0
46.512997,11.779025,4. Ciampanil dl Sela - 4. Sellaturm - IV° Torre del Sella,2612.0
46.518707,11.786455,Fiechtl-Turm - Torre Fiechtl,2684.0
46.558575,11.807916,Punta Clark,2537.0
46.572815,12.273708,Punta Col de Varda,2504.0
46.576805,12.273767,Torre Misurina,2345.0
46.577446,12.274496,Pilastro Misurina,2525.0
46.578743,12.27418,Punta Claudio,2450.0
46.579315,12.272775,Coston di Sant Angelo,2430.0
46.585495,12.27404,Ultimo Spirito,2214.0
46.569767,12.283058,Maraia Cima Bassa,2540.0
46.57068,12.282006,Maraia Cima di Mezzo,2600.0
46.571865,12.280555,Maraia Cima Alta,2660.0
46.57439,12.28036,Campanile Antonio Giovanni,2697.0
46.573612,12.280274,Cima Antonio Giovanni,2714.0
46.573658,12.276932,Campanile di Pogoffa,2641.0
46.575207,12.277533,Castello degli Angeli,2571.0
46.585796,12.301458,Torre Viola,2460.0
46.57587,12.292443,Torre Caldart,2452.0
46.75481,11.578795,Rothleite,2153.0
46.627342,12.389745,Hochbrunnerschneid - Monte Popera,3046.0
47.166344,12.319091,Saukopf,1971.0
46.85616,12.200418,Regelspitze - Monte Regola,2747.0
46.99251,11.677164,Kleine Rotbachlspitze,2588.0
47.136982,11.772641,Lachtalspitzl,2260.0
47.15081,11.822907,Glocke,929.0
47.111862,11.634121,Napfenspitz,2493.0
47.16204,12.445789,Bichlach,2038.0
46.63313,11.80755,Bronsoi,2399.0
47.13172,12.237697,Jaidbachspitze,3100.0
47.450706,11.646247,Rauhenkopf,1529.0
46.611298,11.561023,Wasserbühel - Col dell'acqua,1104.0
46.57578,12.496698,Col Caradies,1528.0
47.08294,11.647003,Ramsköpfe,2501.0
46.510235,11.725897,L Dënt - Zahnkofel - Il Dente,3000.0
46.7386,11.828585,Jakobskopf - Colle di San Giacomo,2115.0
46.65343,11.6422,Nock,1365.0
46.6539,11.633133,Haube - Monte Cappello,1250.0
46.657413,11.651363,Ottohöhe - Montegrazie,1460.0
46.65144,11.675288,Wolfsgrube,1535.0
47.059025,12.180695,Achselkopf,2545.0
47.058914,12.207681,Gamstod (Hohe Warte),3127.0
47.059196,12.211255,Westlicher Rosshuf,3143.0
47.059402,12.214162,Mittlerer Rosshuf,3173.0
46.57786,11.761604,Torre Firenze,2493.0
47.005493,11.745857,Totenkopf,2573.0
46.959156,12.400066,Merschenhöhe,2533.0
46.684605,12.201394,Kasamutz - Monte Casamuzza,2333.0
46.64828,12.380694,Prater,2745.0
46.65037,12.377403,Wurzbach,2675.0
46.643673,12.367952,Elferschartenspitze - Cima di Forcella Undici,2650.0
46.634953,12.352559,Kanzel - Il Pulpito Alto,2531.0
46.91346,11.593733,Wilde Kreuzspitze - Picco della Croce,3135.0
46.71895,11.734393,Plosebühel - Col della Plose,2275.0
46.708817,11.752371,Mitterberg - Monte di Mezzo,2151.0
46.708904,11.766619,Karberg - Monte Quaira,2269.0
46.676384,12.006711,Muntejela de Ciastlins,2673.0
46.64549,12.256083,Westlicher Rautkopf - Teston Ovest di Monte Rudo,2607.0
46.60067,12.070312,Taè,2511.0
46.60402,12.081614,Taburlo,2261.0
46.5129,11.829303,Cresta Strenta,3125.0
46.685654,12.009561,Munt de Gropes,2485.0
46.68869,12.036892,Seitenbachspitz,2504.0
46.506733,12.088762,Coltondo,1716.0
