latitude,longitude,name,elevation
27.098413,100.176704,扇子陡,5596.0
27.321896,100.10599,哈巴雪山,5396.0
26.88244,99.60878,金丝厂,4513.0
26.89543,100.23595,象山,2708.0
26.892221,100.243454,鸡鸿山,2660.0
26.79923,100.16705,文笔山,3470.0
27.370018,100.08278,Jianshan,4030.0
26.826784,99.812256,白岩寺,3200.0
