latitude,longitude,name,elevation
63.654667,-153.91081,Attonock Mount,987.0
63.72934,-154.42126,Lone Indian Mountain,823.0
63.717564,-153.8531,Stone Mountain,836.0
63.540405,-154.33403,Von Frank Mountain,1370.0
63.599052,-153.52203,Little Hog Butte,288.0
