latitude,longitude,name,elevation
-35.842987,137.7451,Prospect Hill,65.0
-35.61384,138.32848,Arthur Hill,276.0
-35.57896,137.5814,Mount Marsden,185.0
-35.65325,138.19525,Tent Hill,245.0
-35.5228,138.32741,Mount Hayfield,354.0
