latitude,longitude,name,elevation
-6.557423,106.47339,Gunung Gede,1003.0
-6.5770483,106.45627,Gunung Limbung,781.0
-6.71083,106.45164,Gunung Halimun,1929.0
-6.5421395,106.41401,Bukit Panggo,311.0
-6.5590706,106.41313,Bukit Jaya,444.0
-6.573412,106.49189,Bukit Aseupan,540.0
