latitude,longitude,name,elevation
-27.68483,135.59319,Barton Hill,193.0
-28.0874,136.34364,Canegrass Ridge,53.0
-28.33907,136.23235,Mount Charles,73.0
-28.14551,135.94966,Mount Denison,239.0
-27.53824,135.80534,Mount Guy,256.0
-27.99281,135.87291,Mount Kingston North,206.0
-28.02826,135.88399,Mount Kingston,187.0
-28.485,136.07497,Mount Margaret,412.0
-27.74853,136.21797,Mount Perrypollkot,199.0
-28.14958,136.38017,Primrose Hill,62.0
-28.4129,136.15312,Spring Hill,125.0
