latitude,longitude,name,elevation
54.063076,24.377123,Šaudzyklos kalnas,124.0
53.821922,24.03157,Школьная,83.0
53.794548,24.01761,Чортава гара Парэцкая,148.0
53.806618,23.958767,Высокая,152.0
54.08712,24.00797,Krivo kalnas,133.0
53.87206,24.24171,Бліндажная,130.9
53.713562,24.055916,Лісіная гара,157.0
