latitude,longitude,name,elevation
44.173965,7.6845226,Pointe Marguareis / Cima Marguareis,2651.0
44.31881,8.339611,Monte Burot,745.0
43.80101,7.5206337,Monte Carpano,772.0
43.81461,7.51159,Roc de l'Orméa,1132.0
44.03976,7.6948047,Mont de Colle Ardente / Monte Collardente,1777.0
44.055176,7.7566905,Monte Frontè,2151.0
44.052723,7.7414784,Monte Cimanasso,2085.0
44.058952,7.7327886,Cima Valletta della Punta,2092.0
44.02931,7.7393456,Monte Pellegrino,1521.0
44.02407,7.7435064,Monte Grimperto,1369.0
44.001987,7.7520304,Monte Trono,1182.0
43.90826,7.875447,Monte Faudo,1149.0
43.941467,7.7611427,Anticima del Monte Ceppo,1620.0
43.998425,7.6705184,Mont Grai / Monte Grai,2013.0
43.98658,7.659555,Mont Peïrevieille / Monte Pietravecchia,2039.0
43.975933,7.6531277,Mont Torrage / Monte Toraggio,1972.0
44.011612,7.6867456,Monte Gerbonte,1728.0
43.852085,7.708241,Monte Caggio,1090.0
44.386066,8.369393,Rocca dell'Adelasia,698.0
44.061783,7.7119803,Mont Saccarel,2200.0
43.98653,7.684279,Monte Corma,1597.0
44.00606,7.663006,Mont Cériane,2027.0
44.01563,7.726796,Monte Croce Castagna,1343.0
44.025047,7.73113,Monte Croce dei Campi,1425.0
44.036674,7.8003893,Monte Monega,1887.0
43.90047,7.780881,Cima Furchè,1033.0
43.894604,7.7936788,Monte Merlo,1014.0
43.89053,7.8232546,Monte Neveia,835.0
43.90557,7.7685647,Fascia d'Ubaga,1038.0
43.88277,7.874479,Monte Sette Fontane,781.0
43.90087,7.880577,Monte Follia,1031.0
43.927776,7.8754234,Monte Arbozzaro,1129.0
43.934082,7.8679385,Monte Crocetta,1050.0
44.00616,7.8110986,Carmo di Brocchi,1610.0
44.019085,7.8086605,Cima di Donzella,1636.0
44.023716,7.8040023,Monte Bussana,1701.0
43.986237,7.852563,Monte Carpasina,1415.0
43.98664,7.8610606,Monte Grande,1418.0
43.942917,7.8813267,Monte Moro,1184.0
43.959393,7.8824043,Monte le Ciazze,1088.0
43.97006,7.875857,Monte Albaspino,1099.0
43.99048,7.8382044,Monte Fenaira,1459.0
43.812366,7.6942167,Monte Nero,606.3
43.845043,7.6869755,Monte Peiga,782.0
43.825443,7.7076545,Testa di Benzi,721.0
43.83215,7.707289,Cima Ferrissoni,760.0
43.897102,7.6999717,Monte Acuto,769.0
43.922924,7.6622753,Monte Vetta,734.0
43.925106,7.689574,Monte Roverbella,864.0
43.92809,7.710776,Monte Mera,1063.0
43.926952,7.7248173,Monte Garbinee,1065.0
43.94664,7.7330823,Carmo Marise,1092.0
43.929092,7.741768,Monte Cavanelle,1447.0
43.935688,7.751338,Monte Oliveto,1510.0
43.960667,7.750338,Carmo San Vincenzo,1274.0
43.945835,7.7566905,Carmo delle Verme,1502.0
43.971863,7.7754536,Carmo Albarozza,979.0
43.96941,7.756349,Carmo del Pulo,986.0
43.9573,7.7880177,Carmo del Faé,1033.0
43.96353,7.79633,Monte Gavano,949.0
43.797707,7.5435934,Monte Bellenda,540.0
43.81062,7.539232,Cima dei Sogli,608.0
43.8681,7.531961,Monte Caviglia,549.0
43.88834,7.58165,Monte Abellio,1016.0
43.89696,7.620303,Monte Morgi,817.0
43.93422,7.568616,Tête d'Alpe,1587.0
43.93227,7.595077,Monte Cerciai,1256.0
43.937027,7.6034074,Monte Gouta,1315.0
43.94199,7.6111193,Monte Giardino,1286.0
43.952557,7.5840645,Monte Simonasso / Mont Cimonasso,1432.0
43.959858,7.5874023,Roche Campane,1471.0
43.959217,7.601159,Mont Battolino,1341.0
43.956333,7.607734,Monte Scarassan,1265.0
43.963787,7.6278243,Monte Lega / Mont Léga,1556.0
43.968834,7.6339083,Mont Baus / Monte Bauso,1551.0
43.952015,7.6692667,Monte Provenzale,1005.0
43.95704,7.7100434,Cima Manaira,1032.0
43.982265,7.703899,Carmo delle Strade,1402.0
43.97344,7.7126403,Carmo Binelli,1329.0
43.97006,7.7286634,Carmo Langan,1204.0
43.993877,7.662784,Cime de la Valette,1971.0
44.01825,7.6564465,Cime de Marta,2137.0
44.03021,7.663912,Testa della Nava / Tête de la Nava,1935.0
44.022285,7.7034693,Rocca Castellaccio,1275.0
44.007275,7.7480183,Cima del Corvo,1185.0
44.3349,8.442402,Monte Giardina,427.0
44.24321,8.420074,Monte Mao,440.0
44.204735,8.267598,Monte Collarina,602.0
44.0153,7.7465363,Monte Gorda,1268.0
44.025364,7.774625,Rocca Mea,1307.0
44.030987,7.7737117,Cima Bareghi,1390.0
44.027824,7.734326,Rocca Penna,1471.0
44.136806,7.939573,Monte Armetta,1739.0
44.01365,7.7727585,Testa di Carvo,1032.0
44.00452,7.7754703,Poggio della Croce,894.0
44.041553,7.7600245,Rocca Goina,1425.0
43.98619,7.705085,Colle Belenda,1382.0
43.992783,7.704106,Carmo Gerbontina,1582.0
43.94038,7.844298,Monte Colletto,738.0
44.154858,8.199543,Monte Ravinet,1061.0
44.144524,8.226914,Monte Marmi,303.0
44.15485,8.217505,Bric Cassinea,607.0
44.15343,8.248372,Monte Ciazze Secche,428.0
44.165348,8.23457,Poggio San Martino,455.0
44.1865,8.209847,Bric Aguzzo,1087.0
44.176212,8.178078,Bric Pagliarina,1213.0
44.193398,8.159833,Bric Cornavento,1055.0
44.21112,8.171657,Monte Grosso,1269.0
44.21433,8.153585,Campo dei Ziri,1260.0
44.199425,8.176344,Bric Agnellino,1335.0
44.209923,8.210856,Bric Il Pizzo,550.0
44.192795,8.216607,Bric Tampa,833.0
44.22437,8.2270355,Bric Gettina,1025.0
44.223515,8.1846,Bric Merizzo,1275.0
44.219757,8.171031,Bric Bedò,1247.0
44.19629,8.3495035,Bric Reseghe,317.0
44.347027,8.422851,Bric Bugna,325.0
44.34684,8.412036,Bric Fraciosa,211.0
44.340538,8.411488,Bric Tremo,425.0
44.34532,8.424653,Monte Bricazzo,343.0
44.33302,8.436168,Monte Fodelera,406.0
44.358265,8.382695,Monte Porcheria,484.0
44.341286,8.437652,Monte San Michele,318.0
44.33355,8.417812,Monte Tremo,375.0
44.34555,8.388538,Montegrosso,350.0
44.336666,8.381712,Il Magnone,381.0
44.344265,8.38174,Monte Agri,401.0
44.35159,8.4065,Bric Rolanda,335.0
44.35851,8.4019,Monte Ormè,492.0
44.341057,8.38275,Il Pilone,391.0
44.35293,8.39767,Monte Malpasso,357.0
44.358536,8.370659,Bric Pian del Merlo,470.0
44.34257,8.38657,Bric Garbasso,392.0
44.35559,8.3701,Bric Caprina,432.0
44.33021,8.418295,Bric Sopra le Vigne,352.0
44.165546,7.813776,Cima delle Roccate,2476.0
44.165157,7.802788,Anticima del Bric Conoia,2480.0
44.168835,7.798627,Monte Rotondo,2495.0
44.163322,7.8050556,Bric Conoia,2524.0
44.185898,7.7782917,Cima della Brignola,2472.0
44.35565,8.43192,Bric la Gamba,458.0
44.34999,8.46344,Bric Parvin,400.0
44.359386,8.443494,Monte Castellazzo,572.0
44.36091,8.43164,Bric Colletta,565.0
44.355392,8.455542,Bric del Crovaro,437.0
44.357292,8.454897,Monte Crovaro,452.0
44.352306,8.460876,Bric Schivà,425.0
43.956768,7.9447746,Monte dei Prati,784.0
43.94981,7.955929,Pizzo Binelli,737.0
43.954655,7.913265,Monte Scuassi,889.0
44.00461,7.909584,Monte Guardiabella,1218.0
44.00414,7.8807554,Monte Aurigo,1122.0
44.00636,7.88981,Monte delle Valasse,1206.0
44.036102,7.866967,Monte Ciazza del Bausso,1228.0
44.03483,7.8458786,Monte Prearba,1446.0
44.02448,7.851246,i Colletti,1165.0
44.214825,8.382235,Bric dei Monti,410.0
44.07354,7.9432883,Punta Alto,1082.0
44.066025,7.9373,Monte Frascinello,1120.0
44.05826,7.934141,Poggio di Lovegno,926.0
44.001938,8.00051,Monte Arosio,812.0
44.019882,7.977253,Monte Mucchio di pietre,770.0
44.040493,7.986127,Monte Sprandega,791.0
43.983032,8.074749,Monte Aguzzo,757.0
43.97096,8.019904,Monte Caro,842.0
43.97938,8.017125,Monte Torre,989.0
43.981094,8.041678,Monte Ceresa,913.0
43.98418,8.058558,Monte Mezzogiorno,767.0
43.959763,8.021909,Monte Grimaldi,674.0
44.009895,8.045541,Monte Rovona,561.0
44.039158,8.011671,Monte Riondo,776.0
43.970043,8.053914,Monte Lago,746.0
44.23678,7.954397,Bric Mindino,1879.0
44.16587,7.829674,Pizzo d'Ormea,2476.0
44.17603,7.733903,Cima delle Saline,2612.0
44.16585,7.7618527,Cima delle Colme Ovest,2407.0
44.17413,7.785276,Monte Mongioie,2630.0
44.320194,8.447058,Monte Curlo,383.0
44.23251,7.8768625,Cima del Nascio,1620.0
44.260174,7.877426,Monte Alpet,1611.0
44.10605,8.231015,Monte Piccaro,281.0
44.10763,8.214689,Monte Croce,541.0
44.111248,8.18922,Monte Acuto,748.0
44.110104,8.159053,Poggio Grande,813.0
44.269894,7.6059375,Cima Besimauda (Bisalta),2230.0
44.30174,8.290957,Monte Bracco,750.0
44.315495,8.418435,Monte Ciuto,431.0
43.938206,7.7593565,Monte Ceppo,1627.0
44.28548,8.288722,Bricchetto dello Stantino,642.0
44.27708,8.27971,Bric della Croce,836.0
44.302757,8.285451,Bric Somalunga,765.0
44.31416,8.301303,Il Poggio,676.0
44.257397,8.305798,Bric Praboè,891.0
44.26425,8.314728,Monte Alto,956.0
44.260212,8.288183,Bric del Borro,991.0
44.27127,8.276072,Bric dei Campi,928.0
44.32059,8.310894,Monte Baiardo,603.0
44.289284,8.304955,Bric Narocca,617.0
44.28269,8.312631,Bric Balestrei,717.0
44.290245,8.273182,Bric delle Fontanette,730.0
44.299973,8.279515,Bric Scarrone,688.0
44.278603,8.257954,Colle del Bresca,714.0
44.268646,8.246422,Bric delle Fontanette,893.0
44.273594,8.25035,Rocca Roluta,851.0
44.302464,8.31496,Bric Cianlan,685.0
44.322395,8.127795,Bric Rosè,955.0
44.263416,8.256711,Bric della Binella,862.0
44.04799,7.5715914,Mont Bonsapel,1349.0
44.08265,7.716472,Cime Ventose,2137.0
44.09987,7.6955023,Cime Missoun,2356.0
44.117958,7.6745753,Mont Bertrand / Monte Bertrand,2482.0
44.128014,7.669842,Cima di Velega / Cime de Vélègue,2384.0
44.147835,7.706446,Il Ferà,2260.0
44.009083,7.6398997,Balcon de Marta,2122.0
44.20655,8.318753,Rocca Carpanea,390.0
44.19652,8.320936,Bric Scimarco,335.0
44.19954,8.322001,Bric Grigio,347.0
44.192284,7.6614027,Testa del Duca,2055.0
44.061317,7.760135,Cima Garlenda,2141.0
44.12662,7.7548585,Cima Cantalupo,1892.0
44.128716,7.7653303,Cima di Pian Cavallo,1896.0
44.259087,7.793928,Monte Malanotte,1742.0
44.171738,7.722214,Cima Pian Ballaur,2604.0
44.21967,7.703646,Cima Cars,2218.0
44.26747,7.6391215,Rocca di Vinchie,1313.0
44.214863,7.8721848,Cima Robert,1819.0
44.143456,7.5039263,Rocca dell'Abisso / Roche de l'Abisse,2755.0
44.002296,7.6194396,Pointe de Lugo,1929.0
44.07262,7.7139125,Mont Tanarel / Monte Tanarello,2094.0
44.165264,7.6577473,Castel Frippi,2256.0
43.866188,7.6942015,Monte Mera,835.0
43.83855,7.706028,Cima Crostiglioni,710.0
43.83408,7.7161174,Monte Carparo,911.0
43.84664,7.60839,Cima d'Aurin,465.0
43.83139,7.611121,Monte Baraccone,515.0
44.22033,7.624636,Punta Mirauda,2155.0
44.09801,8.052413,Monte Castellermo,1087.0
44.097237,8.063844,Monte Nero,977.0
43.84352,7.7217836,Punta di Savona,802.0
43.841633,7.508296,Monte Grammondo,1379.0
43.868,7.5732274,Cimon Aurive,366.0
43.877087,7.5803113,Monte Abelliotto,899.0
43.948277,7.578647,Colletta Lunga,1340.0
43.897667,7.5596714,Mont Colombin / Monte Colombin,1026.0
44.24605,7.703739,Cima Gardiola,1890.0
44.130966,7.9773865,Monte Dubasso,1538.0
44.12528,8.087391,Monte Alpe,1056.0
43.87352,7.7338586,Monte Bignone,1299.0
44.265907,7.79147,Monte Moro,1730.0
43.919632,7.552397,Roche Fourquin,1420.0
43.948463,7.5528693,L'Arpette,1611.0
43.982635,7.5073,Cime de Colla Bassa,1415.0
43.891632,7.5209646,Cime du Tron,676.0
44.015377,7.5007467,Cime de Coss,1680.0
44.10288,7.528655,Mont Chajol,2293.0
44.015903,7.5854554,Cime de Campbel,1396.0
44.032703,7.537573,Cime de Corvo,1525.0
44.04573,7.5624413,Cime de Gauron,1599.0
44.14722,7.679425,Cima di Pertegà / Cime de Pertègue,2404.0
44.083588,7.620201,Mont Bergiorin,1676.0
44.05249,7.524659,Cime de la Nauque,2207.0
44.069126,7.607207,Cime de Boséglia,1265.0
44.145668,7.5346136,Cime de Salante,2176.0
44.164406,7.6809444,Cima di Gaina / Cime de la Galine,2400.0
44.1495,7.619876,Cima del Becco / Cime du Bec,2301.0
44.055042,7.6484294,Cime du Pinet,1480.0
44.176823,7.651155,Pointe Straldi,2383.0
44.17327,7.63222,Testa Ciaudon / Tête Chaudon,2387.0
43.888515,7.685884,Monte Cianela,584.5
43.931454,7.81225,Monte Pallarea,1075.9
43.90766,7.701933,Monte Doa,716.4
43.90785,7.6718545,Monte Foa,611.0
43.883682,7.702411,Monte Osaggio,541.3
43.86708,7.644889,Monte Belgestro,586.0
43.872185,7.6494527,Monte Curti,516.0
43.796463,7.68505,Colla Merello,224.0
43.819065,7.700083,Colla del Montenero,590.0
44.165073,7.756808,Cima di Pian Comune,2407.0
44.168575,7.781499,Rocche del Garbo,2477.0
43.81523,7.514614,Cime de Restaud,1148.0
43.79509,7.668383,Il Colletto,203.3
43.7964,7.5250344,La Gardieura,625.0
44.24674,8.265857,Poggio di Motté,965.0
44.28353,8.333337,Briccu de Brughe,765.0
44.2862,8.333777,Rocche di Reinaldo,759.0
44.2506,7.6000404,Bric Costa Rossa,2403.0
44.156097,8.0152855,Monte Galero,1708.0
44.154285,7.5002027,Monte Frisson,2637.0
44.165363,8.326132,Monte Caprazoppa,291.0
44.243977,8.402106,Bric Colombino,453.0
44.259632,8.285593,Bric del Zovasso,998.0
44.317924,8.276524,Bric della Sorte,642.0
43.923916,7.991614,Monte Croce,538.0
43.933914,7.966148,Monte Pian Cavallè,578.0
43.925854,7.9892426,Monte del Camione,512.0
43.945366,7.962242,Monte Acquarone,735.0
44.182205,7.530928,Bec Baral,2130.0
44.187374,7.9143987,Monte Antoroto,2144.0
44.130314,8.168389,Poggio Dell'Arpe,614.0
44.14195,8.133733,Monte Guardiola,737.0
44.159855,8.17065,Rocca Berleurio,844.0
44.152283,8.161395,Punta Alzabecchi,784.0
44.127983,8.141212,Rocca Pian de Prati,827.0
44.101368,8.150224,Pizzo Ceresa,714.0
44.097664,8.1721,Monte Pesalto,686.0
43.799843,7.7353125,Punta Mucchio di Scaglie,211.0
43.826637,7.816896,Monte Calvo,211.7
43.901665,7.7388735,Cima Bossera,972.0
44.199497,8.39469,Bric dei Crovi,386.0
43.841393,7.5150194,Punta Renuit,1300.0
43.825245,7.517135,Cima di Bravona,1013.0
43.8254,7.520789,Monte Grosso,909.3
43.812767,7.567667,Cima di Gavi,440.4
43.823265,7.5395675,Cima di Terca,505.0
43.906147,7.7647166,Cima Mairise,1071.0
43.896328,7.791362,Monte Merlo,990.0
43.815407,7.52513,Monte Fuga,786.0
43.847836,7.5087066,Punta Monetto,1248.0
44.167465,8.201116,Rocca dell'Aia,795.0
43.92644,7.605396,Monte Alto,1266.0
43.919643,7.622399,Monte Altomoro,908.0
43.909325,7.637236,Monte Dorin,641.5
43.859764,7.510357,Cima Gavazzo,771.0
43.855915,7.505505,Ciucco di Gerri,1026.0
43.79689,7.526828,I Colletti,542.0
44.166706,8.290852,Monte Grosso,299.0
44.271896,7.605745,Anticima Bisalta,2190.0
44.177055,7.6753416,Castello delle Aquile,2513.0
44.148285,7.5057297,Rocca della Bastera,2617.0
44.406006,8.446325,Bric Sportiole,890.0
44.190678,7.7025375,Cima di Serpentera,2344.0
44.19731,7.7003174,Cima Serpentera Nord,2358.0
44.195335,7.697917,Rocche de Gaudioline,2344.0
44.231277,7.7334533,Cima Durand,2092.0
44.16618,7.5122323,Monte Ciotto Mien,2378.0
44.041836,7.792629,Poggio Fearia,1846.0
44.190937,7.8847547,Cima Ciuaiera,2172.0
44.184616,7.629128,Cima della Fascia,2495.0
44.195595,7.6353736,Bric bassa del Carbone,2060.0
44.198517,7.6234565,Monte Jurin,2188.0
44.22533,7.764028,Rocche Giardina,2165.0
44.222496,7.756034,Monte Mondolé,2382.0
44.202538,7.8773713,Monte Baussetti,2004.0
44.277157,7.8790216,Bric Colmè,1297.0
44.29741,7.9038477,Bricasso,1069.0
44.17325,7.801536,Cima Revelli,2486.0
44.121845,7.929475,Monte della Guardia,1661.0
44.238956,8.060509,Bric delle Piombere,1104.0
44.22678,8.035254,Bric della Colma,1057.0
44.226727,8.068432,Monte Spinarda,1357.0
44.24252,8.0822115,Bric del Mazza,1178.0
44.23518,8.078984,Bric di Roncofreddo,1251.0
44.207024,8.063765,Bric Meriano,1251.0
44.241367,8.052899,Bric della Pezza,965.0
44.246822,8.061075,Monte Calvo,1105.0
44.25347,8.063603,Monte Sotta,1204.0
44.261745,8.06284,Monte Rossotta,1173.0
44.264297,8.058879,Bric della Capra,1103.0
44.2644,8.083753,Monte Bocchetta,1115.0
44.25899,8.109142,Bric Crose,852.0
44.283276,8.093125,Monte Giovetti,1020.0
44.28114,8.102648,Bric Zotte,1020.0
44.28174,8.11194,Bric Zerbi,1026.0
44.291656,8.063223,Bric Bedino,704.0
44.28697,8.023277,Bric della Rospia,838.0
44.29058,8.002885,Bric Ciarandella,1115.0
44.294003,8.010808,Bric della Veja,1061.0
44.302963,8.0090885,Bric del Bava,1004.0
44.297825,7.992178,Bric del Fieno,989.0
44.248398,7.9734583,Bric del Prato Rotondo,1573.0
44.32933,8.007986,Bric Bastia,923.0
44.30836,8.01371,Bric Camelot,952.0
44.309864,7.9581156,Bric Blin,1043.0
44.22525,8.111029,Bric delle Forche,842.0
44.217976,8.109004,Bric Beccaria,861.0
44.20538,8.081426,Bric Agrifoglio,1157.0
44.1991,8.072576,Bric Verdiola,1161.0
44.186886,8.073098,Monte Cianea,1226.0
44.185287,8.061175,Bric dello Schiavo,1171.0
44.17873,8.09734,Bric Tencione,1191.0
44.168457,8.025979,Monte Pennino,1270.0
44.190186,8.021618,Monte Pietra Ardena,1103.0
44.161022,8.050014,Pian dei Fiori,948.0
44.135693,8.049857,Monte delle Gettine,1182.0
44.13055,8.074145,Monte Alpe Ovest,1035.0
44.145954,8.089795,Bric Arzenna,605.0
44.154278,8.098908,Bric del Vigio,753.0
44.147682,8.10478,Bric Curlo,723.0
44.16726,8.11299,Monte Lingo,1102.0
44.170364,8.095033,Bric Schenasso,1085.0
44.16905,8.076024,Bric Arzo,977.0
44.2508,7.950813,Bric Muceretti,1762.0
44.244064,7.9466343,Bric Nei,1764.0
44.22587,7.9481106,Rocce del Rascazzo,1742.0
44.204483,7.9336324,Monte Berlino,1789.0
44.45373,8.493643,Bric Roverina,705.0
44.467793,8.464284,Bric della Rama,706.0
44.45281,8.467972,Bric di Battesto,661.0
44.459442,8.470378,Bric di Bonuzzo,611.0
44.224354,7.912827,Bric dei Sapetti,1378.0
44.19511,7.916447,Monte Grosso,2007.0
44.20315,7.91654,Cima Praietto,1943.0
44.2053,7.914374,Bric di Mezzodì,1945.0
44.214428,7.9158287,Punta della Sapea,1665.0
44.17658,7.8353267,Cima Ruscarina,2257.0
44.18262,7.846027,Cima Ferrarine,2249.0
44.183487,7.857332,Punta Torracca,2185.0
44.183315,7.873196,Punta dei Termini,2099.0
44.192623,7.901731,Bric dell'Oc,1796.0
44.19595,7.8932333,Rocca dell'Aquila,1905.0
44.108505,7.9040112,Bric Castagnino,1215.0
44.10451,7.886074,Monte Ariolo,1219.0
44.11356,7.8817196,Rocca Ferraira,1301.0
44.172874,7.9135284,Bric Ciapazzo,1555.0
44.180065,7.94395,Bric Ronzino,1712.0
44.171494,7.907528,Rocca Fea,1539.0
44.180325,7.967819,Rocca delle Orse,1377.0
43.847218,7.531597,Monte Cogorda,838.0
43.849262,7.5353737,Cima dell'Arpetta,861.0
43.917915,7.5472,Mont Tron,1339.0
43.922478,7.5982366,Monte Comune,1240.0
44.205875,7.5482464,Monte Vecchio,1919.0
44.285595,7.549326,Cima di Francia,1421.0
44.282707,8.139243,Bric Vigna Vecchia,955.0
44.30041,7.54938,Cima del Brusatà,1154.0
44.24726,7.5206966,Monte Bianco,1208.0
44.239883,7.501685,Costa Croce Coltura,1397.0
44.232594,7.51147,Bric Martinet,1232.0
44.142143,7.528964,Mont Bec Roux,2130.0
44.17872,7.5290065,Bec Matlas,2148.0
44.19236,7.5120277,Bric Brusata,1712.0
44.196594,7.539245,Bric Castea,1800.0
44.217678,7.5589795,Monte Malaterra,1426.0
44.22238,7.545094,Rocca del Pino,1603.0
44.25252,7.565254,Punta Gutzart,1675.0
44.244278,7.576532,Monte Piane,1839.0
44.25129,7.551467,Cima Ciapuso,1356.0
44.264847,7.553708,Punta Tre Confini,1481.0
44.270496,7.550823,Rocca Alta,1487.0
44.271908,7.5274773,Truc Murgium,937.0
44.237003,7.609223,Cima Pitte,2175.0
44.20771,7.5945134,Monte Murin,1544.0
44.191807,7.6091046,il Crest,1852.0
44.160534,7.627875,Cima dei Cuni / Cime du Coin,2259.0
44.146008,7.601138,Cime de Pépin,2335.0
44.193466,7.651419,Testa di Murtel,2066.0
44.223408,7.6430936,Punta Labiaia Mirauda,1971.0
44.235054,7.7068634,Cima Piastra,1858.0
44.202583,7.703576,Cima di S. Lorenzo,2305.0
44.15194,7.661103,Cime de Sénéca,2138.0
44.132416,7.6591964,Cime de l'Évêque,2231.0
44.142586,7.7474184,Il Castellazzo,1620.0
44.39423,8.369054,Bric Curlin,816.0
44.343178,8.471605,Monte Cucco,440.0
44.245758,8.197691,Monte Settepani,1386.0
44.365677,8.423857,Monte Negino,681.0
44.389847,8.420036,Cima della Biscia,832.0
44.37925,8.413804,Monte San Giorgio,834.0
44.352306,8.364509,Bric della Cavalla,418.0
44.35182,8.356138,Bric Votino,393.0
44.34476,8.36852,Bric del Falo,378.0
44.319256,8.43134,Monte Paolino,390.0
44.37536,8.484509,Bric di Genova,483.0
44.370945,8.477849,Bric Modena,429.0
44.366592,8.473145,Bric Canavisse,319.0
44.380753,8.485674,Monte Ciri Nord,460.0
44.377472,8.472245,Bric Castellaccio,263.0
44.361565,8.486687,Monte Casella,351.0
44.35065,8.498613,Monte Castello,146.0
44.367565,8.485456,Bric Crava,283.0
44.357243,8.492457,Monte Sorba,241.0
44.34782,8.466495,Monte Tinè,458.0
44.384563,8.440643,Bric Giberto,550.0
44.38577,8.440148,Bric Beià,558.0
44.38201,8.444275,Bric della Brigna,494.0
44.396496,8.442008,Monte Greppino,812.0
44.4029,8.445704,Bric Gerin,868.0
44.41572,8.44723,Rocca della Ghingherina,796.0
44.31327,8.418955,Bric Masae,398.0
44.31264,8.410858,Bric Vosseita,360.0
44.32663,8.400984,Bric Taschè,358.0
44.314236,8.426175,Monte Serea,357.0
44.31163,8.42651,Bric Vernea,285.0
43.848476,7.867462,Monte Rocche,213.0
43.842514,7.866173,Monte Grange,200.0
44.27993,8.32522,Bric del Termine,748.0
44.273266,8.315823,Bric della Baracca,770.0
44.270084,8.337591,Monte Poggio,511.0
44.259575,8.354028,Rocca dei Corvi,793.0
44.255596,8.353015,Rocca dei Corvi Sud,786.0
44.277893,8.292511,Bric della Madonna,636.0
44.290638,8.328599,Bric Tasone,645.0
44.21351,8.338768,Monte Cucco,398.0
44.475185,8.462452,Bric Caglietta,597.0
44.47196,8.464729,Bric Riondo,621.0
44.47896,8.468042,Bric Soriazza,562.0
44.472023,8.45252,Bric Verne,526.0
44.48007,8.462997,Bric del Diavolo,498.0
44.459583,8.459919,Bric di Salmaceto,701.0
44.463688,8.461022,Cima di Deiva,707.0
44.477825,8.438266,Bric Veso,500.0
44.487328,8.444263,Monte Bono,606.0
44.498817,8.462054,Bric Roccazza,571.0
44.492706,8.452465,Bric Rianoz,410.0
44.30396,8.181709,Bric della Pianura,930.0
44.28179,8.170112,Bric Mortè,1232.0
44.26958,8.17229,Bric Sputafame,1164.0
44.236603,8.407376,Bric Due Strade,226.0
44.224743,8.392739,Bric delle Rive,281.0
44.21461,8.401596,Bric Groppino,259.0
44.247467,8.432069,Monte Sant'Elena,346.0
44.249897,8.435242,Monte Rocchetto,319.0
44.29211,8.317531,Monte Cagnon,692.0
44.321953,8.350168,Monte Uvi,504.0
44.312115,8.359853,Monte Teggia,505.0
44.30976,8.366452,Monte Curlo,537.0
44.30768,8.379618,Costa di Casa,503.0
44.30719,8.387138,Traliccio Costa di Casa,456.0
44.197506,8.318092,Monte Sordo,338.0
44.19306,8.33045,Bric Ercea,313.0
44.19496,8.3102,Bric della Croce,398.0
44.303596,8.416811,Monte Passeggi,258.0
44.30507,8.423706,Bric Uvin,297.0
44.15716,8.131503,Rocca Barbena,1141.0
44.166973,8.153147,Monte Subanco,983.0
44.147404,8.037928,Pizzo Castellino,1397.0
44.362858,8.499862,Bric Aiè,224.0
44.390606,8.475855,Bric Ovio,384.0
44.381737,8.356439,Bric Psigni,510.0
44.38219,8.365737,Bric Ruscino,605.0
44.386856,8.361249,Bric dell'Amore,667.0
44.387787,8.342301,Monte Cornato,580.0
44.392517,8.443007,Bric Arpetto,658.0
44.33399,8.308605,Bric Cadorie,534.0
44.386124,8.455173,Bric Comignolo,532.0
44.264793,8.160362,Bric Caplin,971.0
44.388596,8.450362,Bric Cascinotto,552.0
44.40852,8.37276,Bric Castello,809.0
44.309628,8.224585,Bric Colletto,883.0
44.328533,8.32418,Bric Dol,554.0
44.257633,8.174377,Bric Femmina Morta,1213.0
44.358788,8.326376,Bric Fraciosa,536.0
44.310516,8.189907,Bric Freddadonna,841.0
44.32218,8.301213,Bric Garbuta,547.0
44.27262,8.1558,Bric Ladini,994.0
44.2872,8.154965,Bric Pennacchio,1173.0
44.410892,8.394518,Bric Pian Zotti,791.0
44.386917,8.462274,Bric Pra Rossa,462.0
44.323578,8.231462,Bric Risino,736.0
44.42112,8.36605,Bric Rocca Lovera,659.0
44.306892,8.200703,Bric Rochere,830.0
44.270657,8.130769,Bric Roncaccio,860.0
44.332123,8.225101,Bric Rotondo,754.0
44.31843,8.251252,Bric Rudina,739.0
44.355278,8.328721,Bric Surite,539.0
44.2845,8.090434,Bric Vardirera,1000.0
44.397625,8.350557,Bric degli Scaglioni,691.0
44.391537,8.412395,Bric della Biscia,796.0
44.378326,8.321191,Bric delle Rocche,579.0
44.264458,8.106718,Monte Bove,797.0
44.302883,8.095986,Monte Cimaglia,935.0
44.39407,8.310255,Monte Goso,634.0
44.30527,8.081071,Monte Pian dei Ciri,802.0
44.254562,8.150985,Monte Rotondo,983.0
44.295734,8.172187,Rocca Aripoi,990.0
44.28858,8.162689,Rocca Pregalante,870.0
44.392826,8.435088,Rocca del Falcone,687.0
44.318523,8.109817,Bric Campazzo,960.0
44.328873,8.1479025,Bric Caprine,903.0
44.344814,8.158339,Bric Morto,788.0
44.285755,8.11457,Bric Selletta,848.0
44.33054,8.159429,Bric Spagora,906.0
44.29059,8.139983,Bric Zionia,1078.0
44.325813,8.150051,Bric del Rovere,937.0
44.345387,8.169843,Bric del Prete,752.0
44.332806,8.156524,Bric del Preuce,865.0
44.32343,8.14076,Colle Croce di San Giovanni,962.0
44.30674,8.086474,Monte Straiele,860.0
44.338573,8.3718815,Bric della Croce,356.0
44.149765,7.9205,Cima Castelletto,927.0
44.151333,7.9282994,Cima Valle,900.0
44.27597,8.3898735,Bric Nafaè,503.0
44.276924,8.404737,Monte Pian Mora,385.0
44.26318,8.351979,Rocca dei Corvi Nord,792.0
44.271034,8.350242,Bric Alpe,665.0
44.268105,8.35068,Monte Garbo,705.0
44.25576,8.340804,Monte Cuniassi,632.0
44.028404,8.183127,Monte Bignone,523.0
44.343845,8.463316,Monte Boveri,329.0
44.210938,8.33954,Rocca Cornei,365.0
44.028732,8.163449,Monte Pisciavino,596.0
44.302742,8.33804,Monte Baraccone,819.0
44.31748,8.452873,Bric Renzia,301.0
44.307613,8.43955,Bric Ca di Bò,135.0
44.344616,8.477299,Bric della Beata,391.0
44.037853,7.608519,Cime de Durasca,1458.0
44.046814,7.608197,Cime de l'Arpèse,1366.0
44.07803,7.554371,Pointe de Vergou,1914.0
44.33219,8.426808,Monte Erxo,423.0
44.237587,8.369124,Bric Berba,563.0
44.08525,7.534255,Mont Agnelino,2201.0
44.30697,8.418867,Bric dei Tecci,347.0
44.118336,7.5882945,Mont Court,1719.0
44.36594,8.404096,Bric Cappelletta,605.0
44.488903,8.336171,Bric dei Cheilini,518.0
44.411015,8.353755,Piazza Grande,824.0
44.32725,8.397714,Bric Campo del Fattore,326.0
44.38007,8.417961,Bric San Giorgio,784.0
44.372425,8.415912,Bric Naso di Gatto,821.0
44.34334,8.483876,Bric della Seia,285.0
44.3796,8.426363,Bric Burruie,612.0
44.38166,8.423107,Bric Leetta,646.0
44.296246,8.423854,Bric Maggiolo,206.0
44.319065,8.387381,Bric Chachen,316.0
44.33654,8.362522,Bric da Crocetta,372.0
44.33335,8.361574,Bric della Guardia,372.0
44.335167,8.361493,Bric della Madonnetta,422.0
44.32827,8.383099,Bric du Prin,266.0
44.32761,8.380749,Bricchet Croce di Capanne,269.0
44.318966,8.3955965,Bric Pian di Cavallo,374.0
44.41801,8.470844,Bric Cavallino,531.0
44.38696,8.4746685,Bric Ciarè,318.0
44.402596,8.466487,Bric Pinna,569.0
44.38405,8.466595,Bric Ronco Freddo,375.0
44.416897,8.476122,Bric Zanotti,442.0
44.411358,8.475594,Bric dell'Orco,553.0
44.41266,8.461876,Rocca Moglie,709.0
44.417984,8.4607725,Rocca di Tamburo,676.0
44.207226,8.121462,Il Castellaro,863.0
44.198788,8.145874,Monte Cormoruzzi,1028.0
44.201744,8.141235,Monte Mezzano,1054.0
44.202938,8.152988,Rocca Sciuscietto,1098.0
44.243534,8.36114,Bric del Forno,539.0
44.214684,8.377838,Castelletto,410.0
44.25436,8.410896,Bric Fornaci,230.0
44.396187,8.429167,Bric Crocetta,824.0
44.2853,8.332819,Bric delle Scalette,756.0
44.27621,8.356239,Colle San Sebastiano,505.0
44.251965,8.336065,Bric Frabosa,673.0
44.29208,8.375939,Bric Chicchezza,285.0
44.29498,8.376461,Bric Gumba,205.0
44.314106,8.278549,Bric Armenga,607.0
44.355747,8.263697,Bric Bandia Sud,508.0
44.33935,8.236192,Bric Castellaccio,754.0
44.33715,8.238327,Bric Costa,763.0
44.34426,8.22677,Bric Crucera,706.0
44.31771,8.257591,Bric Fornace,683.0
44.341763,8.254365,Bric Gazzaro,670.0
44.3393,8.25733,Bric Luvi,661.0
44.35545,8.229311,Bric Boscheia,646.0
44.346363,8.272495,Bric Nizzareto,460.0
44.326286,8.269733,Bric Ronchetti,526.0
44.3343,8.255616,Bric Saroda,545.0
44.342926,8.268368,Bric Suria,503.0
44.32579,8.261164,Bric Veriusa,656.0
44.344604,8.2318945,Bric Vernei,715.0
44.340656,8.266838,Bric Vigei,513.0
44.28565,8.266556,Bric della Tesa,688.0
44.315952,8.287744,Cima Cardè,573.0
44.353508,8.337482,Bric Campi,535.0
44.35476,8.340801,Bric Cerrera,502.0
44.35871,8.346101,Bric Facciate,514.0
44.37282,8.352359,Bric dell'Omo Morto,572.0
44.35951,8.3522,Bric della Sella,519.0
44.324474,8.24359,Bric Bruciate,559.0
44.321037,8.233789,Bric Cianella,740.0
44.32638,8.237478,Bric Rovacco,647.0
44.313526,8.231074,Bric Tecchio Marocco,816.0
44.382435,8.457507,Bric Busin,418.0
44.37799,8.461699,Bric Castagnola,345.0
44.378307,8.447379,Bric Marciosa,428.0
44.373802,8.484395,Bric Pein,468.0
44.375782,8.491385,Bric Piconetta,400.0
44.37976,8.459121,Bric Rosciano,380.0
44.379757,8.493723,Bric Schiapao,293.0
44.37282,8.45228,Bric Schiena,433.0
44.454105,8.4519415,Bric Eiraldo,681.0
44.4459,8.4596195,Bric Riund,699.0
44.453793,8.448694,Bric Suriazza,675.0
44.450714,8.470135,Briccazzo,612.0
44.221954,8.366609,Bric Carè,480.0
44.23156,8.337961,Bric Grimaldo,435.0
44.22603,8.355304,Bric Pastanè,304.0
44.19842,8.330877,Bric Pianarella,364.0
44.199543,8.352574,Bric Scala,323.0
44.203407,8.330808,Bric Spaventaggi,370.0
44.188744,8.344916,Monte Tolla,325.0
44.214165,8.348274,Rocca Nava,325.0
44.266506,8.411228,Bric Roncallo,148.0
44.283554,8.395147,Rocche del Castello,280.0
44.202187,8.179189,Balzi Rossi,1300.0
44.416542,8.412718,Bric Ciassa,668.0
44.4165,8.407676,Bric dei Mori,674.0
44.394688,8.425143,Monte Pina Vernè,813.0
44.39828,8.424341,Monte Salamonetto,781.0
44.236176,8.28444,Bric Bossaro,676.0
44.327557,8.310939,Bric Capra,555.0
44.332523,8.295832,Bric Montà,483.0
44.32884,8.31781,Bric Muscio,538.0
44.334824,8.306202,Bric Rodola,513.0
44.327045,8.2935505,Bric delle Surie,520.0
44.321888,8.295883,Poggio d'Orati,547.0
44.262005,8.256875,Bric Gatto,867.0
44.277946,8.214498,Bric della Croce,911.5
44.24097,8.224158,Bricco dei Prati,1016.0
44.242638,8.229326,Monte Alto,1048.0
44.426235,8.434909,Bric Autzè,752.0
44.416996,8.442888,Bric Ciapazza,799.0
44.409985,8.420988,Bric Gianchera,717.0
44.42046,8.449305,Bric Prepanda,731.0
44.404427,8.438617,Bric Sportiole Est,837.0
44.415592,8.46071,Bric Tamburo,738.0
44.40364,8.430477,Bric dell'Eremita,835.0
44.42048,8.437161,Bric delle Rocche,751.0
44.453754,8.409573,Bric Mosca,584.0
44.452652,8.420925,Bric Oggia,548.0
44.45871,8.413242,Bric Schiena d'asino,605.0
44.452747,8.430198,Bric dell'Isola,502.0
44.038128,8.175839,Bric Cianastre,316.0
44.031853,8.176108,Monte Castellaro,508.0
44.093647,8.074724,Monte Pendino,921.0
44.042538,8.197332,Monte Rosso,242.0
44.0919,8.084296,Montenero,853.0
44.16965,8.185182,Bric Ciazzalunga,1216.0
44.04424,8.15635,Poggio Barbera,276.0
44.025852,8.162034,Poggio Scotteri,589.0
44.027138,8.156958,Poggio Vallega,533.0
44.10961,8.1966,Monte Sopra Toirano,621.0
44.11234,8.217741,Poggio Rotondo,341.0
44.259396,7.702244,Cima della Pigna,1767.0
44.49405,8.467281,Bric Roccazza Piccola,493.0
44.489674,8.472686,Bric Savoia,445.0
44.198402,8.360885,Rocca di Corno,306.0
44.19565,8.362323,Monte Corno,306.0
44.21177,8.360227,Rocca degli Uccelli,371.0
43.98132,7.871148,Poggio Amandolini,1187.0
44.318287,8.374371,Bric Pagliera,435.0
44.18273,8.363915,Bric Briga,302.0
44.166416,8.003256,Truc Prato del Poco,1312.0
43.93134,8.125584,Colle Castellareto,211.0
43.953365,8.123909,Colle Mea,398.0
43.93903,8.12358,Colle di Cervo,324.0
43.96483,8.115154,Monte Chiappa,541.0
44.153316,8.029039,Monte Fuetto,1531.0
44.122852,8.045452,Monte Lapeu,1004.0
44.14535,8.040868,Pizzo delle Penne,1402.0
44.1729,8.001325,Bric della Penna,1375.0
44.343002,8.409351,Bric del Basto,328.0
44.258244,8.170898,Bric Rosina,1148.0
44.284973,8.17627,Bric Castel Merlino,1123.0
44.17295,7.6968045,Cima Bozano,2568.0
44.16911,7.6972365,Cima Palù,2538.0
44.17272,7.700587,Punta Emma,2529.0
44.160774,7.7041187,Cima di Piaggia Bella,2189.0
44.329796,8.490071,Bric della Croce,201.0
44.33172,8.483373,Monte Pasasco,284.0
44.38494,8.490103,Bric Bennera,248.0
44.367424,8.489586,Bric Cian de Vachè,380.0
44.387306,8.494863,Monte della Gancia,248.0
44.407166,8.455589,Bric Bagara,709.0
44.41108,8.4577,Bric Burain,745.0
44.42806,8.437545,Bric Matzo,690.0
44.41258,8.455009,Bric Sciappa,755.0
44.318222,8.363933,Bocca del Pero,450.0
44.450794,8.412807,Bric Bucchei,634.0
44.438972,8.3923235,Bric Buongiorno,607.0
44.439415,8.338742,Bric Buscana,495.0
44.47851,8.3821745,Bric Cerro,576.0
44.400738,8.402507,Bric di Fraciata,828.0
44.452267,8.385407,Bric Funga,539.0
44.426384,8.3247385,Bric Martina,477.0
44.437172,8.493941,Bric Mondo,698.0
44.464993,8.368209,Bric Riondo di Cavanna,485.0
44.478813,8.341715,Bric Rotondo,489.0
44.48257,8.399274,Bric Sibiria,434.0
44.43214,8.370992,Bric Strinata,517.0
44.458702,8.330405,Bric Valdinaso,461.0
44.44077,8.347219,Bric dei Botta,492.0
44.254467,8.234356,Bric dei Pinei,902.0
44.41859,8.325748,Bric dei Termini,578.0
44.306824,8.247663,Bric del Gallo Nord,750.0
44.300446,8.246724,Bric del Gallo Sud,883.0
44.471695,8.382918,Bric del Group,604.0
44.428707,8.340744,Bric del Ser,605.0
44.426315,8.316216,Bric della Monica,466.0
44.430656,8.4017515,Bric delle Palmerie,612.0
44.44403,8.442035,Bric delle Rocche,562.0
44.402485,8.379969,Bric di Michele,828.0
43.995193,7.6788216,Carmo Ciaberta,1768.0
43.94326,7.5806527,Monte Albano,1053.0
43.871273,7.8386207,Monte Albareo,485.0
43.911995,7.7545075,Monte Alpicella,1238.0
43.8771,7.6187515,Monte Armetta,474.0
43.975903,8.098437,Monte Bandia,565.0
43.79696,7.6526337,Monte Bauso,228.0
44.102787,7.9546494,Monte Bello,1315.0
43.907448,7.687091,Monte Campi,702.0
43.906685,7.918105,Monte Cantagallo,603.0
43.810497,7.6010976,Monte Carbone,442.0
43.875446,7.916281,Monte Casarazzi,474.0
43.889076,7.9473257,Monte Cinque Bourche,379.0
43.912445,7.7471547,Monte Collettazzo,1230.0
43.988422,7.7197347,Monte Croce di Cetta,1311.0
43.875057,7.888386,Monte Croce,681.0
44.090263,7.960237,Monte Cucco,1144.0
44.094624,8.035218,Monte Cucco,907.0
44.152447,8.000871,Monte Fontanette,1560.0
43.86831,7.59403,Monte Erisetta,664.0
43.867657,7.838114,Monte Giamanassa,405.0
43.83639,7.73364,Monte Gozzo,540.0
43.854588,7.5202193,Monte Grosso,710.0
43.81182,7.573852,Monte Magliocca,500.0
44.18204,8.133587,Monte Maglione,813.0
43.97777,8.14409,Monte Marchiano,171.0
43.875134,7.5028563,Monte Mergo,725.0
44.364063,8.31193,Monte Moncavaglione,484.0
43.86169,7.907746,Monte Negro,443.0
43.88821,7.621778,Monte Olivastro,700.0
43.86957,7.912934,Monte Pian delle Vigne,541.0
44.158764,8.255834,Monte Pianosa,406.0
43.847023,7.56782,Monte Pozzo,570.0
44.39119,8.325973,Monte Pè,625.0
43.85815,7.8195844,Monte Santa Maria,462.0
43.87257,7.90505,Monte Selletta,579.0
43.89673,7.6687126,Monte Semoigo,614.0
44.114643,7.82722,Monte dei Cancelli,1517.0
43.858677,7.9272394,Monte della Costa,393.0
43.978516,7.695604,Penna della Cassera,1321.0
43.96176,7.713641,Poggio del Borra,1091.0
43.90796,7.736288,Punta Lodiro,1085.0
43.836987,7.5265107,Punta Pellegrio,922.0
43.94867,7.697179,Testa del Carmo,853.0
43.866734,7.5004177,Tête de Cuore / Testa di Cuore,1075.0
44.401012,8.215937,Rocca Cella,610.0
44.47243,8.299568,Bric Foresto,418.0
44.45651,8.249924,Bric Genevraio,532.0
44.334686,8.174474,Bric Granarolo,828.0
44.467735,8.256546,Bric Palmolari,534.0
44.46082,8.2036,Bric Pendie,702.0
44.475994,8.2756405,Bric Petacchi,490.0
44.40598,8.304007,Bric Pian d'Armi,602.0
44.45695,8.207779,Bric Pozza,707.0
44.454025,8.22377,Bric Preizi,797.0
44.47258,8.277304,Bric Rotondo,474.0
44.334232,8.18281,Bric Rovrone,785.0
44.33455,8.19232,Bric Salve Regina,736.0
44.374973,8.159093,Bric San Bernardino,771.0
44.339043,8.189595,Bric Sant'Antonio,707.0
44.439785,8.216018,Bric Traverse,742.0
44.419178,8.238733,Bric Vallone,480.0
44.451122,8.281687,Bric Vignazza,427.0
44.340137,8.180306,Bric del Carnevale,711.0
44.434864,8.237527,Bric del Carretto,729.0
44.379776,8.162758,Bric del Castellaro,737.0
44.464382,8.273238,Bric del Prete,474.0
44.41516,8.223112,Bric del Ribera,687.0
44.493984,8.219203,Bric del Rizzo,742.0
44.33289,8.123154,Bric del Termo,860.0
44.413544,8.303358,Bric della Croce,619.0
44.493977,8.2395525,Bric della Croce,637.0
44.24584,8.135478,Bric della Guardia,1009.0
44.48808,8.232357,Bric Forte,680.0
44.25045,8.135373,Bric di Campolongo,1006.0
44.320568,8.1205435,Croce della Tia,971.0
44.08091,7.885151,Monte Bellerasco,1179.0
44.059326,8.10319,Monte Chiesa,245.0
44.403027,8.338527,Monte Cisa,709.0
44.332485,8.274369,Monte Lasagna,580.0
44.243973,8.150367,Monte Merlo,1156.0
44.063026,7.899433,Monte San Bernardo,815.0
44.062553,8.080133,Monte Villa,339.0
44.239544,8.159706,Rocca dei Corvi,927.0
44.43288,8.26235,Bric Cavaira,504.0
44.409058,8.392589,Bric Giacone,785.0
44.465343,8.428112,Bric della Codolla,519.0
44.436615,8.256958,Bric della Ressia,532.0
44.43811,8.265909,Monte Fea,509.0
44.437164,8.428576,Bric Bombarda,605.0
44.43413,8.421825,Bric Bossarina,604.0
44.43748,8.4175205,Il Castellaccio,558.0
44.010334,7.8081636,Monte Arborea,1549.0
44.018604,7.855241,Monte Bueleo,956.0
43.92424,7.5918894,Monte Cereghi,1097.0
43.94757,7.782209,Carmo Pian Tornavoi,1415.0
43.957,7.883565,Monte delle More,1080.0
43.95549,7.851639,Pizzo dei Grossi,1081.0
43.92938,7.708451,Rocche Daiberga,1016.0
43.996807,7.8312984,Monte Pizzo,1417.0
44.213295,8.2424965,Rocca Cucca,815.0
44.226925,8.2183895,Bric della Guardia,968.0
43.953503,8.02674,Monte Abrighetti,596.0
43.89459,8.022956,Monte Bardellini,267.0
43.9405,8.045358,Monte Berona,313.0
44.01692,8.087481,Monte Carchera,510.0
43.924225,8.05382,Monte Mergallo,190.0
43.95492,8.074293,Monte Quagli,502.0
44.060402,7.722784,Punta di Santa Maria,2138.0
44.038044,7.832723,Monte Bisciaire,1518.0
44.034874,7.986932,Monte Boschetto,831.0
44.012836,7.9932804,Monte Cherchere,604.0
44.04202,7.8209524,Monte Cosia D'Erna,1670.0
44.013416,7.9798884,Monte Verderi,747.0
44.035793,7.881194,Monte dell'Averna,1042.0
43.99709,7.936672,Picco Ritto,926.0
44.29933,8.150247,Bric Auzea,965.0
44.298344,8.142893,Bric Orsera,1070.0
44.31697,8.19995,Bric Roida,746.0
44.21619,8.163341,Piambello,1260.0
44.22599,8.123784,Bric dei Groppi,742.0
43.94864,7.846646,Rocca Castè,970.0
44.18882,8.11369,Bric del Bastione,928.0
44.17915,8.101262,Groppi,1175.0
44.159946,8.089253,Rocca Ciunin,776.0
44.06156,8.099353,Monte Ferrari,202.0
44.061184,8.068712,Poggio Marta,207.0
44.084404,8.028999,Punta Marina,741.0
44.35115,8.49011,Bric Rocchetto,168.0
44.30476,8.39454,Bric Alto,394.0
44.24933,8.197236,Rocca Colma,1349.0
44.36398,8.493411,Bric delle Cavornere,256.0
44.1728,8.281638,Cima della Brona,295.0
44.17238,8.259688,Monte Brusacrava,270.0
44.016228,8.109916,Monte Pagliassa,480.0
44.41578,8.458874,Rocca Paciri,740.0
44.430527,8.477027,Colle del Giovo,460.0
44.353775,8.306786,Monte Grosso,496.0
44.35855,8.298619,Monte Picarotta,464.0
44.34433,8.335225,Bric Fratino,484.0
44.168556,7.7215047,Monte Ballaur,2579.0
44.40915,8.333387,Bric Ravagni,645.0
44.201035,7.781448,Punta del Lusco,2278.0
44.219624,7.7940254,Monte Fantino,2094.0
44.18391,7.8098774,Punta del Zucco,2369.0
44.200485,7.759635,Cima Seirasso,2436.0
44.02454,8.093248,Poggio del Carrao,270.0
44.017635,8.063473,Monte Carpanea,607.0
43.863434,7.7230206,Colle Termini di Bajardo,950.0
43.85929,7.714121,Colle Termini di Perinaldo,984.0
43.839943,7.783477,Poggio Radino,408.0
44.307285,8.249286,Bric Prato Fornace Sud,750.0
44.403923,8.382103,Bric Garbazzo,831.0
44.431362,8.264879,Bric Furiana,468.0
44.49311,8.23079,Bric MIsse,693.0
44.330666,8.176853,Bric Rocchetti del Pozzo,794.0
44.324997,8.132751,Bric Rotondo,931.0
44.49517,8.442891,Bric Antizzan,425.0
44.49309,8.429721,Bric Bottero,458.0
44.493694,8.432147,Bric Grafia,448.0
44.49599,8.435334,Bric Tiazze,442.0
44.409985,8.221628,Bric Marazzuta,686.0
44.12191,7.993172,Rocca Asperiosa,1142.0
44.13266,7.991692,Rocca Battaglina,1367.0
44.020912,8.146023,Monte Tirasso,586.0
44.215134,8.189638,Bric Fossa,1005.0
44.18489,8.15992,Poggio Bue,1055.0
44.382515,8.099668,Bric San Bernardo,673.0
44.336105,8.090497,Bric Croce di Ciandon,821.0
44.350033,8.109809,Bric d'Arcisi,824.0
44.32326,8.073142,Bric della Biscia,794.0
44.345856,8.088627,Cima della Langa,756.0
44.310566,8.08304,Monte Prà del Ciri,855.0
44.30889,8.252762,Bric Prato Fornace Nord,807.0
44.421257,8.477268,Bric Ciasu,446.0
44.193687,8.418938,Vetta Capo Noli,276.0
44.28394,8.405883,Bric Guardia,259.0
44.19973,7.6185846,Bec Rosso,2150.0
44.201492,7.6242533,Cima Baban,2100.0
44.24821,8.173147,Balzo della Foglia,1177.0
44.253754,8.17637,Bric Prua,1200.0
44.25396,8.184077,Rocca Rossa,1038.0
44.253036,8.194722,Rocca dei Francesi,1300.0
44.287964,8.372992,Bric No Pesu,280.0
44.258686,8.088729,Bric Gadino,901.0
44.256325,8.10979,Bric Parasacco,837.0
44.26157,8.097829,Bric del Cappellino,831.0
44.17479,7.69408,Cima Pareto,2532.0
44.229572,8.136172,Rocca del Lupo,850.0
44.249653,8.255944,Bric Chioggia,1041.0
44.36149,8.46103,Bric Vera,272.0
44.226856,8.194117,Bric Tortagna,1175.0
44.388382,8.22757,Bric d'Oggiù,567.0
44.470535,8.39588,Bric Avra,607.0
44.19958,8.349628,Monte Scala,313.0
44.382526,8.336073,Bric Beghina,515.0
43.994503,7.6098356,Cime d'Anan,1801.0
44.359932,8.491387,Bric Musei,290.0
44.355053,8.469741,Bric Parvin,285.0
44.357197,8.472601,Bric Pernice,181.0
44.370144,8.458361,Bric Bresciana,332.0
44.371704,8.438676,Campi Tomà,449.0
44.367752,8.461603,Cima Ciazzi,249.0
44.48636,8.482413,Rocca Colombi,435.0
44.29473,8.222131,Cima Ronco di Maglio,1110.0
44.313038,8.208287,Bric Rotondo,581.0
44.322548,8.187442,Bric Campi,721.0
44.328815,8.187993,Bric Castellaccio,745.0
44.32723,8.181129,Bric Maneggia,754.0
44.326275,8.190855,Bric Mongiarda,696.0
44.334324,8.168648,Bric Zozzi,840.0
44.324688,8.182125,Bric del Razzo,770.0
44.330227,8.186177,Bric dell'Arma,747.0
44.337593,8.173079,Bric Valazza,828.0
44.33492,8.188216,Bric Ovi,752.0
44.347218,8.148915,Bric Robella,777.0
44.261883,7.601488,Sperone Centrale,2265.0
44.20321,8.321134,Bric Le Pile,364.0
44.313217,8.151832,Bric Chimino,719.0
44.339436,8.14143,Bric Granardo,847.0
44.31586,8.144987,Bric Massimina,777.0
44.333534,8.132857,Bric Nan,844.0
44.335648,8.149391,Bric Spavola,892.0
44.330437,8.137647,Bric Valzemola,863.0
44.25531,8.141087,Bric Fonte dell'Omu,826.0
44.419647,8.336497,Bric Rodona,462.0
44.290657,8.14835,Monte Camulera,1224.0
44.26672,8.138798,Bric Piangatto,797.0
44.262077,8.138559,Bric della Sliga,886.0
44.273396,8.140651,Bric della Torre,718.0
44.289772,8.149501,Monte Camulera Sud,1207.0
44.288742,8.151542,Monte Camulera,1163.0
44.340157,8.352147,Bric Gazzana,437.0
44.35916,8.256467,Bric dei Bodri,549.0
44.40039,8.235181,Cima dei Berti,638.0
44.362946,8.36167,Bric Lavesino,567.0
44.39205,8.387463,Bric del Tesoro,860.0
44.39259,8.383651,Rocca del Vento,852.0
44.383904,8.244248,Bric dei Crovi,651.0
44.38861,8.312625,Bric Mund,561.0
44.281998,8.258722,Rocca Tavana,640.0
44.06324,7.764248,Cima Omo dell'Alpetta,2052.0
44.1705,7.5225625,Monte Creusa est,2337.0
44.158974,7.5138836,Monte Chiamossero est,2418.0
44.17218,7.5272417,Cima Giosolette,2214.0
44.16976,7.5211687,Monte Creusa ovest,2335.0
44.177273,8.187656,Monte Carmo,1389.0
44.404053,8.458341,Bric Stantè,705.0
44.40892,8.474539,Pietra Gancio,554.0
44.39299,8.148678,Bric Pian Cavagna,731.0
44.39754,8.147863,Bric Biola,732.0
44.09174,7.8177543,Poggio Ciappa del Cuco,1298.0
44.08958,7.7917247,Poggio Forcarau,1286.0
44.090057,7.861037,Poggio Possanghi,1173.0
44.09355,7.7971144,Poggio San Martino,1401.0
44.10689,7.846108,Poggio dell'Allodola,1491.0
44.08913,7.848975,Poggio delle Forche,1196.0
44.130604,7.992838,Rocca Dorata,1219.0
44.136864,7.97851,Rocca della Spina,1487.0
44.14241,7.9845514,Truc Berengero,1394.0
44.181458,8.060752,Bric Schenasso,1052.0
44.17516,8.075571,Monte Zerbo,1007.0
43.893883,7.5680184,Cima dei Saviglioni,983.0
43.88401,7.560345,Colla Piana,676.0
43.945034,7.586032,Monte Paganaia,1340.0
44.151276,8.091995,Bric Rapaina,663.0
44.159313,8.0735655,Pizzo della Croce,851.0
44.15198,8.074426,Rocca della Merla,731.0
44.305668,8.276944,Bric Fornelli,655.0
43.954906,7.667909,Le Selle,1005.0
43.946716,7.654154,Poggio del Grillo,772.0
44.177334,8.206027,Bric Pratello,950.0
44.192066,8.034955,Monte Cornarca,810.0
44.1064,8.021587,Monte Torretta,852.0
44.084736,8.135118,Croce di Conscente,307.0
44.069595,8.101572,Poggio Pini,282.0
44.06143,8.118682,Punta Gazzulin,224.0
44.15813,7.508768,Monte Chiamossero ovest,2422.0
44.388367,8.335268,Bric Ramà,567.5
44.31905,8.207508,Bric Sarval,667.0
44.01794,8.008368,Monte Lodoretta,469.0
44.015377,8.00523,Poggio Fossi,567.0
44.020687,8.028414,Poggio Grosso,551.0
44.45262,8.390121,Bricco Croce,539.0
44.464584,8.392511,Bric dei Ciazzi,548.0
44.444374,8.430955,Bric della Croce,518.0
44.304905,8.137166,Bric dell'Arma,890.0
44.032528,7.905938,Monte Crocetta,642.0
44.335117,8.138337,Bric Pian d'Astu,834.0
44.217964,8.099039,Bric Murina,876.0
44.213356,8.09274,Bric Lionda,1089.0
44.20836,8.084151,Bric Scravaiazza,1127.0
44.22449,8.10007,Bric Beretta,852.0
44.232395,8.10332,Bric Cano,845.0
44.103046,7.990438,Rocca del Bozzaro,947.0
44.232548,8.348742,Bricco du Lurdu,327.0
44.264977,7.625853,Cima Praviné,1634.0
44.344566,8.213959,Bric della Feia,672.0
44.0433,7.7795744,Cima dell' Ortica,1840.0
44.03518,7.7763586,Cima Ubago di Medan,1500.0
43.96706,7.849588,Croce Alpe di Baudo,1270.0
44.004917,7.828785,Pizzo Penna,1460.0
44.003178,7.8246007,Carmo dell'Omo,1520.0
44.026962,7.803347,Poggio Buoi di Raxin,1700.0
44.031624,7.800904,Poggio d'Alpette,1729.0
43.985073,7.8077736,Croce della Colletta,909.0
44.327816,8.229322,Bric dei Culazzi,744.0
44.02372,7.7081337,Bric dei Corvi,1260.0
44.052876,7.793521,Poggio Scaravaglione,1584.0
44.0333,7.800612,Rocca dell'Agnello,1729.0
44.04403,7.760992,Giaire,1525.0
44.083843,8.116839,Rocca Liverna,552.0
44.089916,8.093799,Croce di Arnasco,646.0
44.362682,8.251357,Bric Montenudo,514.0
43.9479,7.6458592,Colla Mirabello,690.0
43.95366,7.6541905,Poggio d'Avigna,971.0
44.131447,7.960481,Monte Pesauto,1544.0
43.859173,7.606298,Cima Tramontina,525.0
44.350857,8.199995,Bric San Bernardo,626.0
44.346542,8.200048,Bric San Bernardino,609.0
44.044594,7.735194,Rocca Barbone,1627.0
44.04809,7.737784,Rocca Rossa,1804.0
44.070858,7.7722425,Cima Caruetta,1837.0
44.39798,8.460859,Cima di Zunchi,534.0
44.083588,7.814722,Poggio Colletti,1024.0
44.103016,7.794282,Cima del Grilletto,1327.0
44.09592,7.8050647,Poggio dei Preti,1351.0
44.098,7.809622,Poggio Carpano,1395.0
44.103333,7.934274,Rocca delle Penne,1501.0
44.1761,8.306335,Torre di Bastia,320.0
44.15937,8.215716,Bric Ventosa,468.0
44.37261,8.480002,Bric Basia,416.0
44.36907,8.476616,Bric Caeffù,367.0
44.032764,7.7042456,Testa delle Collette,1422.0
44.411762,8.220858,Bric della Posa,697.0
44.14639,7.7101307,Rocca del Ferà,2230.0
44.1478,8.257531,Bric dei Cinque Alberi,206.0
44.143272,7.504593,Rocca dell'Abisso Cima sud / Roche de l'Abisse Cime sud,2750.0
44.295845,7.9565077,Bric del Monte,1208.0
44.43875,8.459749,Bric Rovere Grossa,616.0
44.244663,7.795763,Cima Ciuiera,1820.0
44.242622,7.7971964,Punta del Vallon,1840.0
44.230694,7.7742023,Le Trucche,1921.0
44.2334,7.7682605,Costa Losera,1906.0
44.239117,7.766898,Trucca il Gaviot,1783.0
44.247337,7.789044,Trucca la Balmetta,1705.0
44.247856,7.7683535,Trucche del Bontempo,1596.0
44.258266,7.757061,Cima Marzolere,1508.0
44.23492,7.80244,Trucche delle Prè,1802.0
44.240356,7.7828984,Trucca Sapè,1695.0
44.303,7.861115,Bric Rivoera,1054.0
44.297905,7.9096437,Monte Savino,1089.0
44.001797,7.5359426,Cime de Pesourbe,1002.0
44.017143,7.527376,Cime de Lavaille,1367.0
43.872547,7.584681,Testa Maimona,732.0
44.118877,7.5129995,Cime de Gratin,2133.0
43.989536,8.14909,Poggio Balaie,370.0
43.99369,8.152833,Poggio Brea,370.0
44.238583,8.206798,Bric Pelazza,1220.0
44.24227,8.346718,Rocca della Volpe,373.0
44.24202,8.345667,Bricco del Poggio,385.0
44.323574,7.64811,Monte Fallonio,694.0
44.11626,7.7297416,Bric Scravaglion,1745.0
44.229187,7.7843356,Cima Vuran,1905.0
44.232944,7.788187,Cima Artesinera,1922.0
44.29285,7.846101,Bric Stella,810.0
44.12165,8.105758,Poggio Monfalcone,488.0
43.993736,8.131022,Poggio Cunio,213.0
44.00307,8.121583,Poggio Ventoso,290.0
43.995922,8.099442,Poggio Carmo,331.0
43.98421,8.063859,Pizzo Pegno,746.0
43.832165,7.502493,La Tour,1030.0
44.10321,8.110073,Monte Arena,536.0
43.987442,8.008296,Pizzo Montin,952.0
43.943787,7.923991,Poggio della Croce,681.0
44.287064,7.840841,Grup della Cisa,925.0
44.282722,7.8442736,Bric Vernaglio,1102.0
44.099598,8.212723,Poggio Castellaro,179.0
44.07045,8.073746,Carimonti,438.0
44.16835,8.092498,Rocca d'Ellera,1063.0
43.926243,7.5620127,Cime de Crémo,1501.0
44.499493,8.294826,Monte Bergone,418.0
44.07915,8.14589,Colle di Citano,255.0
43.98162,7.689555,Poggio Tenarda,1446.0
43.98987,7.680534,Colle della Sella,1580.0
43.90979,8.003363,Monte Pozzu,374.0
44.452393,8.460786,Bric Riondo,659.0
44.45702,8.453244,Bric Gruppè,658.0
44.437202,8.454882,Monterotondo,555.0
44.221004,8.143144,Bric Barozzo,1100.0
44.18188,8.122697,Poggio Leone,846.0
44.402973,8.216051,Bric Ferreroi,628.0
44.391945,8.341678,Bric del Cornato,601.0
44.451252,8.274154,Bric Valcrosa,453.0
44.450157,8.272458,Bric Schena,472.0
44.468838,8.471836,Bric della Croce,621.0
44.47327,8.472911,Bric Rocche Turchine,605.0
44.183895,7.581946,Punta Buffe,1525.0
44.247055,7.810344,Costa del Formaggio,1325.0
44.289684,7.765839,Bric Miroglio,1110.0
44.296818,7.7716994,Cima Castelletto,1087.0
44.272297,7.786225,Gruppo del Dente (Il Gatto),1552.0
44.202385,7.856836,Rocca Becco Rosso,1710.0
44.21116,7.8406982,Serra di Monterossino,1510.0
44.07975,7.8483315,Bric Bruciato,949.0
44.25565,7.778079,Collina dei Daini,1521.0
44.302204,7.966092,Bric Garofano,952.0
44.29667,7.9747157,Bric Castlè,735.0
44.24472,7.769753,Trucca la Comuna,1614.0
44.291122,7.7931595,Cima Colletto,1004.0
44.24176,7.823974,Le Gure dei Becchetti,1500.0
44.24676,7.840813,Rocce L'Ancoffa,1059.0
44.23037,7.8184185,Trucche Ciape,1554.0
44.224216,7.8204036,La Guglia,1241.0
44.23124,7.806588,Serre Murau,1686.0
43.90967,7.589575,Monte Terca,1070.0
44.24627,7.741161,Trucca della Turra,1755.0
44.2699,7.761747,Cima Fornelli,1314.0
44.277584,7.780597,Bric Rodorera,1270.0
44.26605,7.8122544,Cima Ciandre,1315.0
44.271194,7.797095,Serra del Pick,1450.0
44.274895,7.8186107,Bric Masocca,1080.0
44.27975,7.822092,Monte Sapel,1008.0
44.294243,7.822126,Monte Pelato,1098.0
44.268024,7.832123,Bric Mamini,939.0
44.21539,7.820833,Cima Candera,1515.0
44.20161,7.8085093,Costa del Prel,1820.0
44.191708,7.818998,Costa Bella,1981.0
44.206394,7.825763,Trucca Lose,1612.0
44.21171,7.815178,Il Castellazzo,1579.0
44.186073,7.805816,Costa dello Zucco,2223.0
44.19386,7.7850733,Cima Ferlette,2394.0
44.208603,7.7827897,Dente della Brignola,1952.0
44.21503,7.7691617,Dente di Seirasso,2000.0
44.215508,7.7606125,Rocche di Seirasso,2181.0
44.175888,7.8219557,Rocca della Sella,2040.0
44.19538,7.849725,Cima Verzera,1993.0
44.192398,7.838087,Rocce Gazzaira,1723.0
44.210873,7.857712,Serra dei Lupi,1361.0
44.227444,7.8750124,Cima Surriot,1644.0
44.245373,7.878905,Bric del Lago,1501.0
44.252384,7.878413,Roccia Pamparina,1511.0
44.241207,7.734739,La Turra,1821.0
44.312675,7.8322625,Bric Roccon,915.0
44.29362,7.7841787,Rocca Davì,830.0
44.287483,7.7947664,Rocce di Costabella,895.0
44.237408,7.8115306,Monte Merdenzone,1767.0
44.301476,7.782762,Cima Ronco,1018.0
44.303684,7.8314347,Rocce dei Bassi,916.0
44.30918,7.792564,Serra Corta,980.0
44.304085,7.7740293,Bric Foltera,1193.0
44.30064,7.772738,Punta Bricca,1141.0
44.297348,7.828474,Rocche di Riva,898.0
44.315125,7.8537035,Bric S. Bernardo,831.0
44.278057,7.854364,Bric Camulo,1336.0
44.300987,7.8675327,Bric Marole,995.0
44.22718,7.7045555,Il Carset,1965.0
44.223656,7.700133,Punta Pellerina,2097.0
44.14898,7.534378,Punta Bussaia,2101.0
44.206142,7.7435856,Monte Castello,2217.0
44.215897,7.728934,Monte Grosso,2046.0
44.20716,7.753143,Rocca dell'Inferno,2307.0
44.221344,7.6826305,Testa del Grupas,1804.0
44.217342,7.6811123,Punta Bartivolera,1957.0
44.23124,7.6951237,Baus d'L'Ula,1605.0
44.231777,7.678231,Funtanin,1370.0
44.244698,7.7504954,Trucca Ceresole,1481.0
44.208305,7.67613,L'Ubée di S. Lorenzo,1506.0
44.2098,7.707554,Cima della Madonna,2099.0
44.199352,7.7125144,Rocche di Serpentera,2239.0
44.183945,7.7353864,Rocca del Pis,2343.0
44.165066,7.7751107,Bricchi Neri,2296.0
44.186672,7.7265015,P.ta Havis de Giorgio,2203.0
44.180298,7.734781,Punta Rovereto,2381.0
44.17004,7.7733345,Cima delle Colme Est,2372.0
44.182724,7.725221,Rocche Biecai,2230.0
44.18244,7.734725,Cima delle Masche,2394.0
44.18021,7.7216806,Rocca di Maraquaià,2401.0
44.264282,7.6737432,Rocca Baussalina,1063.0
44.263203,7.681842,Rocca Luchin,1232.0
44.232258,7.672669,Testa del Pari,1225.0
44.260403,7.6886697,Costa Combassa,1397.0
44.255756,7.7256203,Bric Borgognone,1321.0
44.283463,7.749785,Bric Baracco,906.0
44.271828,7.714595,Rocca Soprana,1462.0
44.267967,7.749669,Bric Perrino,1161.0
44.317894,7.772601,Punta Tamerla,977.0
44.311596,7.75874,Bric Menzano,824.0
44.305298,7.718064,Bric Masalva,752.0
44.300983,7.716279,Bric Gaiurri,859.0
44.28849,7.727348,Bric Agacio,1176.0
44.303993,7.7315326,Bric Lovera,850.0
44.30915,7.8244762,Monte Cervetto,1003.0
44.30939,7.80813,Bric Castello,778.0
44.3102,7.87317,Bric della Croce,936.0
44.23789,7.876773,P.ta delle Rocchette,1531.0
44.286087,7.886932,Bric Miazzola,1048.0
44.34216,7.8083253,Bric Garavetto,661.0
44.318596,7.885024,Bric delle Vigne,812.0
44.337322,7.877038,Bric Camerano,729.0
44.32639,7.867137,Bric Rivoera,785.0
44.29633,7.7578187,Bric Rastelli,830.0
44.308273,7.884927,Monte Grosso,884.0
44.357063,7.914492,Bric delle Rocchette,674.0
44.35563,7.8839226,Bric Pasquin,705.0
44.306076,7.901197,Bric della Guardia,996.0
44.30073,7.8991475,Bric Rolanda,997.0
44.273785,8.085003,Bric Fusare,1058.0
44.32792,7.7628937,Costa di S. Matteo,945.0
44.304485,7.908112,Bric Nero,1078.0
44.31314,7.91425,Bric del Frate,1064.0
44.265797,7.8927817,Bric dei Tiè,1242.0
44.242863,7.8581586,Rocca Lumazzao,1357.0
44.239147,7.859535,Rocca Brusetti,1426.0
44.37719,8.486606,Monte Ciri Sud,477.0
43.921055,7.5408535,Mairise,1223.0
44.089127,7.710701,Pointe de Farenga / Punta Farenga,2209.0
44.28765,8.40405,Bricco,157.0
44.271816,8.390669,Cima delle Rocche Bianche,559.0
44.409157,8.405565,Poggio dell'Orso,695.0
44.17252,7.607653,Monte Alpetta,1927.0
44.47025,8.476146,Bric di Moricale,510.0
44.231556,7.7818484,Punta Alpet,1924.0
44.211323,8.13391,Monte Ansereo,1006.0
44.234215,8.179528,Bric Barbottina,1003.0
44.24347,7.8175893,Costa Roccia Bianca,1560.0
44.30482,7.7975435,Rocca Ferraia,780.0
44.28558,7.7851915,Cima del Fai,1161.0
44.267986,8.243919,Monte Fontanette,906.0
44.300716,8.209343,Bric Bagnasacco,898.0
44.321415,8.223177,Bric Costabella,675.0
44.303036,8.207136,Bric del Pozzo,870.0
44.320225,8.247061,Bric Pisciarotta,684.0
44.295467,8.243182,Cima La Palina,978.0
44.31739,7.5114417,Bric Berciassa,962.0
44.330524,8.231074,Bric delle Rocche,698.0
44.357452,8.254383,Bric Casanova,553.0
44.335094,8.233438,Bric Mulet,750.0
44.313942,8.203882,Bric Prà Nive,586.0
44.259674,8.208505,Bric Prionazzi,1038.0
44.260723,8.357604,Rocca dei Corvi Est,750.0
44.26629,8.207838,Bric Ciapazzi,945.0
44.253742,8.196992,Rocca del Falò,1250.0
44.445427,8.05641,Bric Pedaggera,806.0
44.31832,7.9800534,Rocce del Groppo,640.0
43.85352,7.6498055,Cima Rebuffao,527.0
43.807713,7.6423836,Monte Santa Croce,358.0
44.058144,7.824107,Poggio Bastia,941.0
44.32443,7.9690404,Rocca di Fre,703.0
44.039883,7.814003,Poggio Pian del Latte,1778.0
44.121227,7.939432,Rocca l'Arma,1390.0
44.14239,7.941264,Castello d'Ardea,1432.0
44.132637,7.7496395,Rocca di Pian Cavallo,1596.0
44.141537,7.7223854,Rocca del Praet,2021.0
44.11633,7.8706994,Rocca Slanciata,1013.0
44.11389,7.860022,Rocca Pennina,1401.0
44.134033,7.8724284,Poggio la Colma,1570.0
44.14233,7.8522797,Monte Castello di Quarzina,1773.0
44.132034,7.861859,Poggio Brignacchi,1538.0
44.3348,7.616838,San Giorgio,668.0
44.15365,7.982997,Monte Scalabrino,1377.0
44.4767,8.393316,Bric Grifone,560.0
44.48278,8.392697,Bric Barasan,530.0
44.322784,7.690915,Monte Cavanero,854.0
44.33989,7.947843,Bric del Solio,805.0
44.270325,7.967718,Bric Giairino,1075.0
44.304493,7.8785796,Bric Roccarina,1018.0
44.322453,7.9786024,Bric Pazienza,634.0
44.250767,8.178609,Piazza dei Tre Venti,1227.0
44.357887,8.211575,Bric Tana,537.0
43.820248,7.514015,Cime de Crose,1115.0
43.80512,7.518047,Castel del Lupo,864.0
43.83542,7.5081787,Tête Compasses,1263.0
43.98858,7.6460047,Aiguille de Girenze,1718.0
43.968216,7.50421,Tête de Piné,1053.0
44.105576,7.562666,Mont Branègue,1161.0
44.068836,7.635168,Mont Corni,990.0
43.95258,7.56096,La Pointe Commune,1549.0
44.051167,7.60554,Cime de Riodore,1366.0
44.002293,7.6286263,Cime de Casoulette,1889.0
43.88571,7.506333,Pointe Costéra,514.0
44.127842,7.575006,Le Caïron,1642.0
44.007793,7.6059155,Cime de Larze,1568.0
44.02413,7.5507517,Les Cavales,1260.0
43.97396,7.643414,Cime de Logambon,1632.0
44.079132,7.625664,Cime des Lardères,1542.0
43.94209,7.536291,Cime d'Aïné,1216.0
44.089874,7.5337124,Mont Ourne,2120.0
44.105457,7.5060787,Mont du Castel,1598.0
44.115047,7.578118,Rabiné,1488.0
44.12129,7.548584,Mont Déveille,1640.0
44.050625,7.5151224,Pointe Commune,2215.0
44.094246,7.57663,Rocher de Maïma,1516.0
44.056755,7.6897926,Cime de la Male,1560.0
44.168816,8.284042,Punta Lamina,305.0
44.08075,7.6664944,Cime Volpaira,1445.0
44.051838,7.503669,Pointe de Viole,2313.0
44.083252,7.543652,Cime du Prêtre,2139.0
44.11658,7.530199,Cime de Bouscayé,2033.0
44.08916,7.6221647,Crête d'Ugail,1658.0
44.150166,7.591204,Cime du Bec Roux,2210.0
44.408356,8.458909,Pietra Nigin,753.0
43.881126,7.5068307,Pointe Bèque,349.0
44.404846,8.475555,Bric Monterazzo,489.0
43.94753,8.124438,Colle Dico,368.0
44.176357,7.679533,Cime de l'Armusse,2526.0
44.17699,7.6506715,Mont de Carsène,2383.0
43.953575,7.5693,Scaffa de Gia,1421.0
43.89579,7.553589,Cime de Dréjé,869.0
43.968674,7.5133824,Tête de Gan,1024.0
44.132977,7.5855503,Cime de Tavan,1912.0
44.142998,7.623955,Cime Aurusi,2048.0
44.108665,7.656336,Roche Falconare,1677.0
43.844315,7.503165,Brec de Trétore,1187.0
43.913734,7.5579376,Mont de la Povére,1163.0
44.4948,8.211556,Bric Cian Pasquela,714.0
44.47295,8.212081,il Bricco,674.0
44.46741,8.193256,Bric la Pareta,576.0
44.46011,8.187836,Bric Pian della Casa,632.0
44.455334,8.172452,Bric della Brunetta,749.0
44.443024,8.179004,Bric Orso,731.0
44.438496,8.182795,Bric Giampeire,762.0
44.441124,8.196677,Bric del Pilo,810.0
44.44843,8.191027,Bric sulla Langa,676.0
44.43402,8.205347,Bric Baraccone,765.0
44.426105,8.204679,Bric Brancarelle,725.0
44.413803,8.179116,Bric Castelvecchio,591.0
44.408134,8.199339,Bric Torretta,647.0
44.407516,8.201311,Bric Termine,641.0
44.435143,8.218642,Bric dei Sieizi,774.0
44.441696,8.223913,Bric Ciappelle,694.0
44.479298,8.161912,Bric dei Faggi,863.0
44.480297,8.145939,Bric della Colma,815.0
44.468903,8.145298,Bric della Valbella,724.0
44.493034,8.081004,Bric Gerbazzo,875.0
44.485943,8.084117,Bricchetto,805.0
44.46261,8.069571,Bric del Poggio,828.0
44.466396,8.091455,Bric Pedicaro,854.0
44.4512,8.104896,Bric Ronchetto,701.0
44.446957,8.108178,Bric delle Forche,712.0
44.441135,8.114037,Bric Pasiotti,731.0
44.432953,8.123456,Bric Giacotto,775.0
44.436325,8.137118,Bric Pistolin,559.0
44.44611,8.083602,Bric del Paluco,815.0
44.41816,8.131519,Bric Morzano,762.0
44.41421,8.1294155,Bric Biola,745.0
44.41225,8.148688,Bric Calcinera,762.0
44.39764,8.138714,Bric Vallette,675.0
44.391655,8.137764,Bric Colett,722.0
44.38198,8.137866,Colle Monte,785.0
44.387665,8.131268,Bric del Pedaggio,725.0
44.394623,8.1237545,Bric Maioli,664.0
44.399204,8.118331,Bric Meriano,725.0
44.33274,7.9469504,Bric di Val Tardita,915.0
44.181236,7.9323716,Rocca Ronzino,1805.0
44.169262,7.6478615,Castel Chevolail,2274.0
43.78794,7.530151,Cime de la Giraude,231.0
44.427486,8.467316,Bric Rionero,550.0
44.157906,7.6011224,Bric Campanin,2262.0
44.32618,8.296676,Bric Restugio,520.0
44.341118,8.296847,Bric Dorin,501.0
44.112885,7.843073,Rocca Castelletto,1427.0
44.4342,8.458037,Il Castello,562.0
44.482315,8.337848,Bric Moliere,491.0
44.483814,8.340898,Bric Merlin,491.0
44.47911,8.370445,Bric Fontane,575.0
44.484406,8.358709,Bric dell'Era,493.0
44.486538,8.38088,Monte Orsaro,578.0
44.495167,8.382403,Bric del Francese,515.0
43.830837,7.510382,Tête de l'Ansierra,1159.0
43.79288,7.618877,Monte Maure,210.0
44.004265,8.138716,Bric Alpicella,384.0
44.139088,7.7280035,Cima del Caplet,1958.0
