latitude,longitude,name,elevation
16.475494,-85.88954,Michaels Peak,415.0
15.919051,-85.91782,Cerro de Capiro,667.0
15.908393,-85.90669,Cerro Moradel,625.0
15.860688,-85.969795,Cerro de Las Moras,943.0
15.874473,-85.94571,Cerro de Calentura,1235.0
15.889038,-86.06354,Cerro Montecristo,285.0
