latitude,longitude,name,elevation
17.496202,81.47189,Chita Konda,660.0
16.954742,80.59156,Jamalavoidurgam,566.0
16.892878,80.54519,Amudalu Gutta,300.0
16.904816,80.53628,Pandavula Gutta,400.0
16.92559,80.569305,Jalari Gutta,300.0
16.910286,80.601074,Adda Gattu,200.0
16.821953,80.7778,Nalla Gattu,300.0
16.894138,80.802795,Dal Gattu,400.0
