latitude,longitude,name,elevation
61.844006,-147.46732,Gunsight Mountain,1963.0
61.83256,-147.3274,Knob Hill,1051.0
61.615883,-147.46452,Greenland Peak,2574.0
61.617325,-147.4289,Iceland Peak,2704.0
62.019535,-146.82825,Slide Mountain,1220.0
61.581528,-147.38419,Finland Peak,2867.0
61.57573,-147.45088,Denmark Peak,2640.0
61.57288,-147.39885,Sweden Peak,2752.0
61.59061,-147.39922,Norway Peak,2731.0
61.510426,-147.01312,Mount Siegfried,2806.0
61.99127,-147.3161,Table Mountain,1320.0
