latitude,longitude,name,elevation
-17.537922,12.422768,Kandao,537.0
-17.772877,12.43297,White Hills,1285.0
-17.729687,12.461193,White Hills,1185.0
-17.897896,12.261735,Ondonduengo,924.0
-17.608171,12.21254,Ohandja,1039.0
-18.472883,12.44613,Sanitatos,642.0
