latitude,longitude,name,elevation
-30.81434,-55.46593,Cerro da Vigia,270.0
-30.825977,-55.47259,Cerro do Raio,230.0
-30.814919,-55.43637,Cerro Corcunda,280.0
-30.69665,-55.364124,Cerro da Arara,230.0
-30.715006,-55.44133,Cerro da Tafona,290.0
-30.70664,-55.346542,Cerro da Cruz,300.0
-30.647305,-55.38467,Cerro Agudo,252.0
