latitude,longitude,name,elevation
63.375942,18.69214,Klingreberget,230.0
63.2667,18.833921,Hornöberget,135.0
63.05118,18.51479,Mjaltön,236.0
63.190952,18.616356,Hålvikshöjden,185.0
63.27409,18.506834,Själandsberget,162.0
63.46398,18.526726,Storbackhöjden,331.0
