latitude,longitude,name,elevation
47.693516,12.986619,Berchtesgadener Hochthron,1972.0
47.57571,13.020283,Jenner,1874.0
47.643612,13.358334,Egelseehörndl,1782.0
47.80512,13.112722,Gaisberg,1287.0
47.62332,13.4806595,Gamsfeld,2027.0
47.73318,12.696665,Hinterer Rauschberg,1671.0
47.750576,12.515785,Hochgern,1748.0
47.569324,12.865812,Hochkalter,2608.0
47.686367,12.892716,Karkopf,1739.0
47.698837,12.826745,Rabensteinhorn Nordgipfel,1318.0
47.66685,13.485891,Rinnkogel,1823.0
47.77658,13.433485,Schafberg,1783.0
47.606194,13.237729,Schwarzer Berg,1584.0
47.51472,12.535,Wallerberg,1682.0
47.56812,13.478249,Hornspitz,1433.0
47.714115,13.114751,Oberalmberg,726.0
47.75168,13.1268635,Mühlstein,1059.0
47.594345,12.965453,Grünstein,1304.0
47.65815,13.017896,Kneifelspitze,1189.0
47.540077,12.993119,Warteck,1741.0
47.510555,12.6038885,Unterberg,1187.0
47.688915,13.077741,Kleiner Barmstein,841.0
47.694275,13.466194,Sparber,1502.0
47.81137,13.310359,Frauenkopf,1304.0
47.82196,13.469324,Hochplettspitze,1134.0
47.69158,12.883758,Hochschlegel,1688.0
47.632008,12.786305,Großer Weitschartenkopf,1979.0
47.61863,12.836902,Edelweißlahnerkopf,1953.0
47.673157,13.363223,Osterhorn,1746.0
47.808136,12.89995,Högl,827.0
47.754963,12.848758,Hochstaufen,1771.0
47.67476,13.3095045,Gennerhorn,1734.0
47.73499,13.338274,Pillsteinhöhe,1478.0
47.74251,13.351429,Zwölferhorn,1521.0
47.547234,12.632201,Nackter Hund,2372.0
47.558422,12.92379,Hocheck,2651.0
47.626587,12.775901,Großer Bruder,1864.0
47.801346,13.346266,Marienköpfl,1074.0
47.52804,12.862663,Großes Palfenhorn,2222.0
47.682213,12.695803,Sonntagshorn,1961.0
47.586643,13.069997,Großer Archenkopf,2391.0
47.864803,13.371069,Mondseeberg,1029.0
47.850723,13.406272,Kulmspitze,1095.0
47.54097,12.643186,Großes Reifhorn,2488.0
47.69086,13.2561655,Sattelköpfel,1478.0
47.587494,13.099944,Hinteres Freieck,2309.0
47.58521,13.104743,Gruberhorn,2230.0
47.58396,13.120724,Schönbachkopf,1870.0
47.555744,13.185101,Kastenspitz,1679.0
47.53288,13.12454,Tristkopf,2107.0
47.521885,13.121719,Hölltalkogel,2077.0
47.760353,13.156579,Schwarzenberg,1334.0
47.69081,13.075538,Großer Barmstein,851.0
47.55439,12.922034,Watzmann-Mittelspitze,2713.0
47.569736,13.031474,Königsberg,1656.0
47.57599,13.040447,Pfaffenkegel,1850.0
47.512726,12.884925,Großer Hundstod,2593.0
47.613228,12.829804,Schottmalhorn,2045.0
47.601803,12.783941,Großes Häuselhorn,2284.0
48.106575,13.491491,Guggenberg,697.0
48.107487,13.460539,Hengstberg,685.0
48.069576,13.443084,Schnepfenlecke,683.0
47.805656,12.768208,Teisenberg,1333.0
47.750988,12.557954,Weissgrabenkopf,1578.0
47.781307,12.677379,Zinnkopf,1227.0
47.747143,12.757285,Falkenstein Südgipfel,1181.0
48.05272,13.436025,Hobelsberg (Ries´n),777.0
48.061733,13.440552,Hörndl,748.0
47.805714,13.365522,Almkogel,1030.0
47.676872,12.892724,Törlkopf,1704.0
47.68871,12.889897,Schreck,1725.0
47.69022,12.90509,Keilkopf,1602.0
47.69018,12.911327,Mottkopf,1554.0
47.692844,12.914471,Hinterer Rotofen,1460.0
47.694317,12.918975,Mittlerer Rotofen,1396.0
47.693707,12.922432,Vorderer Rotofen,1368.0
47.631126,12.923317,Toter Mann,1392.0
47.953655,13.108558,Buchberg,801.0
47.681145,13.408531,Wieslerhorn,1603.0
47.668507,12.699587,Peitingköpfl,1720.0
47.745464,12.559803,Gröhrkopf,1562.0
47.60999,12.50887,Fellhorn,1765.0
47.54803,12.916956,Watzmann-Südspitze,2712.0
47.64767,13.08619,Zinkenkopf,1336.0
47.529587,12.916452,Hirschwiese,2114.0
47.516678,12.853117,Seehorn,2321.0
47.510677,12.911593,Großer Schneiber,2330.0
47.531578,13.032083,Kahlersberg,2350.0
47.669174,12.976513,Großer Rauher Kopf,1604.0
47.59425,13.016067,Hinterer Brandkopf,1156.0
47.59858,13.012946,Vorderer Brandkopf,1068.0
47.53941,13.010272,Gotzentauern,1858.0
47.54884,13.030916,Fagstein,2164.0
47.55694,13.032971,Rothspielscheibe,1940.0
47.560535,13.026646,Farnleiten,1716.0
47.534588,13.023722,Lafeldkopf,2074.0
47.51178,12.9449415,Simetsberg,1883.0
47.51633,12.910926,Gjaidkopf,2268.0
47.520023,12.906903,Graskopf,2094.0
47.55969,12.854934,Steintalhörnl,2468.0
47.551353,12.852806,Hinterbergkopf,2247.0
47.5822,12.874681,Schärtenspitze,2153.0
47.55889,12.942455,Kleiner Watzmann,2307.0
47.560505,12.956114,Mooslahnerkopf,1815.0
47.588665,12.956999,Schapbachriedel,1329.0
47.54367,12.903664,Griesspitze,2257.0
47.53081,12.934104,Hachelkopf,2066.0
47.589664,13.126159,Kleiner Göll,1753.0
47.58667,13.1096735,Vorderes Freieck,2142.0
47.598858,12.791725,Wagendrischelhorn,2251.0
47.60239,12.79705,Unterer Plattelkopf,2106.0
47.60546,12.802836,Oberer Plattelkopf,2098.0
47.61026,12.807418,Reiter Steinberg,2060.0
47.611176,12.81527,Prünzlkopf,2081.0
47.612095,12.824535,Hohes Gerstfeld,2031.0
47.505283,12.880144,Kleiner Hundstod,2263.0
47.709026,12.888298,Dötzenkopf,1001.0
47.732956,12.683938,Rauschberg,1645.0
48.45555,13.210245,Geldfelsen,505.0
47.857994,13.385204,Zur Aussicht,1032.0
47.71471,12.85637,Bürgermeisterhöhe,770.0
47.729313,12.64012,Unternberg,1450.0
47.74664,12.742054,Inzeller Kienbergl (Kreuzspitz),1135.0
47.794876,13.036276,Rainberg,511.0
47.723633,12.983309,Kühstein,1430.0
47.5549,13.077048,Schneibstein-Ostgipfel,2101.0
47.54505,12.832709,Kammerlinghorn,2483.0
47.956264,13.273471,Irrsberg,832.0
47.666275,13.374995,Großer Pitscherberg,1720.0
47.702007,13.332236,Königsberger Horn,1620.0
47.690674,13.333092,Hochthron,1571.0
47.674664,13.2989025,Gruberhorn,1732.0
47.6805,13.288818,Regenspitz,1675.0
47.679043,13.328614,Holzeck,1649.0
47.669754,13.347073,Hoher Zinken,1764.0
47.70682,13.297629,Feichtenstein,1249.0
48.2911,12.578028,Hampersberg,471.0
47.516205,13.099049,Hochwieskopf,2185.0
47.501842,13.115076,Hochgschirr,2261.0
47.507496,13.100323,Pitzkogel,2241.0
47.500336,13.086857,Tanntalkopf (O),2271.0
47.544334,13.072184,Eiblhöhe,1960.0
47.544067,13.079908,Blösing,1924.0
47.55261,13.091351,Rotwandkopf,1940.0
47.56308,13.14906,Kratzspitz,1759.0
47.785854,12.618386,Rabenstein (westl.),924.0
47.741936,12.560492,Haaralmschneid,1594.0
47.794895,13.047084,Festungsberg,548.0
47.735893,12.712277,Streicher,1594.0
47.53807,12.660472,Großes Ochsenhorn,2513.0
47.53647,12.65061,Schihörnl,2286.0
47.544975,12.599545,Seehorn,2155.0
47.547665,12.605556,Schaflegg,2176.0
47.55293,12.613633,Großes Rothorn,2409.0
47.551983,12.615963,Östliches Rothorn,2404.0
47.52428,13.481381,Großer Donnerkogel,2050.0
47.5692,12.6531,Brenntenkopf,1448.0
47.5281,12.6761,Windegg,1318.0
47.5608,12.6056,Elferhörnl,1990.0
47.5722,12.6839,Franzenshöhe,908.0
47.5283,12.6883,Schnappen,1392.0
47.5561,12.6322,Gute Wand,2080.0
47.563427,12.652382,Alblhorn,1993.0
47.5286,12.6203,Brünnlberg,1475.0
47.5553,12.6272,Kirchl,1994.0
47.56889,12.664389,Anderlkopf,1469.0
47.5653,12.6867,Rauchenberg,1293.0
47.5464,12.6714,Lärchhörnl,1857.0
47.5371,12.6291,Westliches Geiselhorn,2291.0
47.5557,12.6426,Breithorn,2413.0
47.543278,12.682972,Vorderhorn,2110.0
47.5292,12.7053,Ödenberg,1205.0
47.5514,12.7086,Thurnegg,1368.0
47.55195,12.609928,Rothörndl,2395.0
47.5158,12.7069,Vorderkaserkopf,1072.0
47.5392,12.6678,Mittleres Ochsenhorn,2365.0
47.55937,12.597895,Brunnkopf,1799.0
47.5664,12.6489,Wirtshörnl,1875.0
47.5169,12.6172,Weißleitberg,1295.0
47.5314,12.6419,Gamsköpfl,1853.0
47.5403,12.6719,Vorderes Ochsenhorn,2292.0
47.5639,12.6033,Wurzköpfe,1767.0
47.5456,12.618865,Weißleithörnl,2057.0
47.5617,12.6367,Vorderhorn,2024.0
47.53066,12.654367,Dreispitz,1991.0
47.70627,12.583943,Hörndlwand,1684.0
47.815742,13.119912,Nockstein,1043.0
47.725433,13.353745,Spitzeck,1355.0
47.52688,13.355394,Tagweide,2128.0
47.69696,12.649352,Saurüsselkopf,1270.0
47.752304,12.784579,Gruberhörndl,1493.0
47.74506,13.360442,Elferstein,1376.0
47.882664,13.228852,Steinwandl,956.0
47.52642,13.332148,Großer Grießkogel,1999.0
47.534252,13.387467,Schober,1791.0
47.618298,13.361061,Einberg,1688.0
47.760956,12.581475,Strohnkopf,1462.0
47.59655,12.660946,Grubhörndl,1747.0
47.714466,13.003173,Großer Heubergkopf,1820.0
47.572002,12.869406,Blaueisspitze,2481.0
47.585735,12.877606,Steinberg,2065.0
47.572742,12.862429,Kleinkalter,2513.0
47.546173,12.847869,Wimbachschneidspitze,2368.0
47.562576,12.86142,Ofentalhörnl,2513.0
47.57957,12.890662,Stanglahnerkopf,1791.0
47.584106,12.861306,Schärtenwandkopf,2065.0
47.564262,12.867772,Schönwandeck,2450.0
47.578632,12.8621645,Rotpalfen,2367.0
47.554638,12.831676,Hocheishörnl,2252.0
47.55832,12.835713,Eislhörnl,2095.0
47.558804,12.828423,Vorderberghörnl,2083.0
47.55156,12.822208,Kleineishörnl,1934.0
47.54504,12.836358,Hochkammerlinghorn,2506.0
47.55092,12.839149,Hinterberghorn,2493.0
47.529755,12.853216,Sigeretkopf,2066.0
47.53303,12.846721,Prunnerkopf,2076.0
47.53233,12.870656,Kleines Palfenhorn,2073.0
47.52366,12.789574,Hochkranz,1953.0
47.520218,12.796928,Kühkranz,1811.0
47.553738,12.937818,1. Watzmannkind,2247.0
47.551926,12.933967,3. Watzmannkind,2209.0
47.55275,12.932898,4. Watzmannkind,2270.0
47.552696,12.931,5. Watzmannkind,2225.0
47.57261,12.923762,Watzmanngugel,1800.0
47.596947,13.039029,Dürreckberg,1785.0
47.591225,13.032707,Brettgabel,1805.0
47.514664,13.027598,Hochsäul,2073.0
47.55027,13.044642,Windschartenkopf,2211.0
47.54767,13.045214,Schlumkopf,2204.0
47.54205,13.036791,Hochseeleinkopf,2105.0
47.547115,13.150415,Steinwändhorn,1863.0
47.501984,12.823848,Rauchkopf,1953.0
47.500824,12.857422,Spitzhörndl,2027.0
47.510662,12.974411,Halsköpfl,1718.0
47.521492,13.483209,Steinriesenkogel,2008.0
47.519848,13.487192,Strichkogel,2034.0
47.527317,13.479145,Kleiner Donnerkogel,1916.0
47.753777,12.876148,Fuderheustein,1321.0
47.753517,12.87099,Fuderheuberg,1350.0
47.614407,12.965045,Losbichl,648.0
47.50837,12.727083,Lahnerhorn,2019.0
47.793694,13.040281,Richterhöhe,505.0
47.802067,13.0366955,Mönchsberg Nord,483.0
47.714264,13.387117,Breitenberg,1260.0
47.771988,13.461975,Feichtingeck,1412.0
47.771465,13.448304,Törlspitz,1589.0
47.773582,13.442548,Spinnerin,1725.0
47.683193,13.236598,Schmittenstein,1695.0
47.68171,13.21316,Schlenken,1648.0
47.641026,13.27415,Trattberg,1757.0
47.86811,13.036366,Sandkuchl,588.0
47.603786,12.578447,Steinplattengipfel,1848.0
47.604187,12.5801325,Steinplatte,1869.0
47.713394,12.892669,Wappbachkopf,750.0
47.51427,13.298399,Bleikogel,2411.0
47.721127,13.33728,Apfelkoch,1451.0
47.722157,13.335266,Illingerberg,1475.0
47.505196,13.041245,Bramasofenkopf,2147.0
47.535988,13.06207,Männlhöhe,2050.0
47.75385,13.461695,Vormauerstein,1450.0
47.539036,13.000323,Bärenköpfl,1712.0
47.54829,12.994761,Seeaukopf,1501.0
47.560165,13.012936,Sillenköpfe,1455.0
47.752026,12.50055,Zwölferspitz,1633.0
47.507675,13.115997,Jägerskopf,2138.0
47.508533,13.123099,Wassersteinkopf,2223.0
47.552612,13.062359,Brenneteck,1960.0
47.533215,12.996229,Klausbergl,1717.0
47.531715,13.097571,Umgäng,1946.0
47.569412,13.003064,Büchsenkopf,1247.0
47.509808,12.876582,Diesbacher Eck,2203.0
47.54321,12.895081,Zirbeneck,1794.0
47.50953,13.447543,Kopfberg,1147.0
47.812836,13.312192,Schober,1328.0
47.542683,12.923824,2. Sporn,1640.0
47.543255,12.92449,1. Sporn,1570.0
47.645695,13.394648,Labenberg,1642.0
47.74328,13.333887,Gartenberg,1454.0
47.745483,13.32516,Ochsenwandköpfl,1313.0
47.676754,13.441464,Thorhöhe,1533.0
47.68201,13.431047,Windkogel,1546.0
47.726875,12.514875,Kleiner Rechenberg,1466.0
47.7268,12.50911,Dampfschiff,1425.0
47.72697,12.500925,Großer Rechenberg,1366.0
47.74866,13.203101,Ochsenberg,1483.0
47.69704,12.783327,Ristfeuchthorn Kreuzgipfel,1566.0
47.696236,12.822838,Rabensteinhorn Südgipfel,1373.0
47.80515,13.057959,Kapuzinerberg,640.0
47.68922,13.27265,Bergköpfl,1480.0
47.72722,13.2331295,Wieserhörndl,1567.0
47.74024,13.296421,Loibersbacher Höhe,1457.0
47.796535,13.040418,Karolinenhöhe,508.0
47.513252,13.490074,Angerstein,2100.0
47.511024,13.499949,Mandlkogel,2279.0
47.71009,12.904223,Hochplatte,911.0
48.447933,13.098079,Kalvarienberg,413.0
47.787968,13.1432705,Gurlspitze,1158.0
47.813393,13.354815,Drachenstein,1060.0
48.039734,13.426508,Fachberg,757.0
47.723564,13.119538,Eberstein,776.0
47.93793,13.462586,Koglberg,680.0
47.891014,13.452793,Herrenberg,813.0
47.89369,13.489873,Kronberg,789.0
47.872852,13.478946,Rossmoos,1015.0
47.86719,13.468921,Zwerchbühel,934.0
48.039707,13.377091,Kalteis,734.0
47.641518,13.484075,Hohes Platteneck,1492.0
47.649456,13.491895,Bärenpfadkogel,1333.0
47.588554,13.129113,Bärenstuhl,1720.0
48.06913,13.38542,Schranne,727.0
48.02411,13.376323,Meisterholz,712.0
48.08854,13.3082695,Saustallberg,701.0
48.075283,13.311536,Ablegberg,723.0
48.05371,13.319762,Wienerhöhe,755.0
48.07311,13.237682,Gernerberg,658.0
48.081814,13.19646,Weinberger Höhe,628.0
48.05837,13.255548,St. Wolfgang,680.0
48.099125,13.230696,Martelberger Höhe,641.0
48.10026,13.358951,Steiglberg,767.0
47.6406,13.316518,Hochwieskopf,1754.0
47.726494,13.484435,Bürgl,745.0
47.64864,12.879218,Karspitz,1640.7
47.643353,12.875481,Jochköpfl,1575.0
47.71589,13.165967,Hohenschnaitberg,948.0
47.693356,13.149463,Guggenberg,739.0
47.876698,13.275146,Kolomansberg,1114.0
47.884926,13.236233,Große Plaike,1034.0
47.905003,13.280981,Hasenkopf,895.0
47.875908,13.209805,Zifanken,897.0
47.892254,13.264194,Lehmberg,1027.0
47.91617,13.246229,Hiesenberg,726.0
47.952015,13.330054,Kogler Berg,819.0
47.93805,13.339243,Schoibernberg,883.0
47.928356,13.329252,Gommersberg,806.0
47.944653,13.38651,Die Röten,819.0
47.934307,13.427846,Lichtenberg,885.0
47.918137,13.369004,Heissinger Höhe,875.0
47.92283,13.390207,Schindelberg,871.0
47.874184,13.3854885,Hochalm,956.0
47.90289,13.396629,Saurüssel,956.0
47.909546,13.392043,Schönleitenkogel,874.0
47.881474,13.346135,Lackenberg,925.0
47.526157,13.484001,Freyaturm,1991.0
47.78361,13.2579,Schmiedhorn,1224.0
47.784813,13.3021555,Bambichl,878.0
47.70521,12.5776825,Gurnwandkopf,1691.0
47.542446,12.64519,Kreuzreifhorn,2465.0
47.54443,12.647023,Kleines Reifhorn,2352.0
47.54917,12.626738,Mitterhorn,2483.0
47.549564,12.628183,Großes Hinterhorn,2506.0
47.537785,12.535607,Kirchberg,1678.0
47.53673,12.546954,Schafelberg,1597.0
47.576866,12.558654,Hausberg,1120.0
47.562073,13.057546,Schneibstein,2275.0
47.52261,12.996245,Kleines Regenbergl,1670.0
47.787575,13.441886,Weinkogel,1181.0
47.75364,12.818536,Zenokopf,1756.0
47.753475,12.838285,Mittelstaufen,1657.0
47.73414,13.140425,Raucheck,804.0
47.734634,12.719493,Zenokopf,1603.0
47.91483,12.996075,Haunsberg,835.0
47.72241,13.008738,Geiereck,1805.0
47.718018,13.004749,Salzburger Hochthron,1853.0
47.97086,13.100816,Wartstein,573.0
47.60969,13.045955,Kehlstein,1881.0
47.55714,13.326026,Arlstein,922.0
47.611732,13.379675,Retschegg,1268.0
47.60915,13.314162,Mosaukopf,1132.0
47.64554,13.477763,Hüttenkopf,1203.0
47.627605,13.465211,Schmalztrager,1889.0
47.625584,13.442836,Moosbergriedel,1788.0
47.623875,13.316169,Alpbichl,1477.0
47.570263,13.240512,Sattelberg,1022.0
47.634274,13.2596445,Gitschenwand,1527.0
47.64105,13.242109,Brunnerköpfl,1192.0
47.58168,13.21061,Lammeregg,894.0
47.691956,13.446139,Bleckwand,1541.0
47.58905,13.251866,Hühnerkopf,1118.0
47.74416,13.155663,Schatteck,922.0
47.551716,13.391784,Pailwand,1221.0
47.79523,13.312393,Ellmaustein,994.0
47.599155,13.176173,Rabenstein,628.0
47.595,13.189431,Haarberg,688.0
47.569168,13.166111,Arbeskogel,1026.0
47.726463,13.22052,Spielberg,1428.0
47.736267,13.2180195,Kallersberg,1401.0
47.75888,13.202584,Grünberg,1014.0
47.7496,13.234479,Seeberg,1014.0
47.78791,13.267831,Filbling,1307.0
47.684597,13.209899,Jägernase,1507.0
47.633904,12.701782,Liedersberg,1025.0
47.7078,12.975347,Mitterberg,1840.0
47.810154,13.284483,Feldberg,871.0
47.622044,12.673886,Dietrichshorn,1542.0
47.594284,12.634472,Hiefelstein,1642.0
47.58886,12.662471,Lachfeldkopf,1684.0
47.614613,12.647457,Schwarzeck,1565.0
47.588627,12.652797,Urlkopf,1564.0
47.592323,12.669827,Lärchberghörndl,1534.0
47.626022,12.681762,Thällerer Kogel,1337.0
47.64406,13.406434,Astegg,1483.0
47.760094,12.994527,Kleingmainberg,470.0
47.75517,12.991225,Großgmainberg,502.0
47.74756,12.98542,Krüzersberg,597.0
47.737335,13.388526,Troiferberg,883.0
47.76889,13.231944,Kugelberg,904.0
47.78543,13.393384,Nasenberg,753.0
47.772083,13.383454,Saurüssel,724.0
47.77954,13.403137,Kesselkopf,928.0
47.789448,13.360658,Obenauerstein,1027.0
47.779003,13.370165,Buchberg,805.0
47.79064,13.348706,Wallhüttenkopf,1116.0
47.798027,13.384611,Brandlberg,746.0
47.791027,13.377444,Eibenberg,923.0
47.798527,13.354925,Höllkar,1169.0
47.80609,13.347867,Plomberg,1102.0
47.549915,12.779002,Litzlkogel,1625.0
47.610607,12.867823,Wartstein,893.0
47.624523,12.771093,Kleiner Bruder,1782.0
47.625042,12.77289,Mittlerer Bruder,1825.0
47.636604,12.790147,Kleiner Weitschartenkopf,1930.0
47.760925,12.545868,Rötlwandkopf,1379.0
47.59058,12.7978325,Großes Mühlsturzhorn,2234.0
47.59139,12.801598,Kleines Mühlsturzhorn,2141.0
47.595284,12.809813,Knittelhorn,2015.0
47.59257,12.806046,Großes Grundübelhorn,2096.0
47.593727,12.808241,Kleines Grundübelhorn,2084.0
47.79954,13.138162,Klausberg,902.0
47.624794,12.547796,Windbühel,1513.0
47.56823,13.297881,Rocherhöhe,1278.0
47.565704,12.567009,Rechersberg,1014.0
47.538494,12.644572,Östliches Reifhorn,2286.0
47.63648,12.675736,Hoisenhöhe,1228.0
47.65078,12.7530575,Achhorn,1316.0
47.652817,12.808003,Feuerhörndl,1750.0
47.582504,12.718199,Kienberg,1304.0
47.630863,12.748543,Kranzkopf,1017.0
47.675674,12.774393,Wendelberg,959.0
47.75458,12.790015,Angerstein,1482.0
47.50958,12.570975,Lehrbergköpfl,1301.0
47.799034,13.057367,Bürglstein,455.0
47.66679,12.976818,Kleiner Rauher Kopf,1518.0
47.786674,12.550808,Engelstein,972.0
47.75472,12.574472,Thorauschneid,1470.0
47.74658,12.571246,Nesselauer Schneid,1437.0
47.520504,13.046047,Vorderer Kragenkopf,2173.0
47.536526,12.850004,Alpelhorn,2254.0
47.546844,12.84264,Hocheisspitze,2523.0
47.518497,12.885212,Hundstodkendelkopf,2395.0
47.514977,13.046726,Hinterer Kragenkopf,2142.0
47.506325,13.130766,Riffelkopf,2251.0
47.665836,13.298874,Dürlstein,1697.0
47.656506,13.285476,Frunstberg,1672.0
47.661568,13.295909,Hoher First,1718.0
47.582855,12.749011,Grosses Hundshorn,1703.0
47.84123,12.656058,Hochberg,775.0
47.822365,13.42835,Höblingkogel,994.0
47.83121,13.107815,Heuberg,901.0
47.837498,13.044301,Plainberg,549.0
47.91496,12.563158,Schloßberg,572.0
47.509995,13.32969,Fritzerkogel,2360.0
47.544655,13.231661,Knallstein,2234.0
47.53844,13.22277,Mittlerer Wieselstein,2300.0
47.550316,13.206971,Niedertörl,1812.0
47.673252,12.59556,Lembergschneid,1597.0
47.739147,13.030426,Gossenleieraussicht,574.0
47.7449,12.513391,Hasenpoint,1587.0
47.70416,12.832965,Müllnerhörndl,1192.0
48.139133,13.375097,Kapuzinerberg,664.0
47.628525,12.5195055,Lahnerkogel,1595.0
47.631268,12.574445,Scheibelberg,1465.0
47.500324,12.6444435,Große Tagweid,1689.0
47.508293,12.669578,Hochsäul,1757.0
47.612354,12.549493,Bernfarchtkogel,1537.0
47.63095,12.5436735,Betenbichl,1468.0
47.603176,12.563967,Grünwaldkopf,1521.0
47.524097,12.65592,Hirschbadkogel,1787.0
47.582596,12.540354,Hochlahner,1151.0
47.57578,12.525523,Gründberg,1231.0
47.513107,12.642259,Brennterkopf,1513.0
47.52507,12.540715,Gerstberg,1661.0
47.599598,12.56203,Gleißenkogel,1291.0
47.630806,12.524905,Markkogel,1599.0
47.504807,12.617737,Grieslegg,1348.0
47.569176,12.556314,Grenzbichl,992.0
47.608143,12.514384,Hochgrieß,1504.0
47.61686,12.51523,Rabenkopf,1593.0
47.585663,12.536914,Reitberg,1095.0
47.557106,12.604941,Zwölferhörndl,2105.0
47.56498,12.535407,Hochgründberg,1495.0
47.57317,12.578548,Mühlberg,1026.0
47.60204,12.520841,Reiterberg,1187.0
47.543823,12.501347,Mitterberg,1344.0
47.503838,12.652607,Kleine Tagweid,1645.0
47.50316,12.661762,Lammberg,1696.0
47.627968,13.095578,Roßfeld,1537.0
47.773098,12.5273075,Bairerkopf,1283.0
47.70478,12.601397,Schlösselschneid,1416.0
47.508957,12.920535,Gamskarköpfl,2031.0
47.699215,12.717,Augenstein,1584.0
47.50892,13.024054,Hanauerlaubköpfl,1878.0
47.71723,12.591319,Sulzgrabenkopf,1521.0
47.702377,12.539122,Hochscharten,1474.0
47.696064,12.667788,Mittlerer Adlerkopf,1338.0
47.772083,12.5234165,Mehrentaler Wand,1309.0
47.748814,13.304756,Faistenauer Schafberg,1559.0
47.689533,12.708057,Aibleck,1756.0
47.809513,13.085637,Kühberg,712.0
47.690105,12.733622,Bogenhorn,1476.0
47.681034,12.6660795,Fischbachkopf,1694.0
47.68127,12.685607,Hirscheck,1882.0
47.681164,12.70509,Hochgern,1740.0
47.684566,12.739314,Mitterberg,1080.0
47.689236,12.718853,Ochsenhorn,1615.0
47.68229,12.677775,Reifelberg,1883.0
47.682632,12.683761,Vorderlahner Kopf,1907.0
47.7069,12.703796,Lanzeleck,1292.0
47.707794,12.955505,Hirschangerkopf,1769.0
47.67877,12.973357,Bannkopf,1658.0
47.681168,12.950948,Nierntalkopf,1135.0
47.767742,12.6627865,Zellerberg Nordgipfel,992.0
47.715385,12.9529505,Roverkreuz,1606.0
47.50895,13.197632,Achselkopf,1658.0
47.53434,13.202456,Bäreck,2047.0
47.548103,13.160907,Eviwand,965.0
47.535084,13.198478,Frauenofen,1560.0
47.558224,13.172017,Großer Hiefler,1042.0
47.517727,13.193323,Hochkogel,2281.0
47.507423,13.205412,Hühnerkrall,2287.0
47.5093,13.212854,Hühnerkrallkopf,2401.0
47.549335,13.182324,Kasten,1119.0
47.554237,13.174942,Kleiner Hiefler,1089.0
47.50426,13.217339,Lehnender Stein,2400.0
47.500237,13.208977,Rauchköpfl,1856.0
47.54699,13.19563,Schafgebirgspitz,1768.0
47.52083,13.184517,Stuhl,1490.0
47.529556,13.204679,Sulzauer Kopf,2127.0
47.50375,13.198103,Tristkopf,1561.0
47.524685,13.203955,Tiroler Kogel,2322.0
47.52059,13.208379,Windischkopf,2252.0
47.530094,13.187306,Wurzeckriedl,1099.0
47.68563,12.63138,Hochbrunstkopf,1499.0
47.51266,13.345641,Edelweißkogel,2029.0
47.512478,13.394372,Gappenkopf,1507.0
47.523357,13.325665,Grießkessel,1756.0
47.533447,13.315785,Großer Breitstein,2161.0
47.53305,13.367089,Großer Traunstein,1934.0
47.51907,13.355138,Hochkarfelderkopf,2218.0
47.530636,13.32959,Kleiner Grießkogel,1730.0
47.535946,13.372978,Kleiner Traunstein,1652.0
47.52578,13.307555,Langwand,2212.0
47.513943,13.353066,Riffl,2090.0
47.531734,13.358466,Schallwand,1914.0
47.52068,13.364654,Sonntagskogel,2044.0
47.51791,13.328884,Tennkessel,1744.0
47.5347,13.224929,Südlicher Wieselstein,2315.0
47.50389,13.2553835,Wermutschneid,2294.0
47.506733,13.244427,Hinteres Streitmandl,2303.0
47.542774,13.22349,Nördlicher Wieselstein,2190.0
47.53501,13.292291,Plattenkögel,1938.0
47.549435,13.274588,Rotwand,1594.0
47.52346,13.2660055,Scheiblingbühel,2220.0
47.534203,13.27221,Scheiblingkogel,2289.0
47.540348,13.292436,Schröberl,1835.0
47.545113,13.282784,Schwerwand,1933.0
47.532715,13.252439,Hochwieskögel,2124.0
47.547176,13.292361,Wieswand,1521.0
47.538258,13.236511,Mayerhoferkogel,2166.0
47.562576,12.86142,Ofentalhörndl,2513.0
47.74161,12.76854,Großer Turm,1120.0
47.65283,12.810599,Hirscheck,1787.0
47.650433,12.803569,Wartsteinkopf,1772.5
47.54609,12.822154,Karlkopf,2195.0
47.58731,12.876237,Steinberg,2026.0
47.601772,12.665668,Gföllhörndl,1628.0
47.759697,12.701982,Auer Berg,903.0
47.75475,12.559807,Thoraukopf,1481.0
47.7506,12.5244875,Bischofsstuhl,1516.0
47.769596,12.522558,Hochwurz,1290.0
47.73442,12.550899,Lochköpfel,1300.0
47.74491,12.600148,Brandstein,1138.0
47.777294,12.598997,Scheichenberg,1243.0
47.609264,12.889195,Kogel,856.0
47.716362,12.714049,Seßseekopf,1153.0
47.645393,12.894928,Pfaffenbichel,1428.0
47.68671,12.76237,Kranzkogel,1241.0
47.7093,12.5222,Rachelspitz,1415.0
47.704327,12.73546,Litzlbachhörndl,1330.0
47.518566,12.805232,Farmauriedel,1640.0
47.75522,12.817299,Zwiesel,1782.0
47.74728,12.737882,Kleines Kienbergl (Kreuzspitz),1071.0
47.735096,12.73882,Maierknogl,1303.0
47.64352,13.2307,Ketzerloch,797.0
47.728817,12.621306,Eisenberg,1488.0
47.723953,12.61407,Durlachkopf,1395.0
47.75305,12.613208,Haßlberg,1117.0
47.73735,12.658307,Menkenberg,798.0
47.7392,12.647931,Boiderköpfl,917.0
47.765114,12.670026,Zellerberg Hauptgipfel,1065.0
47.78142,12.621905,Neustadler Berg,1078.0
47.55314,12.935386,2. Watzmannkind,2232.0
47.55428,12.9433975,Lablkopf,2015.0
47.755333,12.804797,Gamsknogel,1750.0
47.694298,12.781718,Ristfeuchthorn,1569.0
47.509903,13.3083105,Hochbrett,2312.0
47.6936,13.198635,Knoglberg,1357.0
47.593925,13.067141,Hoher Göll,2522.0
47.79514,13.226101,Lidaunberg,1237.0
47.780857,13.193433,Strumberg,981.0
47.784786,13.162211,Pitrachspitze,982.0
47.779545,13.171256,Reischauspitze,839.0
47.73955,13.281957,Ebenholzspitz,1263.0
47.812756,13.221173,Kleiner Hirschberg,875.0
47.759796,12.959446,Wartberg,542.0
47.65951,12.825422,Alphorn,1656.0
47.625866,12.847729,Eisberg,1800.0
47.62729,12.831593,Zirbeneck,1810.0
47.77778,12.5088005,Aschauer Zipf,1019.0
47.67955,12.556121,Bürgl,865.0
47.668674,12.60202,Dürrnbacheck,1593.0
47.783703,12.57175,Geschwendkopf,1014.0
47.72537,12.560358,Gründberg,1226.0
47.773647,12.621239,Haargaßberg,1210.0
47.673714,12.529536,Jochberg,1257.0
47.76093,12.52443,Köstelkopf,1349.0
47.671646,12.586015,Lemberg,1490.0
47.786358,12.601349,Mühlalpkopf,1061.0
47.669163,12.525877,Mühlprachkopf,1332.0
47.769947,12.618922,Platte,1168.0
47.68648,12.522216,Reitberg,1143.0
47.74797,12.591808,Reitstein,1250.0
47.695446,12.629632,Richtstrichkopf,1322.0
47.634155,12.553867,Riserköpfe,1291.0
47.70503,12.622381,Seekopf,1173.0
47.651814,12.557043,Sondersberg,1243.0
47.68813,12.542933,Stuhlkopf,1264.0
47.695957,12.553321,Tempelberg,1215.0
47.76753,12.614814,Westerberg,1076.0
47.77836,12.526376,Zinnkopf,1223.0
47.593166,12.795334,Stadelhorn,2286.0
47.673225,12.605228,Dürrnbachhorn,1765.0
47.759907,13.100937,Hengstberg,778.0
47.742985,13.209973,Eibleck,1518.0
48.29269,13.034374,Schellenberg,551.0
47.73888,12.770688,Scharnkopf,1356.0
47.751686,13.476366,Käferwandl,1320.0
47.744946,13.495406,Lugberg,916.0
47.749313,13.47643,Sommerauerstein,1275.0
47.76235,12.55922,Hochfelln,1674.0
47.63271,13.2399845,Wilhelmswand,1527.0
47.607025,13.418147,Tabor,1618.0
47.700775,12.674297,Prügelbergkopf,1200.0
47.696938,12.667016,Vorderer Adlerkopf,1312.0
47.506832,13.220802,Hochpfeiler,2410.0
47.505836,13.211941,Pfaffenleitenköpfl,2360.0
47.506413,13.213297,Schafbergspitz,2360.0
47.74631,12.586438,Kemeikopf,1222.0
47.596405,13.052786,Pflughörndl,2047.0
47.622784,12.608736,Schwarzberghöhe,1328.0
47.5972,12.645148,Schönbühel,1624.0
47.602886,12.631245,Aukogel,1485.0
47.61844,12.642114,Ganiskopf,1510.0
47.640507,12.615025,Prunzberg,1265.0
47.785698,13.497596,Auberg,907.0
47.78651,13.486104,Klausberg,932.0
47.723232,13.242942,Anzenberghöhe,1469.0
47.739567,13.238648,Seeberghorn,1261.0
47.752014,13.268822,Rannberg,1366.0
47.6239,12.51248,Eggenalmkogel,1686.0
47.61173,12.795952,Rossbühel,1962.0
47.603844,12.78091,Kleines Häuselhorn,2228.0
47.71957,12.534306,Rehwaldkopf,1395.0
47.645744,12.832591,Bärenkareck,1730.0
47.65452,12.830746,Übeleck,1698.0
47.708614,12.719841,Kaserkopf,1281.0
47.70777,12.693108,Danzingschneid,1111.0
47.54183,13.103273,Hochwandl,1704.0
47.513096,13.081171,Stangenkopf,2144.0
47.5025,13.3022,Augstein,2055.0
47.5008,13.2944,Brietkogel,2316.0
47.5081,13.3008,Griesskogel,2270.0
47.503494,13.272125,Kemetstein,2210.0
47.5103,13.3153,Kleiner Fritzerkogel,2287.0
47.502514,13.288261,Schartwand,2339.0
47.50444,13.282728,Schubbuehel,2334.0
47.822998,12.731345,Freibergl,781.0
47.53265,13.384495,Schober,1810.0
47.53229,13.379084,Berliner Kreuz,1621.0
47.77577,12.701587,Sulzbergschneid,1159.0
47.502533,13.244948,Mittleres Streitmandl,2360.0
48.31794,13.155486,Tannenberg,477.0
47.911385,13.241368,Geißberg,720.0
47.898514,13.113212,Blick über Seekirchen,546.0
47.514835,12.857343,Rössl,2185.0
48.335716,13.496561,Hoher Schachen,498.0
47.973537,13.19022,Tannberg,787.0
47.63531,13.449992,Braunedlkogel,1894.0
48.02634,13.031739,Lielonberg,570.0
47.75218,12.579788,Bogn Nosn,1358.0
47.691868,12.667288,Flauschberg,1342.0
47.550865,13.211273,Hochtörl,1919.0
47.562107,13.207809,Wirreck,1473.0
47.755096,12.523373,Silleck,1565.0
47.953598,12.978822,Wachtberg,500.0
47.657658,13.499205,Großer Schoberstein,1368.0
47.669304,13.49982,Meistergupf,1584.0
47.646355,13.489278,Niederes Platteneck,1335.0
47.70944,12.96265,Ochsenkopf,1780.0
47.50646,13.025373,Hanauerlabl,1910.0
47.517677,13.035345,Schossenkopf,2106.7
47.500244,13.235919,Hiefler,2378.0
47.517384,13.028904,Grauer Kopf,2054.5
47.572826,12.782461,Sulzenstein,1694.0
47.57921,12.779316,Gernhorn,1908.0
47.582466,12.781537,Drei Jäger,1826.0
47.585724,12.785648,Ameisknockenkogel,1925.0
47.588844,12.787958,Hochgscheid,1729.0
47.534943,12.653255,Traunspitzl,2300.0
47.542416,12.597853,Heimkehrerkreuz,2030.0
47.67103,12.638774,Grenzkendlkogel,1375.0
47.678448,12.630983,Kreuzschneid,1609.0
47.67331,12.636299,Ochsenlahnerkogel,1501.0
47.675663,12.628307,Wildalphorn,1690.0
47.82193,13.476682,Großer Hollerberg,1090.0
47.82113,13.480523,Hochgupf,1071.0
47.8284,13.483838,Kleiner Hollerberg,993.0
47.821514,13.457266,Koppenstein,1123.0
47.680492,12.598572,Hausgrabenkopf,1411.0
47.565033,12.969597,Archenkopf,1451.0
47.597954,13.2994175,Pichlhöhe,623.0
48.0483,13.238767,Weißenstein,683.0
47.746174,13.452576,Rackenroiterstolz,897.0
47.701523,12.82969,Pflasterbachhörndl,1270.0
47.707104,12.767869,Rabenpalven,1017.0
47.758812,13.06603,Hellbrunner Berg,515.0
47.57371,12.875593,Kopf des Hunds,2012.0
47.54552,12.838459,Hocheiskopf,2495.0
47.530136,12.89163,Kirche,1581.0
47.530087,12.867704,Palfenkopf,1950.0
48.055573,13.225057,Klosterberg,636.0
48.07024,13.214387,Spreitzenberg,606.0
48.05704,13.216867,Brücklhöhe,605.0
47.69581,13.0645275,Hoher Götschen,930.0
48.4596,13.17129,Einberg,461.0
48.47216,13.1335,Steinberg,510.0
47.73488,13.022548,Gemainberg,995.0
48.490982,13.194823,Klosterberg,521.0
47.7268,13.053544,Goisberg,541.0
47.635918,13.460564,Scharfen,1828.0
47.584385,13.049689,Hohes Brett,2340.0
47.917904,13.454396,Ahberg,726.0
47.957554,13.210809,Johannsberg,600.0
47.80223,13.18287,Plötz,789.0
47.69955,12.98762,Hochalpkopf,1886.0
48.04059,12.913269,Hartberg,482.0
47.814346,13.188918,Gitzenberg,919.0
47.80601,13.229245,Hirschbergkopf,1073.0
47.81567,13.396499,Geißberg,558.0
47.681538,12.8500395,Vogelspitz,1300.0
47.766926,13.05763,Morzger Hügel,470.0
47.772045,13.324583,Sonnberg,1073.0
47.768654,13.341434,Sulzberg,1017.0
47.70407,12.883948,Spechtenkopf,1285.0
47.691566,12.897707,Dreisesselberg,1680.0
47.924206,13.233279,Ratzer,649.0
47.760853,12.830369,Hendelberg,1324.0
47.79159,13.472658,Adlerstein,1119.0
47.75574,12.833695,Hendelbergskopf,1613.0
47.767647,12.506568,Kobelwand,1216.0
47.50116,13.088838,P.,2288.0
47.501602,13.0938225,P.,2269.0
47.500954,13.096953,P.,2252.0
48.13113,13.38151,Hochkuchlberg,723.0
47.662857,12.622175,Hochgimpling,1530.0
47.672848,12.92773,Pfaffenkogel,816.0
47.571346,12.933967,Falzkopf,1930.0
47.538597,12.930889,Kirche,1402.0
47.649178,12.610148,Martinsbichl,1326.0
47.767365,13.41436,Aignerriedel,1326.0
47.768147,13.426808,Reiningspitz,1460.0
47.76449,13.426606,Teufelhaus,1414.0
47.79623,13.417086,Kienberg,947.0
47.696186,12.878973,Predigtstuhl,1613.0
47.800964,13.346404,Kleines Marienköpfl,1071.0
47.54086,13.321223,Kleiner Breitstein,1755.0
47.555073,13.295818,Ebnetriedel,1101.0
47.5464,13.304388,Schwarzkogel,1542.0
47.601124,12.996714,Hundskehl,717.0
47.60167,12.833872,Halskopf,1285.0
47.593765,12.823039,Teufelskopf,1340.0
47.600224,12.80527,Brettstein,1820.0
47.60493,12.809951,Predigtstuhl,2004.0
47.652733,13.027943,Kiliansberg,960.0
47.64705,13.010716,Saurüssel,830.0
47.6892,13.008466,Silberkopf,1120.0
47.701523,12.95364,Achenkopf,1577.0
47.706566,12.91255,Lattenberg,909.0
47.671913,12.867152,Kratzer,1300.0
47.67224,12.850743,Hochmaiskopf,1390.0
47.666008,12.857405,Prechlkopf,1435.0
47.661003,12.862384,Horn,1496.0
47.65865,12.864501,Moosenkopf,1504.0
47.67653,12.839715,Luegerhorn,1220.0
47.676853,12.805426,Kienberg,1028.0
47.714455,12.672814,Mahdeck,1014.0
47.718647,12.674321,Sackgrabenrücken,1057.0
47.655083,12.965958,Kastensteinhöhe,796.0
47.605156,13.02532,Klausbichel,1065.0
47.5951,13.045661,Alpelköpfe,1923.0
47.57561,13.007189,Strubkopf,1271.0
48.14523,13.359685,Viehberg,609.0
47.717476,13.039784,Hangender Stein,583.0
47.97089,13.107531,Schloßberg,535.0
47.760292,13.398913,Falkenstein,764.0
47.73039,13.00855,Bierfasselkopf,1400.0
47.725266,13.022261,Leonhardspitze,1268.0
47.632774,12.717104,Prechlerberg,1029.0
47.571712,13.359198,Scheffenbichl,910.0
47.51626,12.837512,Seekopf,1854.0
47.52294,12.874026,Kühleitenschneid,2041.0
47.562817,12.818129,Hocheiskopf,1695.0
47.790897,13.475858,Elferkogel,1090.0
47.7103,13.057036,Gutratberg,710.0
47.66044,13.10362,Raspenhöhe,896.0
47.65334,13.100821,Schornhöhe,989.0
47.656414,13.10485,Hocheck,960.0
47.618816,12.933578,Söldenköpfl,1022.0
47.81377,13.347254,Drachenwand,1176.0
47.67556,13.296826,Reinsberg,1661.0
47.701027,13.25338,Ladenberg,1383.0
47.666714,13.493598,Vizebürgermeistergupf,1711.0
47.79906,13.336465,Eibenseekopf,1205.0
47.77801,13.359587,Plombergstein,836.0
47.781773,13.36018,Mitterstein,920.0
47.812992,13.320362,Schatzwand,1264.0
47.69356,13.466065,Sparber Südgipfel,1487.0
47.768578,13.457056,Wienerroither-Spitz,1379.0
47.559895,12.648087,Nebelhorn,2056.0
47.571945,13.30864,Flichtlhofberg,1204.0
47.640785,13.387399,Labenberg-Schöberl,1549.0
47.874077,12.629923,Guntramshügel,628.0
47.75117,12.760081,Falkenstein Nordgipfel,1092.0
47.72574,13.165074,Neureitkopf,919.0
47.769634,12.5638075,Bründlingköpfl,1221.0
47.813126,13.34179,Drachenwand Westgipfel,1138.0
47.863087,12.615281,Irlberg,654.0
47.709534,13.251901,Grobriedel,1473.0
47.8551,13.008757,Muntigler Hügel,453.0
47.70375,13.182936,Tanzboden,1149.0
47.665096,13.090748,Moserstein,803.0
47.703747,12.820581,Gebersberg,1038.0
47.712883,12.827561,Kranzlstein,973.0
47.740402,12.514909,Hochsattel,1550.0
47.736446,13.179149,Sendlberg,1026.0
47.72081,13.251936,Mühlbachhöhe,1388.0
47.54402,12.663087,Sattelhorn,2055.0
47.629665,12.826531,Kirche,1707.0
47.6271,12.81017,Wiesenwinkelköpfe,1699.0
47.636703,12.984963,Baderlehenkopf,756.0
47.653873,12.991139,Geschirrkopf,1030.0
47.67214,13.001843,Steinbichl,932.0
47.77856,13.245785,Kühberg,880.0
47.690193,12.936289,Eisenrichterstein,795.0
47.704002,13.047822,Hornkopf,767.0
47.73876,13.332957,Schatzhöhe,1408.0
47.62647,13.092414,Hennenköpfl,1551.0
47.777035,13.270072,Kahlenegg,1092.0
47.624676,13.395771,Spielbichl,1561.0
47.623272,13.388808,Hüttenkogel,1597.0
47.570137,13.178202,Ofenauer Berg,925.0
47.553066,13.22487,Platteneck,1946.0
47.556282,13.24485,Sommereckspitze,1665.0
47.56864,13.250099,Raues Sommereck,894.0
47.55784,13.258985,Kuchlberg,1656.0
47.603523,13.204221,Hirschenhöhe,845.0
47.606323,13.22444,Gsengriegel,1112.0
47.59933,13.23488,Traxlspitz,1208.0
47.595688,13.23366,Sennberg,1080.0
47.595097,13.202508,Mehlstein,710.0
47.594242,13.252828,Rabensteinkopf,1122.0
47.605114,13.247119,Gschirrwand,1553.0
47.586147,13.261613,Strubegg,916.0
47.695316,13.116918,Heuberg,557.0
47.67294,12.500465,Huttenberg,901.0
47.664227,13.350877,Großes Radl,1742.0
47.657925,13.341367,Kleines Radl,1673.0
47.65247,13.339679,Schöberl,1528.0
47.569,12.741762,Strohwollner Horn,1597.0
47.597794,12.733997,Perhorn,1383.0
47.570606,12.750524,Pointelkopf,1603.0
47.695305,12.669058,Hinterer Adlerkopf,1326.0
47.79414,13.2066965,Siederberg,898.0
47.572056,13.292007,Roadberg,1270.0
47.597187,13.284655,Schilchhöhe,862.0
47.753517,12.784973,Kohlerhörndl,1480.0
47.61333,13.26588,Klinglerkogel,964.0
47.621017,13.279248,Ameiseggberg,1351.0
47.54532,12.601435,Truhe,2101.0
47.682205,12.695717,Sonntagshorn,1961.0
47.538704,13.476493,Zwieselalmhöhe,1587.0
47.843292,13.135265,Eugendorfer Berg,802.0
47.796757,13.212973,Burgstallkogel,933.0
48.01786,13.390225,Kogelholz,681.0
47.680054,12.963331,Scheibelkopf,1481.0
47.705063,12.50025,Lackenberg,1253.0
47.71614,12.844645,Knogel,682.0
47.85606,13.034187,Hochgitzen,676.0
47.63627,13.315678,Hochbühel,1710.0
47.934612,12.883846,Buchberg,458.0
47.9082,12.859584,Geisberg,480.0
47.88981,12.875337,Wölfelsberg,464.0
47.885468,12.870468,Simmersberg,458.0
47.9119,12.835791,Aschelberg,472.0
47.65573,13.474008,Jausenkögel,1305.0
48.267303,12.98847,Heinzelspitze,515.0
47.687767,13.208185,Rengerberg,1507.0
47.717903,12.810541,Heuberg,925.0
47.712013,12.802473,Albauer Kopf,933.0
47.68719,13.080445,Katzenbarmsteine,770.0
48.046364,13.232702,Weißenhöhe,689.0
47.788097,12.773248,Teisenbergkopf,1264.0
47.804405,12.752079,Großer Kachelstein,1230.0
47.70487,12.592636,Seehauser Kienberg,1503.0
47.67101,12.724034,Gsengköpfl,1462.0
47.670696,12.7399,Pichlerberg,2086.0
47.79437,13.31897,Ellmaustein,1047.0
