latitude,longitude,name,elevation
58.49159,-137.20886,South Dome,744.0
58.44738,-137.02563,Mount Marchainville,1232.0
58.38181,-136.92102,Boussole Head,163.0
58.297993,-136.77017,Horn Mountain,639.0
58.424137,-136.92061,De Langle Mountain,995.0
