latitude,longitude,name,elevation
64.34377,-21.91629,Akrafjall,602.0
64.31855,-21.949825,Háihnúkur,553.0
64.03338,-21.83029,Búrfell,160.0
64.14273,-21.63317,Reykjaborg,280.0
63.972305,-22.107552,Snókafell,147.0
63.923218,-22.101608,Grænavatnseggjar,359.0
63.935524,-22.005928,Stapatindur,397.0
63.9439,-21.953016,Lambhagi,182.0
63.954052,-21.921196,Vatnshlíðarhorn,385.0
63.92764,-22.215935,Litlikeilir,266.0
63.927032,-22.249617,Fagradals-Hagafell,291.0
63.9221,-22.26833,Fagradals-Vatnsfell,248.0
63.9051,-22.272594,Langhóll,391.0
63.86681,-22.406729,Hagafell,158.0
63.86887,-22.337378,Há-Hrafnshlíð,174.0
63.859367,-22.321173,Lyngfell,159.0
63.90164,-22.324503,Innri-Sandhóll,88.0
63.92419,-22.366842,Litla-Skógfell,47.0
63.999546,-21.643976,Drottning,516.0
64.04658,-21.55118,Vífilfellsöxl,369.0
64.01045,-21.520672,Syðri-Eldborg,445.0
63.971386,-21.619429,Kerlingarhnúkur,660.0
64.15876,-21.63356,Reykjafell,268.0
64.17447,-21.65386,Helgafell,215.0
64.02538,-21.93215,Stórhöfði,121.0
64.47045,-21.753492,Heiðarhorn,1053.0
64.043396,-21.932865,Vatnshlíð,103.0
64.49591,-21.910297,Hafnarfjall,844.0
64.05138,-21.943008,Ásfjall,126.0
64.05184,-21.894192,Sandahlíð,126.0
64.3433,-21.9439,Geirmundartindur,643.0
64.492226,-21.701426,Skessuhorn,967.0
64.12919,-21.918709,Öskjuhlíð,59.0
64.097435,-21.893894,Nónhæð,80.0
64.083786,-21.832064,Rjúpnahæð,131.0
64.09399,-21.877834,Hnoðraholt,91.0
64.090904,-21.820694,Vatnsendahæð,153.0
64.08527,-21.859571,Smalaholt,131.0
64.144005,-21.866648,Laugarás,47.0
64.1092,-21.818306,Hólar,105.0
64.08408,-21.53365,Lyklafell,281.0
63.86417,-22.05181,Arnarfell,193.0
63.88434,-22.03542,Austurhengjahæð,222.0
63.98041,-21.62508,Bláfjallahorn,702.0
64.01,-21.56365,Bláfjallahryggur,691.0
63.99961,-21.58599,Bláfjöll,671.0
63.86934,-22.29639,Borgarfjall,231.0
63.87035,-22.06967,Bæjarfell,214.0
64.1208,-21.62873,Búrfell,176.0
63.92655,-22.15215,Driffell,255.0
64.24501,-21.656857,Esja,914.0
64.31963,-21.70615,Eyrarfjall,476.0
63.85773,-22.33591,Festarfjall,201.0
63.859,-22.36634,Fiskidalsfjall,195.0
64.16825,-21.55033,Flatafell,436.0
63.93455,-22.07501,Fíflavallafjall,359.0
63.94161,-21.52168,Geitafell,509.0
63.8588,-21.94079,Geitahlíð,213.0
63.869,-21.99368,Geitahlíð,385.0
63.90869,-21.97482,Geithöfði,218.0
63.93766,-22.089216,Grænadyngja,398.0
63.90904,-21.94961,Gullbringa,310.0
64.23024,-21.64704,Gunnlaugsskarð,843.0
63.9588,-21.64107,Heiðartoppur,613.0
64.00985,-21.85071,Helgafell,338.0
63.94848,-21.98411,Hellutindar,364.0
63.88515,-21.84374,Herdísarvíkurfjall,336.0
64.15071,-21.54973,Hjálmur,454.0
63.90468,-22.18949,Hraunssels-Vatnsfell,247.0
63.9294,-22.06246,Hrútafell,248.0
63.892994,-22.06712,Hverafjall,308.0
63.96043,-21.79415,Hvirfill,621.0
64.24399,-21.60133,Hátindur,909.0
63.974384,-21.931334,Háuhnúkar,263.0
63.8691,-22.22272,Höfði,209.0
63.85385,-22.37486,Húsafell,172.0
64.02639,-21.79911,Húsfell,288.0
64.23629,-21.74975,Kambshorn,851.0
63.88164,-21.67336,Katlabrekkur,146.0
63.90992,-22.22341,Kistufell,335.0
64.00212,-21.74074,Kristjánsdalahorn,325.0
63.86483,-22.14378,Krýsuvíkur-Mælifell,228.0
63.87404,-22.26199,Langihryggur,296.0
63.891533,-22.034767,Litla-Lambafell,235.0
63.91599,-22.21221,Litli-Hrútur,312.0
64.28343,-21.79314,Lokufjall,411.0
63.85632,-22.45762,Lágafell,71.0
64.162926,-21.705383,Lágafell,116.0
63.989117,-21.806067,Markraki,213.0
64.28206,-21.7707,Melahnúkur,537.0
63.90172,-22.23974,Meradalahnúkar,333.0
64.31862,-21.57007,Meðalfell,345.0
63.92041,-22.03398,Miðdegishnúkur,392.0
64.19449,-21.63652,Mosfell,276.0
63.95781,-22.04027,Mávahlíðar,229.0
64.02019,-21.61854,Rauðuhnúkar,449.0
63.88258,-22.20736,Sandfell,279.0
64.05053,-21.65888,Sandfell,341.0
64.30167,-21.69965,Sandfell,415.0
64.28373,-21.55586,Sandsfjall,522.0
64.0277,-21.53101,Sauðadalahnúkar,583.0
63.84353,-22.10022,Selalda,118.0
64.06366,-21.66384,Selfjall,268.0
63.89427,-22.151663,Framfell,353.0
64.25968,-21.54973,Seltindur,686.0
63.85808,-22.29471,Slaga,152.0
64.00077,-21.66036,Stóra-Kóngsfell,602.0
63.89865,-22.03154,Stóra-Lambafell,239.0
63.89689,-22.37449,Stóra-Skógfell,189.0
64.16056,-21.52155,Stórhóll,482.0
63.88331,-22.24972,Stóri-Hrútur,357.0
63.88258,-21.62899,Svörtubjörg,187.0
63.88271,-22.40503,Sýlingarfell,197.0
63.88125,-22.05042,Tindhóll,183.0
64.14297,-21.57595,Torfdalshryggur,345.0
64.25854,-21.51044,Trana,743.0
63.85072,-22.06542,Trygghólar,116.0
63.940735,-22.09665,Trölladyngja,379.0
63.98185,-21.910816,Undirhlíðar,228.0
63.89339,-21.63345,Urðarfell,226.0
64.03832,-21.55522,Vífilsfell,655.0
63.90717,-21.86245,Vörðufell,526.0
64.14698,-21.71023,Úlfarsfell,295.0
63.864285,-22.44095,Þorbjörn,229.0
64.21807,-21.53535,Þríhnúkar,284.0
64.22163,-21.73388,Þverfell,479.0
64.23301,-21.71115,Þverfellshorn,840.0
63.87932,-21.578817,Hnúkar,195.0
64.25747,-21.810684,Arnarhamar,486.0
64.3499,-21.523067,Grenshæðir,421.0
64.3581,-21.594883,Háihryggur,369.0
64.28188,-21.82365,Tíðaskarð,208.0
64.244514,-21.516409,Móskarðshnjúkar,800.0
64.13814,-21.653416,Hafrafell (Lalli),245.0
64.32763,-21.91704,Jökulbunga,527.0
64.49446,-21.796377,Innri-Svartitindur,726.0
64.1423,-21.607126,Þverfell,305.0
64.27508,-21.563587,Esjuhorn,755.0
63.97446,-21.981035,Fjallið eina,223.0
63.966064,-21.982216,Sandfell,260.0
63.882133,-22.1727,Núpshlíðarháls,301.0
63.91355,-22.091076,Traðarfjöll,265.0
63.855614,-22.265415,Skála-Mælifell,174.0
63.910053,-22.127476,Selsvallafjall,330.0
63.880627,-22.275126,Meradalahnúkar,245.0
63.934654,-21.799831,Kistufell,602.0
63.873688,-22.39717,Sundhnúkur,134.0
63.930313,-22.315836,Kálffell,87.0
64.49335,-21.898302,Gildalshnúkur,844.0
64.48379,-21.872904,Hróarstindur,767.0
64.14797,-21.720575,Hákinn,280.0
