latitude,longitude,name,elevation
-32.698227,18.487698,Soetgoedkop,291.0
-32.67568,18.456379,Platberg,422.0
-32.55299,18.463621,Klein Tafelberg,368.0
-33.45041,18.465656,Contreberg,478.9
-33.350304,18.331257,Bonteberg,309.0
-33.416504,18.376041,Bokkop,359.0
-33.485706,18.452345,Bobbejaanberg,378.6
-33.382618,18.335278,Bakenkop,315.1
-33.38307,18.45177,Katkop,158.5
-33.4185,18.397366,Kapokberg,459.0
