latitude,longitude,name,elevation
32.27023,76.352875,Triund Hill,3240.0
32.246666,76.46334,Gauri Jhundha,4791.0
32.33619,76.35,Karan Khal,4159.0
32.287495,76.39066,Mun Peak,4650.0
32.192413,76.44973,Himani Chamunda,3000.0
32.25191,76.48249,Dhaula Trishul 3,4965.0
32.250233,76.48397,Dhaula Trishul 2,4968.0
32.245815,76.48694,Dhaula Trishul,4982.0
