latitude,longitude,name,elevation
44.671562,14.361768,Televrina,588.0
45.078075,14.346037,Gorice,648.0
45.491558,13.971431,Golič,865.0
45.495308,14.063474,Medvižica,1087.0
45.493855,14.059244,Razsušica (Glavičorka),1083.0
45.067623,14.354423,Sis,639.0
44.866207,14.344516,Helm,482.0
44.540897,14.450173,Vela Straža,62.0
45.459305,14.442513,Vojak,916.0
45.441338,14.477186,Ćunina glava,1158.0
45.427155,14.423261,Kičelj,606.0
45.44895,14.486437,Fratar,1353.0
45.46347,14.473672,Pakleno (H7),1337.0
45.468254,14.464819,Pakleno sjever (H6),1331.0
45.21632,14.211203,Kremenjak,826.6
45.233925,14.201765,Brgud,906.8
45.183422,14.20467,Šikovac,779.6
44.673847,14.275336,Malondarski,94.0
44.618954,14.266934,Kalk,134.0
45.28495,14.201964,Vojak,1401.0
44.657063,14.246202,Hartina,93.0
45.245937,13.7102585,Petrovac,223.0
44.97001,14.0286255,Golo brdo,168.6
44.99157,14.062376,Lanište,144.2
45.014492,14.005194,Marčić,214.9
45.004837,14.057806,Mutalat,152.8
44.95721,14.016193,Peruški vrh,168.0
44.973812,14.058877,Plenica,149.5
44.947437,14.026217,Sveti Ilija,130.5
45.00183,14.088524,Utrina,149.6
45.022602,14.027969,Štandar,250.6
45.136295,13.940437,Sat,373.0
45.03713,13.93576,Vrh,296.8
45.004074,13.92427,Školjka,265.1
45.032803,14.013402,Sveti Ivan,258.3
44.985996,14.003601,Glavica,200.7
45.362034,14.438958,Veli vrh,432.0
45.15902,14.191653,Bukovo,771.3
45.36359,14.125528,Dižnji vrh,784.0
45.379234,14.137541,Gorica,727.1
45.38217,14.224284,Kadički vrh,1104.0
45.383564,14.178711,Medvejak,1056.0
45.31871,14.253275,Pećnik,641.0
45.364876,14.266161,Risnjak,897.4
45.23263,14.235638,Slepica,525.3
45.258877,14.237796,Straževnik,691.3
45.281075,14.252926,Tuliševica,560.0
45.419456,14.126744,Orljak,1106.0
45.361748,14.190625,Veliki Planik,1272.0
45.481663,13.982367,Nadglavinjak,888.0
45.459297,14.465854,Obruč,1376.0
45.01839,14.129903,Oštri,531.0
45.292725,14.247171,Lužinski breg,626.0
44.522087,14.462852,Belveder,87.0
44.51644,14.490272,Kalvarija,201.0
44.52127,14.483141,Umpiljak,171.0
44.673107,14.448812,Vela Straža,151.0
44.688114,14.35168,Križica,343.0
45.091106,13.682497,Turnina,105.7
45.14555,13.600249,Rasohe,42.0
45.35203,14.138561,Bačvenik,735.0
45.338432,14.0967865,Frkovija,372.2
45.344814,14.158565,Grabrovica,803.0
45.372406,14.119434,Gradišće,766.6
45.338196,14.133204,Kuk,551.8
45.33828,14.146131,Kuk,702.0
45.34083,14.189998,Kupice,1049.1
45.348156,14.1769705,Kupići,989.0
45.358627,14.195615,Mali Planik,1259.0
45.294422,14.105855,Manjadin br.,232.9
45.386173,14.106997,Obšenik,719.6
45.345345,14.20226,Ošalj vrh,1176.5
45.32533,14.063962,Travji breg,415.0
45.272587,14.135694,Vele Soline,227.7
45.321632,14.1102915,Veli Brežac,277.9
45.310577,14.11786,Veli brijeg,275.0
45.331783,14.164164,Šebrn,812.0
45.357048,14.121898,Štiković,770.0
45.31641,14.091704,Štrpadina,321.4
45.136497,13.664898,Mufoš,102.0
45.141457,13.599462,Petalon,21.0
45.19976,14.219891,Kobilina,564.3
45.265316,14.191543,Maj,969.5
45.193836,14.23426,Marinov brijeg,287.0
45.247032,14.214811,Perun,881.0
45.15731,14.209933,Puntera,420.3
45.171158,14.201053,Sisol,834.5
45.058674,13.944379,Krnički vrh,303.5
45.476254,14.042946,Mali vrh,757.5
45.44962,14.025303,Sveti Bartul,786.0
45.440884,14.033137,Gola gorica,702.9
45.238346,14.159371,Gorica,59.6
45.4655,13.741649,Novi Brič,312.0
45.166008,14.0836735,Goli brijeg,307.8
45.159916,14.102533,Straža,306.4
45.112453,13.613961,Križ,56.8
45.116085,13.639547,Riko,51.4
45.122944,13.643092,Tonkaž,96.4
45.12123,13.657652,Monter,123.7
45.11992,13.668622,Sv. Proto,108.6
45.120235,13.6750345,Dugi vrh,107.6
45.11126,13.657657,Sv. Tomaž,102.9
45.12158,13.691407,Moguštin,143.4
45.116547,13.686974,Varave,148.8
45.122925,13.704232,Smokvina,115.3
45.11692,13.702904,Gomila,155.5
45.121067,13.726454,Kičer,208.3
45.112064,13.727426,Ciganska glava,147.0
45.112263,13.712262,Zavrh,158.6
45.11681,13.711171,Rukav,157.4
45.111317,13.681935,Markov vrh,122.2
45.11057,13.6270075,Montelongo,63.8
45.10917,13.631605,Mompaderno,61.4
45.107967,13.617007,Monsena,42.0
45.101566,13.636472,Salterija,52.7
45.104767,13.6488285,Mondelako,57.2
45.102028,13.675406,Konjski vrh,87.4
45.09525,13.64851,Laštre,63.7
45.105232,13.690851,Bogunov vrh,124.0
45.102203,13.697184,Kovačija,129.3
45.102318,13.707105,Perićeva glav,158.0
45.010887,13.726144,Darne,53.3
45.0102,13.717151,Datule,23.9
45.014088,13.716141,Sv. Pavao,32.0
45.069126,13.627793,Montauro,38.6
45.067986,13.640739,Monvi,54.3
45.068443,13.657638,Maluža,36.2
45.097885,13.688798,Kapa,121.3
45.088882,13.693763,Valtinjan,127.7
45.08871,13.702151,Bumbrenat,121.3
45.094,13.707875,M. Kanaškura,151.2
45.094917,13.716666,V. Kanaškura,175.4
45.101776,13.718437,Velebić,182.1
45.091114,13.723645,Šimetov vrh,162.0
45.108093,13.731259,Busuja,168.0
45.103863,13.734124,Mukliz,193.5
45.095776,13.738726,Muvica,176.8
45.086742,13.740343,Mali Karpanj,179.4
45.085,13.712961,Laštre,137.0
45.0571,13.681639,Muja,46.7
45.04375,13.687452,Burla,35.1
45.046555,13.690032,Paradiž,38.0
45.025288,13.691696,Gustinja,30.2
45.03469,13.692337,Monbrodo,30.6
45.07059,13.698167,Monkodonja,81.2
45.07282,13.686753,Velika Valtida,84.4
45.07842,13.679692,Mala Valtida,61.0
45.161842,13.69391,Milovići,146.2
45.156063,13.64331,Mučerba,114.2
45.150322,13.646671,Biškupovi vrhi,112.7
45.14047,13.653464,Mukaba,121.6
45.14429,13.625498,Vrh Moškateje,71.0
45.012634,13.956663,Goli Vrh,245.0
45.09297,13.946535,Gradina,378.0
45.003876,13.900349,Veli Vrčin,256.0
45.10218,13.893749,Jurjevica,346.0
45.119144,13.954174,Goričica,398.0
45.471237,13.983621,Kavčič,879.0
45.480785,13.965285,Lipnik,804.0
44.98198,14.138088,Brdo,475.0
44.92197,14.03646,Arne,29.0
45.43294,13.777849,Ušćok,443.0
45.376133,14.429278,Pleš,499.0
45.44767,14.480535,Suhi vrh,1280.0
45.104534,14.481779,Klobučac,106.0
45.050575,14.483756,Veli Vršak,103.0
45.038853,13.802744,Forke,206.0
45.023018,13.819949,Vrh Maškarade,175.0
45.051674,13.838004,Sveti Petar,247.0
45.162952,14.037923,Bošeniga,323.0
45.246815,13.824296,Duhićko Brdo,385.0
45.243923,13.845211,Križevica,384.0
45.185593,14.046558,Kruh,360.0
45.15955,14.022493,Stari Grad,403.0
45.157772,13.903454,Sveti Juraj,432.0
45.247623,13.871986,Vela Traga,363.0
45.20653,13.928548,Veli Breg,450.0
45.18978,13.954653,Čuletov breg,447.0
45.214813,13.817764,Čambarela,349.0
45.24703,14.058566,Barevica,333.0
45.08355,13.980206,Biličev Vrh,338.0
45.112297,14.080362,Gorica,341.0
45.144135,14.039381,Gradina,298.0
45.121735,13.987335,Gromača,399.0
45.194424,13.812258,Jelovski Brig,347.0
45.221027,14.091477,Karlički Vrh,224.0
45.12187,14.065417,Kožljak,351.0
45.161873,13.825733,Križ,325.0
45.17245,13.805482,Orljak,303.0
45.155735,13.967202,Savinjovica,421.0
45.081715,13.807667,Stari Grad,233.0
45.14113,13.955431,Turkovac,408.0
45.242527,13.998913,Velo Gnijezdo,496.0
45.458702,14.013909,Žbevnica,1014.0
44.980553,13.90614,Krnjelka,220.0
45.450626,13.652986,Kaštel,144.0
45.489334,14.270505,Petrov breg,485.0
44.87197,13.939095,Bile Stine,78.0
44.867798,13.960104,Bili Vrh,57.0
44.89787,13.82833,Kaštelir,45.0
44.864147,13.97686,Sarancan,63.0
44.81566,13.95967,Sveti Anton,57.0
44.87489,13.915705,Velika Glava,81.0
45.397396,14.211425,Šija,1241.0
45.453465,14.087161,Gomila,1027.0
45.45084,14.097957,Vršić,1036.0
45.49692,13.63191,Nožed,208.0
45.49154,14.073434,Ostrič,1056.0
45.483673,14.150775,Trstenik,837.0
45.48916,14.09519,Goli vrh,942.0
45.283676,14.249336,Knezgrad,612.0
45.288574,14.226319,Grnjac,850.0
45.324886,14.013335,Stari Draguć,503.0
45.362495,14.278112,Beljač,784.0
45.26798,13.806121,Glogovac,379.0
45.210903,13.627451,Sveti Anđel,110.0
45.42326,13.907639,Sveti Juraj,423.0
45.25971,13.776,Rapavel,310.0
45.256714,13.773577,Anžići,300.0
45.334488,13.762814,Sveti Toma,300.0
45.317844,13.759629,Grič,345.0
45.387817,14.167233,Županj vrh,1130.0
45.47016,14.000885,Špičasti vrh,957.0
45.37934,14.159275,Brajkov vrh,1091.0
45.19437,13.651089,Picugi III,110.0
45.197628,13.648882,Picugi II,119.0
45.199654,13.646359,Picugi I,110.0
45.25067,13.727018,Montaur,274.0
45.286915,13.905488,Pilošćak,478.0
45.41144,14.340112,Mačkov vrh,507.0
45.469364,14.365721,Pliš,933.0
45.443672,14.081281,Gradina Rašpor,823.0
45.441273,14.111892,Mocvil,1060.0
45.18215,13.681571,Montižansko brdo,150.0
45.252544,13.926724,Santarija,379.0
45.124588,13.740483,Sveti Martin,230.0
45.007793,14.147998,Torneg,345.0
45.2278,13.73191,Punčan,246.0
45.473866,14.321392,Griža,677.0
45.488297,14.360032,Ostri vrh,752.0
45.48297,14.317497,Visoč,756.0
45.488327,14.346916,Široki Rt,657.0
45.49749,14.392321,Opaljena glavica,649.0
45.49989,14.376389,Veliki Zrnjovec,660.0
44.912155,13.77116,Gradina,32.7
44.916214,13.773948,Saluga,26.0
44.91409,13.777514,Mrtvi vrh,26.0
44.90562,13.778472,Vrh Kosir,30.0
45.019962,14.12298,Goli,539.0
45.040657,14.110014,Tihovinje,513.0
45.401318,14.328258,Stanić,464.8
45.295643,14.236221,Gorica,711.0
44.65122,14.388879,Brdar,119.0
44.597782,14.402964,Polanža,212.0
44.61497,14.392264,Veli Križ,215.0
45.37697,14.18632,Suhi kuk,1076.0
45.440887,14.484263,Dnić,1190.0
45.443306,14.496581,Vidalj,1184.0
45.124454,14.177344,Munac,375.0
45.4604,13.815542,Veli vrh,462.0
45.496834,13.646022,Vrh / M. Arivol,257.0
45.41984,14.324477,Prohodski breg,497.0
45.476856,14.399449,Plešišće,785.0
45.484127,14.382911,Dletvo,784.0
45.394962,14.224694,Lisina,1183.0
45.454155,13.944107,Stražnica,493.0
45.062088,13.777988,Varda,171.6
45.348,14.257254,Budišinac,948.0
45.268982,13.940203,Dibovljak,427.0
45.486256,13.926829,Veliki Gradež,507.0
45.486206,13.917846,Ščukovec (Kuk),498.0
44.986355,14.148043,Orlić,470.0
45.27508,13.923287,Pustov Brih,438.0
45.314766,14.2167635,Crkveni vrh,1101.0
45.33757,14.234198,Brložnik,1093.0
45.35494,14.255001,Zvoncev vrh,972.0
45.4952,13.899888,Vrh križa,411.0
45.491215,13.906047,Krog,418.0
45.463837,13.666443,Čuklja / Zuccola,134.0
45.47715,13.649703,Sveta Nedelja / Santa Domenica,191.0
44.99513,14.122033,Bobrine,449.1
45.46779,13.706981,Gradišče,274.0
45.48617,13.978042,Golič,889.0
45.24399,13.797573,Rajkov vrh,350.0
45.28117,13.712145,Montenez,237.0
45.37668,14.244504,Crni vrh,1031.0
45.39043,14.205843,Vodička griža,1144.0
45.486515,13.657929,Sedenčič,238.0
45.488564,13.705421,Baretovec,289.0
45.460194,13.66497,Sela,188.0
45.29572,13.803163,Krč,366.0
45.26895,13.918981,Findrlov brih,470.0
45.40413,13.922016,Meja,317.0
45.29291,14.217141,Brdo,907.0
45.311607,14.22956,Voljačić,865.8
45.295364,14.226308,Stepanovac,778.0
45.302837,14.21075,Jazvina,1110.0
44.62727,14.457512,Plantur,85.2
44.698513,14.378062,Straže,85.2
44.52547,14.450991,Anuncijata,35.0
44.53162,14.446571,Čikat,29.2
44.733673,14.395844,Kuši,94.0
45.004574,14.073251,Kuki,112.0
45.48755,14.398931,Turkove škulje,712.0
45.47938,14.400951,Vrh Ograje,794.0
45.468258,14.093967,Ivkina glavica,758.0
45.4673,14.101382,Klenovica,760.0
45.460438,14.107086,Ošljak,808.0
45.450935,14.118476,Bunarski vrh,868.0
45.441475,14.1554165,Javornik,717.0
45.414345,14.175084,Golaš,1128.0
45.410896,14.181378,Oštri vrh,1162.0
45.437084,14.141036,Čemerin,883.0
45.420315,14.15167,Javornik,1052.0
45.42447,14.161318,Banica,1005.0
45.415245,14.159254,Osapna,1075.0
45.419693,14.1886,Vrh studenca,981.0
45.375965,14.170169,Škrljavnik,1067.0
45.423504,14.000085,Pilj,555.9
45.271355,13.606263,Monkaštel,50.0
45.28189,13.641005,Monperlon,84.0
45.232273,13.754265,Bašićkin vrh,273.0
45.171467,13.652262,Martezoll vrh,72.0
45.147182,13.740105,Bumberić,182.0
45.054733,13.705348,Monsporco,83.0
45.034573,14.117824,Lotovo,526.0
45.49229,14.068352,Griža,1078.0
45.473095,14.356684,Grmada,940.0
45.480152,14.353779,Liščić,885.0
45.42994,14.078529,Marećica,790.0
45.38626,13.6939125,Kavruja,302.0
44.979244,14.422679,Sveti Bartolomej,314.0
44.76346,14.444502,Konfin,202.0
44.79507,14.42139,Šiljac,196.0
44.6639,14.498483,Ciprijan,74.0
44.572235,14.417215,Kaštel,82.0
44.565002,14.437239,Tovar,116.0
44.579624,14.391114,Stan,110.0
45.154587,14.186181,Kalić,712.2
45.41566,14.25764,Lome,621.0
45.41957,14.242999,Jelenjak,665.0
45.385612,14.340097,Majevi vrh,411.0
44.588707,14.299495,Vela Straža,59.0
44.971485,14.428679,Vrh,346.0
44.614677,14.271329,Turan,127.0
44.623627,14.262938,Pomoć,119.0
44.649086,14.243282,Kambunara,91.0
44.678738,14.265229,Krivenje,76.0
45.454258,14.493828,Osoje,1338.0
44.767296,14.41457,Gračišće,192.0
45.446056,13.961933,Kuk,502.0
45.446438,13.944692,Jašmovica,466.0
45.42751,13.986728,Kuk,531.0
45.11337,14.302066,Halm,432.0
45.13178,14.314345,Novograjca,392.0
45.123894,14.316651,Mali vrh,455.0
45.108997,14.326185,Veli vrh,567.0
45.09462,14.334703,Orline,604.0
45.072483,14.350322,Mukova,625.0
45.321827,13.76275,Sobenjak,324.0
45.47407,14.35693,Pliševica,938.0
45.48865,14.3079,Špiček,583.0
45.383854,14.268108,Šepin vrh,729.0
45.369766,14.241061,Golubovac,1017.0
45.072098,13.762329,Pižanovac,190.9
45.068275,13.777589,Puler,178.0
45.06081,13.800697,Monkaštel,232.4
45.049397,13.809279,Grabrovac,201.2
45.030766,13.8073015,Mažin,175.3
45.018562,13.718173,Mon Grego,47.0
45.022728,13.72704,M. Majan,73.6
45.023426,13.723293,V. Majan,76.7
45.053356,13.755037,Vrh Dorine,146.6
44.659515,14.277117,Mišnjak,52.0
44.65738,14.262595,Kujni,43.0
44.648197,14.260963,Vela straža,43.0
44.644733,14.246522,Križ,109.0
44.628296,14.260665,Sičin,108.0
44.60891,14.277773,Arbit,75.0
45.28977,14.0761,Straževica,460.0
45.291615,14.053573,Sv. Kocijan,475.0
45.284805,14.058637,Gradnji breg,497.0
45.284008,14.039622,Brdo,465.0
45.265007,14.01926,Grnčališće,363.0
45.260277,14.043581,Sv. Križ,381.0
45.297447,14.242967,Gradina,694.0
45.29942,14.250107,Križ,593.0
45.35309,14.288616,Mali Orjak,617.0
45.30422,14.068382,Bilišće,339.0
45.2828,14.111096,Orjak,245.0
45.275097,14.07361,Linčica,444.0
45.269405,14.070614,Sv. Duh,426.0
45.271828,14.048333,Knježovica,406.0
45.327595,14.238851,Vetveni vrh,933.0
45.37042,14.294832,Gračišće,466.0
45.303482,14.096203,Klis,265.0
45.383587,14.240029,Lesnički vrh,1028.0
45.404713,14.2245655,Lipa,1014.0
45.443382,14.215691,Cerovica,842.0
45.438503,14.307224,Goli breg,472.0
45.457054,14.303683,Šepac,536.0
45.454624,14.280987,Gljevarije,463.0
45.433884,14.370974,Malo Židovje,628.0
45.43048,14.377844,Velo Židovje,661.0
45.438625,14.350733,Travnik,584.0
45.441273,14.333151,Stari kal,554.0
45.48964,14.25464,Gradina,562.0
45.466114,14.229243,Orljak,691.0
45.49623,14.138365,Kovačev Stržen,623.0
45.40033,14.258933,Škrapni vrh,733.0
45.39585,14.251452,Šija,811.0
45.388603,14.267123,Krivljanski vrh,719.0
45.384853,14.282063,Osojnak,646.8
45.348495,14.21707,Mahen,1144.0
45.336147,13.679041,Mukle,170.6
45.33092,13.669207,Vele Mukle,170.6
45.004784,14.381136,Jesenovac,543.0
44.988056,14.414461,Zidimar,232.0
45.07022,14.329775,Veli črni,528.0
45.07474,14.317936,Kućina,397.0
45.079735,14.32408,Prašče,453.0
44.65503,14.465621,Maslovnik,79.0
44.935986,14.436948,Marcinjef,324.0
44.958736,14.428917,Garbujev,352.0
44.912624,14.425966,Čule,340.0
44.872738,14.41802,Skulka,320.0
44.864506,14.419913,Vršina,292.0
44.813385,14.430508,Oštroj,200.0
45.488426,14.102651,Batica,914.0
45.48194,14.091494,Ribnik (Žabnik),1023.0
45.493908,14.077817,Gornjanski Žabnik,988.0
44.91673,14.315125,Vršina,326.8
44.908768,14.303236,Zaglav,81.3
44.87744,14.335854,Hrip,447.0
44.82919,14.3433,Vrh od Pojane,207.2
44.840042,14.345524,Ograjčine,373.9
44.83754,14.364083,Sopći,392.6
44.854546,14.355268,Oštri,437.4
44.71666,14.408363,Peščenji,175.8
44.736755,14.410556,Trsina,186.3
44.75052,14.389982,Gračišće,92.0
44.76565,14.396848,Bojnak,222.1
44.78799,14.371429,Konjić,125.7
44.886818,14.399467,Zlostan,428.3
44.927265,14.407305,Betkaf,340.6
44.934803,14.408203,Helm,313.6
45.019733,14.378213,Velo Gračište,562.5
45.0504,14.369105,Barbin,467.0
45.09154,14.303987,Halmac,280.3
45.10271,14.298444,Telcar,323.9
45.109344,14.288941,Kalk,340.4
45.130207,14.292483,Greben,222.9
45.15186,14.361693,Paprić,223.6
45.100403,14.357413,Golo,142.3
45.094727,14.314413,Goli,447.5
45.099007,14.312642,Oštri,436.0
44.72505,14.421131,Ruzmarin,169.0
44.69871,14.466379,Bura,67.7
44.672287,14.414714,Seka,10.3
44.62235,14.481906,Maloraj,41.1
44.93361,13.988373,Bubanj,183.0
44.925488,13.920754,Glavica,162.0
45.496437,14.419653,Grič,940.0
45.144306,14.193055,Orlić,607.5
44.972317,13.972789,Stražica,202.0
45.461967,14.37132,Kukulj,815.0
45.4789,14.3583,Mali Liščić,847.0
45.46116,14.346112,Stari breg,757.0
45.45282,14.335555,Veli vrh,708.0
45.362682,14.403637,Vela straža,346.0
45.364735,14.465912,Turnić,484.0
45.318424,14.496347,Solin,242.0
44.58483,14.30397,Progon,32.0
44.58196,14.3094845,Artić,33.0
44.640842,14.365382,Krivica,128.0
45.33866,14.484292,Orlac,361.0
45.33988,14.489099,Striganj,350.0
45.43605,14.40041,Bojin,670.0
45.460995,14.404186,Suho,766.0
45.45442,14.415237,Krase Vrh,788.0
45.456978,14.426717,Stanišće,817.0
45.44513,14.39556,Široki Rt,695.0
45.4625,14.415924,Široko,822.0
45.358818,14.452907,Rebar,262.0
45.339783,14.496757,Brdo,340.0
45.35126,14.477551,Griža,382.0
45.370113,14.498245,Bočina,400.0
45.354202,14.498995,Cernički vrh,412.0
45.3483,14.461699,Kljun,308.0
45.345787,14.472819,Krasica,315.0
45.399086,14.499809,Mišac,448.0
45.476475,14.4515295,Zeleni vrh,1246.0
45.469105,14.440031,Donji Štulac,1057.0
45.453205,14.364744,Veli vrh,728.0
45.478123,14.339461,Donja Gorica,710.0
45.402176,14.442232,Jelenski vrh,577.0
45.402218,14.424419,Steg,373.0
45.41804,14.33334,Jelovska griža,509.0
45.423786,14.348299,Grabar,514.0
45.425377,14.335357,Pešćinski vrh,506.0
45.43306,14.324215,Vitonja,511.0
45.428986,14.305831,Vela rebra,446.0
45.443096,14.454512,Zaturinac,761.0
45.46121,14.322453,Pliševica,771.0
45.490456,14.219108,Veliki vrh,646.0
45.462246,14.289188,Mali Strmac,520.0
45.48743,14.296033,Sv. Katarina,691.0
45.458977,14.269276,Kravlji breg,423.0
45.496967,14.237239,Golac,644.0
45.0067,14.143983,Torni,373.0
45.002907,14.152228,Zalićev breg,377.0
44.994606,14.150592,Glavica,370.0
45.07529,14.472076,Hrenovac,203.0
45.11946,14.473741,Fumak,61.0
45.377384,14.07238,Vrh Muzora,416.0
45.366356,14.060922,Gradec,454.0
45.382027,14.081789,Črni grad,578.0
45.367474,13.998646,Kobiljak,347.0
45.378326,14.031776,Grbino čelo,366.0
45.355835,14.037505,Mućan,348.0
45.35368,14.052805,Čukarija,377.0
45.38104,14.001456,Veli kuk,300.0
45.346893,14.061881,Marči breg,371.0
45.40765,14.04008,Krkuški vrh,640.0
45.398716,14.004932,Zajčina,318.0
45.41654,13.936504,Mali vrhek,258.0
45.450893,13.917096,Goričica,177.0
45.41743,13.847084,Veliki Repavac,492.0
45.42277,13.825391,Čerešnjevac,457.0
45.40513,13.865592,Pećoc,481.0
45.444206,13.831391,Mandrijanski hrib,492.0
45.382343,13.678706,Huntalov vrh,234.0
45.042435,14.125372,Veli vrh,467.0
44.70324,14.3443985,Mažova gora,161.0
44.641605,14.381285,Široki vrh,271.0
44.68614,14.379053,Bijela glava,162.0
44.607708,14.397431,Peski,164.0
44.689816,14.37629,Mali Tržić,142.0
44.635666,14.384878,Kalčić,283.0
44.56007,14.441784,Tovarić,94.0
44.551632,14.433973,Monah,50.0
44.583794,14.419275,Bradičina,144.0
44.53421,14.459765,Premuda,41.0
44.52147,14.470666,Skračina,90.0
44.531536,14.483669,Brdo ruža,60.0
44.538204,14.468456,Malin,54.0
44.922913,13.745472,Vrbanj,23.0
44.913727,13.762102,Vela Straža,55.0
44.90658,13.768886,Javornik,32.0
44.90575,13.749946,Borik,27.0
44.930862,13.743305,Cer,13.0
44.863598,13.800137,Mužilj,80.0
44.811245,13.902435,Gomila,74.0
44.81184,13.890076,Teraško brdo,69.0
44.886616,13.810168,Brdina,77.0
44.890064,14.33838,Vrh Sela,401.0
45.132988,14.197512,Lanišće,510.0
45.112526,14.176947,Prodol,429.0
45.09794,14.173413,Stražice,376.0
45.1079,14.168975,Standar,474.4
45.060825,14.146225,Lokvice,207.0
45.478107,14.343826,Gornja Gorica,732.0
45.341854,14.478693,Reketinac,335.0
45.359528,14.406209,Mala straža,306.0
45.322594,14.487356,Sveti Križ,213.0
45.430145,14.41033,Veli Brig,616.0
45.382103,14.400041,Plešivac,429.0
45.369385,14.418527,Kablarski breg,405.0
45.358204,14.429543,Vršak,367.0
45.43998,14.387737,Brdo,645.0
45.48374,14.363324,Prvonoh,832.0
45.40037,14.277039,Gradinovo,503.0
45.32486,14.217215,Ravne staje,1132.0
45.40436,14.244682,Črna,773.0
44.882256,14.41059,Vrh Čeren,355.0
44.8299,14.398343,Helec,73.0
44.83332,14.393644,Zaglavec,78.0
44.81463,14.339007,Vrh Tiha,37.5
44.919464,14.315903,Bakinjev vrh,328.0
44.887764,14.343256,Zordetov vrh,392.0
45.370712,14.48273,Čudnić,388.0
45.068535,13.708612,Monsego,98.0
45.25292,14.246725,Šumber,470.0
45.278244,14.20994,Suhi vrh,1335.0
45.356636,14.268312,Majkovac,853.0
45.318855,14.04267,Rumpejak,442.0
45.41011,14.34099,Mačkov vrh južni,504.0
45.499767,13.925329,Zazidski Brgod,443.0
45.49389,13.937079,Štivje,436.0
45.493378,13.949042,Majbrma,686.0
45.484688,14.075437,Vršina,1029.0
45.475163,14.186429,Kovnica,901.0
45.49327,14.211568,Kozamor,640.0
45.48047,14.175071,Jankovac,778.0
45.49398,14.192421,Breg,694.0
45.494484,14.161446,Sečina,666.0
45.49334,14.172485,Glavičina,689.0
45.498016,14.15972,Martinov Stržen,681.0
45.49198,14.12532,Drenovnik,712.0
45.486134,14.14738,Srednji vrh,781.0
45.48692,14.14171,Bajta,778.0
45.496006,14.073932,Silovica,968.0
45.495987,14.09219,Reber,788.0
45.49944,14.10716,Cerovac,680.0
45.46878,13.958373,Strničevec,523.0
45.45738,13.975272,Bačin hrib,531.0
45.464752,13.985179,Ubred,695.0
45.465263,13.970118,Breg,595.0
45.455135,13.960859,Obešen hrib,508.0
45.493233,13.728222,Straža,373.0
45.498894,14.197494,Gradina,792.0
45.4973,13.762226,Straža,364.0
45.477097,13.7754965,Peškovlje,352.0
45.485867,13.761984,Jeplenca,251.0
45.4814,13.711185,Fernet,320.0
45.47738,13.721161,Hrib,281.0
45.48412,13.704993,Zgonič,293.0
45.46016,13.673874,Goli vrh,230.0
45.49376,13.885503,Brgot,323.0
45.49045,13.85075,Brda,353.0
45.46142,13.735595,Gradina,204.0
45.489594,13.802556,Varda,359.0
45.478855,13.797194,Hribec,343.0
45.482338,13.819623,Raven,319.0
45.48319,13.807608,Bržanka,343.0
45.495064,13.816327,Mačji hrib,334.0
45.472622,13.835465,Dvorina,319.0
45.476215,13.848312,Cerovica,326.0
45.474483,13.865899,Tremon,398.0
45.48244,13.866932,Tremun,390.0
45.45647,13.853992,Gabrje,486.0
45.467533,13.864387,Goli hrib,400.0
45.463566,13.86159,Dolgo brdo,407.0
45.46772,13.823109,Vrh,427.0
45.45454,13.832569,Praponjik,437.0
45.44919,13.840301,Dvorina,462.0
45.468292,13.847894,Krožič,391.0
45.459656,13.835861,Likovišče,433.0
45.4495,13.824418,Gradišče,423.0
45.4493,13.812265,Korune,427.0
45.44562,13.805037,Sovinjak,454.0
45.45006,13.867853,V bregu,473.0
45.44499,13.851868,Zaboška,451.0
45.449398,13.880002,Fined,408.0
45.43935,13.823836,Raven,451.0
45.438572,13.8683815,Hrib,472.0
45.435917,13.845358,Bojenik,441.0
45.437824,13.853579,Kravarija,435.0
45.467075,13.887512,Maja,364.0
45.440384,13.846615,Rosuj,442.0
45.465332,13.903645,Gradec,413.0
45.45926,13.914344,Veli Badin,359.0
45.463535,13.943033,Greben,475.0
45.44096,13.893947,Trdetin,446.0
45.47964,13.89442,Velika Griža,417.0
45.478863,13.936354,Tri Očke,499.0
45.46777,13.922346,Goričica,197.0
45.488583,13.928386,Stražica,510.0
45.49491,13.66977,Škufeljca,127.0
45.043938,14.143576,Strožice,195.0
45.063824,14.027158,Gradište,244.0
45.070152,14.062337,Rt,182.0
44.97533,14.096027,Gradac,33.0
45.457546,14.480335,Pakleno Južni Vrh (H8),1305.0
45.469585,14.451857,Štulac,1212.0
45.499073,14.434835,Tisovska glavica,1024.0
45.482517,14.448755,Trstenik,1244.0
45.48803,14.445499,Trstenik,1206.0
45.485683,14.44984,Mali Trstenik,1237.0
45.489323,14.495662,Bijela Škalja,1407.0
45.469337,14.3378315,Tolsti grič,698.0
45.46723,14.469643,Veliko Pakleno,1331.0
45.4648,14.498896,Lom,1179.0
45.491127,13.645752,Kaštelir,271.0
45.487892,13.640249,Zeleni hrib,222.0
45.028725,14.123723,Studeni vrh,525.5
45.151318,14.193167,Leskovac,612.0
45.036816,14.018094,Grubišnjak,254.0
45.494625,14.018813,Jelovišta,741.0
45.244213,14.205746,Balin,887.0
45.10705,14.14301,Šilac,346.0
45.105347,14.14015,Mali breg,343.0
45.095013,14.162513,Brdo,362.0
45.32859,14.12075,Vrh,413.0
45.297337,14.089802,Tupalica,393.0
45.47107,13.876555,Na Vrhu,416.0
45.42494,13.808363,Zelenac,457.0
45.43317,13.804501,Brajkov vrh,445.0
45.4661,13.588168,Rujevac,130.0
45.44635,13.550925,Kaštelir,56.0
45.48949,13.542667,Glavica,50.0
45.45766,13.620848,Markovac,162.0
45.42891,13.719419,Sveti Nikola,312.0
45.435688,13.687887,Fineda,205.0
45.415943,13.706582,Krog,306.0
45.426075,13.728402,Vršić,303.0
45.435722,13.759766,Fineda,348.0
45.45504,13.776852,Hrib,436.0
45.45449,13.770071,Tijola,423.0
45.449223,13.795996,Dvorina,474.0
45.389717,13.86882,Poletiole,446.0
45.435738,13.727264,Bićerak,350.0
45.443096,13.802342,Sovinjak,447.0
45.423546,13.790974,Stara Šterna,398.0
45.42425,13.796445,Galešova,437.0
45.076138,14.149125,Viškoljak,107.0
45.42347,13.775027,Slopji vrh,399.0
45.11649,14.127895,Brčica,316.0
45.427162,13.879743,Srednje brdo,402.0
45.414642,13.881204,Slivice,452.0
45.41214,13.877637,Glavica,462.0
45.40381,13.907554,Zelena trava,232.0
45.433537,13.8258915,Šeraj,438.0
45.39066,14.066984,Vrhak,450.0
45.451504,13.679261,Dovin,125.0
45.337723,14.278678,Veprinac,518.0
45.35623,14.2851715,Orjak,712.0
45.332005,14.277441,Sveti Juraj,467.0
45.32742,14.280639,Osojnica,401.0
45.307198,14.203417,Krog,996.0
45.29771,14.204037,Plas,1286.0
45.291656,14.23805,Vid,687.0
45.306396,14.254133,Fratrov breg,519.8
45.2637,14.251078,Križ,445.0
45.265343,14.224946,Velo Sedlo,799.0
45.277008,14.260488,Oraj,379.0
45.346226,14.190727,Gradec,1092.0
45.377598,14.110521,Sokolić,754.0
45.39438,14.110763,Debeli vrh,690.0
45.385567,13.998788,Mali kuk,275.4
45.390713,14.0895195,Stražnica,694.0
45.336903,14.076216,Veli brijeg,402.0
45.341934,14.076518,Mali brijeg,374.0
45.36049,14.111504,Osoje,602.0
45.230133,14.214003,Gradac,749.0
45.15364,14.198731,Borigrad,593.0
45.193184,14.213504,Bukovica,628.0
45.391903,14.258332,Opolelica,781.0
45.391037,14.183807,Vrh Prdljevice,970.0
45.39413,14.236878,Lisinica,968.0
45.381176,14.156553,Brajkov vrh,1090.0
45.394352,14.14244,Pišćetak,1035.0
45.426144,14.146493,Sapan,1006.0
45.412865,14.139068,Goli breg,1024.0
45.408268,14.131116,Stražica,962.0
45.405087,14.145315,Martinjak,990.0
45.378227,14.231899,Kosmač,1092.0
45.446922,14.19617,Koste,709.0
45.444622,14.201486,Vrh sela,728.0
45.453003,14.192098,Zejanski vrh,781.0
45.18215,13.808684,Korona,331.5
44.987274,14.067118,Hortica,152.0
45.125652,13.718565,Koren,154.0
45.298347,13.901173,Padova,443.0
45.261654,13.817512,Kurbino brdo,369.0
45.290142,13.873654,Brdo,432.0
45.38349,13.703763,Čuket,290.0
45.491615,14.374592,Obli rt,657.0
45.48849,14.379502,Oštarija,712.0
45.48348,14.340726,Brezovec,638.0
45.2192,14.065644,Plovanski breg,209.0
45.44913,14.137133,Strguljin grad,694.0
44.51905,14.289904,Ravno,73.0
44.51481,14.29624,Sraža,91.0
44.513718,14.299608,Garba,88.0
45.49887,14.285851,Božičin breg,632.0
45.49658,14.2883,Branček,634.0
45.498264,14.310633,Kalič,606.0
45.49921,14.255652,Šušanj,560.0
45.498077,14.302113,Goljak,575.0
45.496567,14.31531,Kičeber,582.0
45.49274,14.331262,Ovčji breg,655.0
45.49592,14.339154,Glavica,677.0
45.43204,14.13581,Kopitnjak,923.0
45.40178,14.384417,Rožca,479.0
44.90381,13.754518,Vrh Borik,28.0
45.043945,14.487057,Mali Vršak,95.0
45.41367,13.63716,Starola,165.0
45.410122,13.644236,Pelegrin,185.0
45.432304,13.598735,Glavica,122.0
45.415134,13.630356,Cupiga,134.0
44.986874,14.163353,Kljištovac,209.0
45.047215,14.121739,BulIgrad,440.0
45.493126,14.415836,Volarija,1011.7
45.49039,14.422756,Volarija,1044.0
45.204838,13.824521,Mažire,338.8
45.19726,13.7975025,Kras,326.3
45.199223,13.777095,Rušnjak,296.5
45.179367,13.762895,Lakovićki brig,241.0
45.228313,13.818185,Sv. Martin,354.3
45.220093,13.91236,Maršetov brig,427.0
45.230774,13.900553,Brijež,399.0
45.23374,13.884708,Krčan,399.0
45.23312,13.808225,Brda,350.2
45.247726,13.788417,Pajićka glavica,337.6
45.23181,13.782141,Turkovac,317.0
45.261723,13.783949,Smoličeva glavica,337.8
45.131866,13.7146845,Kamenjača,134.6
45.13859,13.720298,Kozarica,124.1
45.13108,13.726559,Glavica od Lima,133.2
45.116703,13.775034,Obruči,183.8
45.084705,14.478601,Kukurik,176.0
45.321545,13.821017,Šublentica,352.0
45.44726,14.24384,Ogorelac,657.0
45.413136,14.414919,Kamenski vrh,497.0
45.445553,14.356775,Golićev breg,608.0
45.399864,14.365501,Sohi,452.0
45.417126,14.376135,Vrhi,540.0
45.395508,14.442414,Gradišće,506.0
45.451614,14.349517,Golaš,696.0
44.65486,14.375864,Laća,401.0
44.68206,14.3560915,Kalek,451.0
44.646877,14.381159,Počivalice,246.0
44.563686,14.423842,Torunza,46.0
44.571693,14.430287,Krbošćak,98.0
45.273083,13.980697,Sv. Oldrih,379.0
45.283436,13.983258,Smrikovac,339.0
44.7995,13.904313,Glavica,44.0
44.846592,13.855789,Gradina,50.0
44.771286,13.911329,Kršine brdo,40.0
44.811317,13.8825,Kaštelir,68.0
44.8319,13.865094,Debeli vrh,42.0
44.79179,13.90455,Grakalovac,46.0
44.817204,13.856486,Bumbište,42.0
44.883797,13.891873,Šandalj,107.0
44.893375,13.879761,Vernal,85.0
44.79581,13.905918,Čukovica,50.0
44.81268,13.908154,Gradina,74.0
44.83514,13.887218,Kaštijun,66.0
44.870182,13.890464,Turko,52.0
44.88263,13.824254,Karbuner,34.0
44.892548,13.809152,Špeh,44.0
44.936367,13.885109,Fujevo brdo,150.0
44.83305,13.847315,Selina,35.0
44.827095,13.848753,Piškera,31.0
45.364918,13.900481,Mali vrh,299.0
45.36182,13.893131,Veli vrh,346.0
45.383953,14.018491,Breg,296.0
45.37953,13.975419,Korterski breg,297.0
45.380848,13.955815,Dečev breg,341.0
45.415703,13.948282,Rebar,116.0
45.374107,13.955504,Frlećica,395.0
45.367363,13.923342,Knezov breg,274.0
45.408417,13.951135,Sakalovac,103.0
45.479763,14.008209,Vrh od Šterne,782.0
45.394295,14.0835,Stražica,708.0
45.420944,14.026311,Oštri vrh,659.0
45.466515,14.157156,Obršje,768.0
45.426,14.014566,Osuja,604.0
45.39624,13.776375,Vrh,297.0
45.361244,14.148495,Debeli vrh,741.0
45.4155,14.050009,Srednji vrh,691.0
45.429,14.039799,Črešnjevice,650.0
45.456493,14.208048,Jabučina,828.0
45.42669,14.028843,Veli vrh,627.0
45.462116,14.227934,Pušino brdo,668.0
45.465504,14.223417,Jelica,702.0
45.474663,14.143605,Surinova glavica,744.0
45.477695,14.125453,Strahovica,771.0
45.416767,14.170841,Visoko,1087.0
45.47071,14.146662,Maj,757.0
45.47808,14.109847,Grabrova glavica,883.0
45.45282,14.225965,Korenika,712.0
45.469265,14.207728,Buričine,825.0
45.463154,14.174777,Grintelj,748.0
45.459496,14.203651,Paljušić,821.0
45.46234,14.19358,Črimošnjak,797.0
45.451794,14.208403,Uda smrika,821.0
45.448402,14.216182,Kantrida,801.0
45.43177,14.271872,Glavica,405.0
45.42822,14.233215,Paredine,708.0
45.43319,14.205041,Mramor,615.0
45.435577,14.2245035,Hudi vrh,733.0
45.437714,14.25508,Gradišće,564.0
45.438644,14.251085,Zlamenje,580.0
45.473404,14.07997,Ugljenica,824.0
45.468716,14.070115,Kamena glavica,923.0
45.472656,14.024866,Špičasta glavica,684.0
45.459183,14.046807,Dražica,824.0
45.463196,14.071192,Zubača,975.0
45.459816,14.092762,Zeleni breg,875.0
45.461254,14.075834,Špinov vrh,997.0
45.473053,14.020234,Oštra glavica,688.0
45.44797,14.040715,Vrhi,776.0
45.495453,14.003977,Jelovički vrh,675.0
45.4722,14.065252,Gola glavica,852.0
45.47929,14.023103,Piškova glavica,632.0
45.455162,14.064075,Gradac,857.0
45.478863,14.036234,Siljevac,820.0
45.46674,14.041588,Glavica,681.0
45.45706,14.051391,Gradina,827.0
45.465588,14.007479,Muzari,985.0
45.461807,14.021635,Progan,939.0
45.452457,14.074525,Lobardina,888.0
45.458847,14.0600395,Cesarski vrh,712.0
45.46719,14.059792,Debela griža,934.0
45.448067,14.052154,Grbinjak,754.0
45.469105,14.185952,Jasenjak,822.0
45.449833,14.261383,Travan,481.0
45.468266,14.19713,Jenčarija,881.0
45.44461,14.241694,Makljen,650.0
45.469368,14.261717,Vrhi,403.0
45.44646,14.270958,Duženički vrh,416.0
45.476044,14.212191,Medvedina,690.0
45.467564,14.22222,Debeli vrh,706.0
45.463535,14.274153,Oštri vrh,448.0
45.474987,14.173416,Osik,775.0
45.4457,14.294555,Medvedje griže,454.0
45.477795,14.20808,Maj,650.0
45.420673,14.359241,Blažićev vrh,517.0
45.452396,14.274084,Gospenica,447.0
45.4134,14.210296,Mala Šija,960.0
45.461468,14.260424,Travnik,399.0
45.43335,14.316566,Piščevati breg,476.0
45.42668,14.321205,Tresni breg,502.0
45.46468,14.2874,Veliki Strmac,510.0
45.43983,14.139113,Mali Čemerin,782.0
45.443214,14.120737,Pilj,962.0
45.467197,14.329531,Liskovac,704.0
45.460552,14.334616,Popenac,753.0
45.442566,14.172143,Veliki Brig,653.0
45.38809,14.215368,Pećinski breg,1116.0
45.441715,14.1804495,Požarov vrh,636.0
45.434162,14.145946,Oplašnica,884.0
45.420486,14.179522,Popov vrh,990.0
45.461784,14.137607,Mačićev vršić,646.0
45.140976,14.221457,Veli Trtanj,103.0
45.29668,13.727178,Kapularov vrh,286.0
45.28428,13.707446,Grabar,218.0
45.278194,14.251281,Šipičin vrh,541.0
45.371716,13.82981,Sveta Jelena,421.0
45.406834,13.820071,Meja,398.0
45.431286,13.789773,Vrh,426.0
45.366837,13.837728,Čebronjak,320.0
45.424953,13.92123,Krajev hrib,234.0
45.440044,13.807633,Veli Bič,434.0
45.418674,13.804008,Glavica,406.0
45.44848,13.858793,Maverna brda,443.0
45.45161,13.800173,Vrh,455.0
45.493015,13.74897,Labor,328.0
45.449005,14.453292,Jaša,809.0
45.44197,14.479594,Hahlić,1081.0
45.431103,14.117678,Vidonj vrh,891.0
45.415836,14.1350765,Mali Orljak,1033.0
45.42153,14.092831,Oštri vrh,792.0
45.190033,13.641069,Šansar,119.0
45.198944,13.66716,Vrh Valdecin,102.0
45.18114,13.667197,Ćušov vrh,122.0
45.180275,13.670689,Blagarica,121.0
45.195045,13.676037,Malovar,128.0
45.19516,13.657092,Draća,82.0
45.300564,14.196211,Vela Gorica,1005.0
45.10649,13.976054,Paprtnica,378.0
45.111607,13.650581,Mučuban,93.0
45.134693,13.685415,Velika Šimnja,95.0
45.155636,13.668814,Brišak,82.0
45.10723,13.962839,Sankovište,370.0
45.119377,13.618311,Sv. Fuma,22.0
45.15993,13.67353,Veliki Debeljak,119.0
45.129063,13.70707,Drčev vrh,122.0
45.098465,13.696293,Smrikovac,127.0
45.14601,13.683274,Ušnjak,112.0
45.168472,13.712872,Radmanski vrh,177.0
45.116425,13.671771,Karpa,106.0
45.113445,13.620466,Mon Kornjaj,35.0
45.18606,13.711117,Malin vrh,160.0
45.110737,13.706233,Marićovica,154.0
45.114914,13.613163,Križ,57.0
45.171642,13.720582,Dodin vrh,180.0
45.130215,13.629223,Crljenica,63.0
45.158512,13.668423,Vonjavica,94.0
45.126404,13.650149,Šankarer,108.0
45.156734,13.677882,Mali Debeljak,104.0
45.17186,13.681131,Delićki vrh,118.0
45.173576,13.714953,Kaštelir,183.0
45.414845,14.445156,Radovanj,557.0
45.380943,13.637855,Marcari,169.0
45.39993,13.642435,Kontarini,157.8
45.389442,13.633264,Kršin,126.0
45.36089,13.669007,Baršut,137.0
45.40299,13.672096,Monte Baster,234.0
45.386784,13.726397,Fraška,335.0
45.372993,13.643187,Smergo,168.0
45.4026,13.658904,Sv. Eufemija,187.0
45.394257,13.661182,Kastanjari,219.0
45.353714,13.682157,Drače,118.0
45.393898,13.683922,Kurel,229.0
45.34393,13.620166,Saltarija,84.0
45.37696,13.767433,Sv. Križ,367.0
45.409683,13.612847,Trumba,116.0
45.374,13.658626,Tisarica,165.0
45.389,13.619401,Zlavaj,122.0
45.38182,13.662433,Sv. Franjo,203.0
45.368687,13.627115,Monaški vrh,131.0
45.404602,13.774105,Kaštelir,348.0
45.37764,13.759284,Sv. Jure,384.0
45.33709,13.633724,Sv. Jurij,70.0
45.39307,13.721711,Klija,284.0
45.44908,13.705823,Breg,318.0
45.399662,13.733457,Breg,302.0
45.444435,13.744246,Škrljevac,376.0
45.444817,13.753989,Smrečke,386.0
45.44356,13.746612,Prepujić,378.0
45.442886,13.776225,Kalići,404.0
45.444695,13.764186,Šavarinovac,360.0
45.44946,13.765186,Hrib,388.0
45.389633,13.960297,Tičarija,345.0
45.399548,13.953881,Mejica,127.0
45.396526,13.886549,Hrib,393.0
45.38192,13.808781,Armanja,416.0
45.40955,13.845837,Kukuj,459.0
45.365288,13.807361,Silvestar,318.0
45.351105,13.887636,Meja,214.0
45.355896,13.889574,Mejica,272.0
45.391457,13.94308,Hrib,354.0
45.358696,13.8825445,Glavica,295.0
45.348625,13.90417,Šćavce,146.0
45.12025,13.731921,Gradina,206.0
45.13979,13.642648,Vandalari,105.0
45.10287,13.744868,Kobilarica,192.0
45.12499,13.734476,Rupnjak,213.0
45.10906,13.742192,Zvenke,204.0
45.111153,13.741715,Mali vrh,207.0
45.104313,13.775865,Mompeter,208.0
45.115906,13.742949,Žuntića glavica,189.0
45.11084,13.735653,Karaštak,202.0
45.1304,13.775643,Čepinov vrh,218.0
45.101536,13.750942,Gušovac,197.0
45.095375,13.775013,Kotištak,185.0
45.10156,13.765921,Jurovac,195.0
45.089504,13.733572,Peniška glavica,151.0
45.08946,13.765846,Morovac,291.0
45.08833,13.778948,Mali Golaš,188.0
45.096546,13.748186,Žamljak,198.0
45.092537,13.777842,Mongrupač,196.0
45.080322,13.753784,Male Hižine,161.0
45.09961,13.773125,Mamu,196.0
45.08331,13.773377,Veliki Golaš,231.0
45.08135,13.75671,Velike Hižine,164.0
45.10374,13.800659,Bataljevac,203.0
45.078197,13.807895,Noveruk,210.0
45.08097,13.760709,Montižeja,157.0
45.07982,13.750253,Kaž,172.0
45.08601,13.747222,Veliki Busul,177.0
45.082764,13.739684,Veliki Karpanj,170.0
45.094257,13.761104,Momarin,212.0
45.083553,13.749878,Mali Busul,179.0
45.09174,13.75814,Mrvazin,206.0
45.076588,13.751444,Pudarica,157.0
45.08621,13.71922,Smrikovica,140.0
45.09124,13.747927,Glavice,179.0
45.07827,13.712765,Kovačov vrh,104.0
45.07733,13.729328,Rikardov vrh,141.0
45.07242,13.720116,Ladićov vrh,198.0
45.075417,13.707953,Baldov vrh,84.0
45.06208,13.759648,Valkaretov vrh,159.0
45.07325,13.755049,Lešišnjak,167.0
45.07431,13.775183,Martežin,172.0
45.06903,13.744421,Brničevac,139.0
45.06647,13.761157,Škačota,174.0
45.06702,13.727321,Rebra,100.0
45.063133,13.715362,Monte Karpa,81.0
45.05622,13.738901,Mulem,125.0
45.06757,13.705082,Mušego,104.0
45.0563,13.711923,Šarižol,95.0
45.09956,13.726493,Golo brdo,168.0
45.101547,13.724173,Velika Gumila,180.0
45.082447,13.705008,Jar,131.0
45.050434,13.709617,Čulov vrh,68.0
45.03221,13.693086,Mučelo,17.0
45.05023,13.717304,Vrh Spanidiga,80.0
45.04226,13.692923,Lešo,36.0
45.0454,13.710688,Grašićov vrh,62.0
45.026623,13.709887,Sveti Damjan,21.0
45.029823,13.734885,Bruže,57.0
45.023037,13.717539,Zmijski vrh,48.0
45.012074,13.745103,Trombona,60.0
45.029114,13.744037,Soko,71.0
45.015118,13.731246,Bašo,60.0
45.018257,13.723727,Ivići,50.0
45.034767,13.722272,Mongrižeja,66.0
45.032948,13.7091255,Murinjan,41.0
45.02268,13.7383585,Paštrovićev vrh,63.0
45.03106,13.728217,Brigonere,55.0
45.02528,13.735828,Sveta Nedilja,62.0
45.06645,13.68204,Monzvonel,52.0
45.069546,13.678136,Elvarno,44.0
45.014515,13.741997,Gonan,62.0
45.10351,13.6311035,Monpelozo,49.0
45.085957,13.668508,Vršetina,38.0
45.074852,13.639134,Mulin,42.0
45.125484,13.64598,Tonkaž,102.0
45.146057,13.760681,Prtenjaćko brdo,230.0
45.10808,13.668311,Juretov vrh,52.0
45.10605,13.635596,Mončarez,42.0
45.15157,13.79075,Vrh Draguzeti,241.0
45.137466,13.803127,Križnjak,259.0
45.14429,13.718273,Črljan,162.0
45.15874,13.787648,Gradišće,247.0
45.141857,13.735795,Vrh,177.0
45.140232,13.782255,Gradina,266.0
45.145588,13.714234,Kloštarska glavica,153.0
45.146152,13.770001,Klarićevo brdo,231.0
45.149063,13.74694,Mićin vrh,171.0
45.160625,13.71142,Mali Major,169.0
45.166145,13.676403,Prekijov vrh,99.0
45.143436,13.705997,Vrh Kave,138.0
45.163094,13.683946,Štrovac,127.0
45.169403,13.669708,Veliki Smokovac,113.0
45.163406,13.709532,Veliki Major,189.0
45.16972,13.68656,Veliki Mramor,121.0
45.16268,13.644255,Kaligarići,64.0
45.149918,13.719766,Perovac,153.0
45.15737,13.703444,Kamenjak,161.0
45.164337,13.688974,Zlatovac,127.0
45.170918,13.6891165,Mali Mramor,120.0
45.167236,13.693262,Marinov vrh,141.0
45.16855,13.666632,Mali Smokovac,104.0
45.16909,13.660337,Grabrovica,94.0
45.17341,13.644866,Brišak,89.0
45.150932,13.670616,Miloševica,99.0
45.1451,13.676907,Bumbažin,106.0
45.152588,13.658581,Prkećinov vrh,117.0
45.15079,13.6536255,Veliki vrh,117.0
45.145958,13.654759,Bulpinski vrhi,121.0
45.1489,13.660228,Črni vrh,118.0
45.151447,13.642085,Biškupovi vrhi,112.0
45.14633,13.6392975,Vrh Kravarice,107.0
45.14864,13.613167,Vrnale,70.0
45.13828,13.602678,Karpan,25.0
45.14212,13.616489,Montigun,57.0
45.15683,13.638789,Veliki vrhi,107.0
45.144207,13.611451,Bruštulade,60.0
45.15494,13.613159,Zatika,59.0
45.16959,13.606603,Lovrinovića vrh,32.0
45.187485,13.598692,Divljački vrh,35.0
45.17619,13.626563,Črnjančić,48.0
45.172672,13.632085,Faraguda,73.0
45.166203,13.618037,Mugrasel,46.0
45.204006,13.622212,Sveti Petar,63.0
45.191757,13.613437,Martin,67.0
45.19226,13.588835,Goli vrh,25.0
45.18286,13.613047,Veli vrh,48.0
45.199852,13.63068,Serafin,85.0
45.196648,13.630416,Leveruc,80.0
45.189594,13.600362,Lahov vrh,38.0
45.192657,13.603132,Krcaveja,34.0
45.19314,13.644859,Muliganac,113.0
45.19584,13.641047,Šarajka,79.0
45.18488,13.6227865,Zbižalka,38.0
45.18529,13.633758,Škavnica,71.0
45.190254,13.633112,Plišivka,90.0
45.205334,13.6181965,Miked,51.0
45.199596,13.622175,Pomed,62.0
45.193485,13.624009,Mugeblić,83.0
45.195988,13.61731,Dvorina,46.0
45.21252,13.611627,Košambra,52.0
45.22319,13.62322,Kovačica,63.0
45.225327,13.61641,Petrov vrh,57.0
45.217983,13.62499,Bejakin vrh,88.0
45.197666,13.586051,Debeli vrh,34.0
45.214302,13.640377,Mali vrh,102.0
45.20914,13.622372,Ciprijanov vrh,51.0
45.216373,13.632961,Veliki vrh,100.0
45.207214,13.719996,Bajban,187.0
45.189766,13.722442,Odrlin,167.0
45.201153,13.719273,Tičarica,145.0
45.210712,13.618139,Veli vrh,70.0
45.221733,13.664113,Rušnjakov vrh,117.0
45.19901,13.598414,Bačvan,46.0
45.215725,13.649789,Vidor,102.0
45.234562,13.609293,Matulički vrh,46.0
45.197205,13.752918,Rakovčev vrh,246.0
45.190994,13.74092,Pišurinka,216.0
45.22208,13.610718,Vrh Zatike,51.0
45.21696,13.7018175,Gregovica,157.0
45.20183,13.641863,Valkarinska glavica,68.0
45.225624,13.630725,Buranka,78.0
45.235176,13.648146,Fabićov vrh,95.0
45.220566,13.627814,Runjevac,65.0
45.222157,13.617414,Tinjacov vrh,50.0
45.215614,13.612457,Vrh Škavacera,56.0
45.324223,13.643284,Dračevac,115.0
45.22568,13.646261,Petrovac,96.0
45.24438,13.713652,Solenjak,229.0
45.231155,13.697635,Pršurićki vrh,155.0
45.24265,13.675975,Rumpeljak,163.0
45.249367,13.6390915,Bendek,100.0
45.270523,13.710032,Kršenac,207.0
45.28832,13.692816,Mavriš,188.0
45.23665,13.680688,Rabanov vrh,141.0
45.263206,13.687124,Kamenica,161.0
45.26216,13.60738,Vrh Santarije,51.0
45.31339,13.696321,Vrh Tadini,255.0
45.394444,13.582025,Vrhi,76.0
45.31023,13.689695,Babićki vrh,254.0
45.293262,13.58828,Cemerića brda,40.0
45.322266,13.653455,Golaš,169.0
45.34157,13.685802,Gradina,111.0
45.326973,13.671395,Male Mukle,164.0
45.327015,13.718218,Cerovina,260.0
45.33308,13.723063,Pudarica,243.0
45.34336,13.715057,Drvarica,192.0
45.340683,13.677541,Ravna strana,147.0
45.340397,13.720957,Vršić,210.0
45.34222,13.706454,Zminjac,178.0
45.33497,13.746848,Krušerov vrh,281.0
45.313553,13.760349,Gradina,336.0
45.3315,13.738025,Glavica,287.0
45.32785,13.75488,Bošket,294.0
45.349678,13.711858,Nardući,103.0
45.319027,13.776351,Glavica,299.0
45.332653,13.7553425,Bekarov vrh,298.0
45.315258,13.741171,Pekavica,320.0
45.3378,13.776796,Furbova Boška,174.0
45.305508,13.734522,Stanišov vrh,300.0
45.340267,13.7997465,Dolcan,60.0
45.330338,13.797544,Šandrih,179.0
45.311203,13.791113,Mali Kamenjak,282.0
45.314964,13.795515,Veli Kamenjak,256.0
45.296227,13.789628,Veli brig,355.0
45.299614,13.801609,Violski brijeg,344.0
45.281704,13.804367,Bankovac,346.0
45.282707,13.747201,Martinov vrh,317.0
45.303097,13.791343,Obor,346.0
45.303226,13.768438,Brižac,338.0
45.299248,13.759698,Krušarov vrh,321.0
45.302532,13.778019,Mutika,336.0
45.27765,13.77681,Klenac,333.0
45.278503,13.761797,Jamovac,325.0
45.283367,13.840813,Rakavac,373.0
45.246204,13.803563,Mandićev vrh,346.0
45.27662,13.789127,Turkovica,340.0
45.269707,13.851097,Straže,395.0
45.23518,13.789363,Starića vrh,323.0
45.268875,13.798232,Smolićev brig,365.0
45.292465,13.83038,Pilatski brig,352.0
45.300354,13.835623,Rabotan,396.0
45.258457,13.792223,Brčićeva glavica,334.0
45.293335,13.811459,Liretov brig,375.0
45.287918,13.823831,Ovzida,356.0
45.298965,13.816932,Hadum,326.0
45.26714,13.818606,Sveta Marija,371.0
45.24737,13.830884,Muškovića vrh,387.0
45.288673,13.819642,Merdač,359.0
45.26861,13.825878,Veli vrh,376.0
45.24737,13.81387,Štandar,374.0
45.254616,13.818188,Jelino brdo,367.0
45.26572,13.845401,Martinci,401.0
45.27907,13.833112,Obišenjak,355.0
45.263866,13.837113,Malenica,383.0
45.26163,13.8397045,Martinićevo brdo,401.0
45.261528,13.828009,Livačka glavica,366.0
45.252224,13.835993,Kostanjevica,394.0
45.23489,13.8187065,Brentarica,356.0
45.234898,13.814202,Vrh,355.0
45.252926,13.781233,Montejan,325.0
45.262527,13.77443,Grabar,324.0
45.269794,13.74803,Žužićev vrh,299.0
45.266064,13.733718,Pavnica,265.0
45.22946,13.739319,Katunsko brdo,250.0
45.231297,13.746047,Vrtlač,259.0
45.2344,13.741834,Košutićka glavica,238.0
45.212776,13.758482,Benić vrh,266.0
45.247147,13.743118,Ivanova glavica,263.0
45.180965,13.855976,Vošljak,337.0
45.167793,13.752637,Sohnjak,185.0
45.186195,13.74757,Grivun,222.0
45.169502,13.858974,Vrhovine,336.0
45.199722,13.84551,Bačak,334.0
45.19977,13.872605,Glavica,404.0
45.134113,13.831072,Glavica,297.0
45.156696,13.754709,Glavica,184.0
45.16278,13.816388,Didovac,322.0
45.170155,13.835696,Juštov vrh,317.0
45.169727,13.842433,Juštov rt,303.0
45.16255,13.880963,Lesičak,355.0
45.177067,13.883607,Brestić,375.0
45.20577,13.864107,Gorica,380.0
45.137875,13.874042,Krničar,356.0
45.19618,13.880451,Goliš,406.0
45.232906,13.876066,Blažov vrh,384.0
45.184963,13.896569,Gajmovića breg,394.0
45.21424,13.853545,Veliki vrh,381.0
45.247753,13.8993,Kuk,364.0
45.21685,13.8235445,Ivetićev brig,336.0
45.231766,13.83522,Crkvena glavica,358.0
45.277378,13.891181,Vela Grota,458.0
45.338493,13.932467,Breg,195.0
45.26414,13.911486,Vela Santarija,391.0
45.219463,13.785325,Pedelinovac,291.0
45.26312,13.8826475,Santarija,407.0
45.27576,13.906046,Benkić,362.0
45.22253,13.826528,Glavica,344.0
45.25934,13.906281,Mala Santarija,377.0
45.27109,13.895663,Sv. Jure brih,403.0
45.281265,13.85742,Kamenica,378.0
45.252655,13.861023,Brajkovski brig,389.0
45.261806,13.91939,Purgar,460.0
45.258533,13.874867,Batovčev vrh,409.0
45.277668,13.869066,Muzarine,383.0
45.27788,13.914746,Huhuber,397.0
45.26969,13.882607,Crkveni breh,440.0
45.257336,13.855588,Brig,408.0
45.291325,13.918311,Glavica,352.0
45.31603,13.908603,Finida,420.0
45.26741,13.868318,Špitalski vrh,407.0
45.28322,13.866151,Glavica,401.0
45.285763,13.852844,Veli brig,430.0
45.263447,13.864295,Štrped,404.0
45.273388,13.865389,Kaštelir,359.0
45.29604,13.873019,Cviće,433.0
45.301006,13.879274,Brdo,456.0
45.300594,13.886911,Barišće,465.0
45.292362,13.865099,Mulov brig,421.0
45.301876,13.864861,Markovac,423.0
45.307392,13.947731,Santarija,320.0
45.26041,13.951651,Gipčica,366.0
45.296505,13.951576,Pećina,215.0
45.293125,13.908162,Brdo,461.0
45.298725,13.947743,Brig,241.0
45.286743,13.932464,Kabal,313.0
45.30552,13.9541855,Glavica,313.0
45.27274,13.955473,Golaš,388.0
45.28366,13.954528,Vukovica,297.0
45.309654,13.865685,Kozare,298.0
45.303223,13.8466835,Brežina,425.0
45.328934,13.941717,Jurdanovo brdo,132.0
45.35272,14.003757,Kramenjica,338.0
45.34175,13.909504,Brajdice,133.0
45.334465,13.8710575,Kancijanov breg,298.0
45.318108,13.88205,Sv. Kirin,392.0
45.27711,13.98442,Dorina,383.0
45.34446,13.985948,Mejica,254.0
45.285892,14.001441,Glavica,404.0
45.3449,13.978087,Štandar,322.0
45.258457,14.003306,Veli vrh,393.0
45.30347,13.987753,Brdo,308.0
45.260136,13.96797,Krči,397.0
45.315968,13.999705,Meji,462.0
45.3243,13.967895,Križišće,274.0
45.25626,13.96921,Punjava,386.0
45.265915,13.966335,Sv. Lovreč,419.0
45.30486,14.00178,Sv. Antun,492.0
45.350563,14.000922,Vedunova Mejica,327.0
45.349842,14.020494,Lavele,292.0
45.347412,14.0223255,Veštino brdo,298.0
45.337242,14.066923,Smrekovac,310.0
45.345875,14.000482,Mali breg,326.0
45.353355,14.01628,Muno brdo,298.0
45.34254,14.027634,Devnica,361.0
45.313545,14.015542,Senica,402.0
45.33955,14.020148,Tončev breg,391.0
45.341526,14.009796,Kabaštica,309.0
45.306507,14.033262,Dvorine,452.0
45.330868,14.033053,Zavrh,361.0
45.33078,14.087036,Brežina,323.0
45.263412,14.1111,Stojni breg,189.0
45.43478,14.068539,Vrtelj,767.0
45.387825,14.006066,Obešenjak,223.0
45.400593,14.069875,Škrbina,714.0
45.432686,13.913022,Šinkalica,368.0
45.391087,14.013421,Bendiševica,281.0
45.417637,14.066533,Kalafator,707.0
45.396538,14.054131,Brdo,377.0
45.430542,14.061867,Gradišče,618.0
45.41762,14.079439,Veliki Prelaz,537.0
45.41804,14.0845175,Mali Prelaz,526.0
45.4363,14.088661,Sveta Jelena,859.0
45.33116,14.044675,Trovir,343.0
45.419064,14.101043,Mašnik,762.0
45.459103,14.080991,Špinjov vrh,985.0
45.39757,14.155432,Krasice,909.0
45.235634,14.035997,Curinišće,290.0
45.268166,14.063154,Tarabačevica,437.0
45.26276,14.035443,Frletov breg,358.0
45.247665,14.044968,Lakotina,275.0
45.226357,14.010154,Brašćine,382.0
45.266205,14.174668,Petrč,721.0
45.20801,13.983611,Putinjski breg,435.0
45.230824,14.01691,Rasadi,363.0
45.22847,14.029138,Škopljajk,345.0
45.22779,14.018924,Komanje,311.0
45.215046,13.969604,Jankovića breg,445.0
45.25329,14.072155,VIsoki vrh,307.0
45.238487,13.983775,Gradić,397.0
45.23715,14.039804,Plasca,268.0
45.255013,14.096041,Pišulja,219.0
45.226818,14.000895,Perunčevac,469.0
45.258266,14.065571,Kroti vrh,327.0
45.24471,14.080551,Maj,234.0
45.247177,14.093171,Brig,199.0
45.238937,14.026087,Casarišće,290.0
45.204586,14.001869,Vižovik,470.0
45.262424,14.087214,Puličke,350.0
45.21799,13.9695015,Vičišće,439.0
45.243988,14.110931,Boborava,263.0
45.220135,13.955869,Stihovića breg,458.0
45.216705,13.977285,Zabreg,449.0
45.194862,14.01482,Kružac,450.0
45.213562,13.932473,Gradišće,462.0
45.202717,13.973926,Glavica,415.0
45.203083,13.933323,Brežina,437.0
45.20318,13.943171,Marijina glavica,443.0
45.208652,13.991278,Magličišće,456.0
45.197784,13.965313,Lamurovac,413.0
45.208862,13.937202,Runićev breg,451.0
45.192307,13.924924,Larovica,433.0
45.211254,13.917685,Breg,415.0
45.18013,13.926543,Mali brijeg,426.0
45.22451,13.922197,Veliki Klanuš,441.0
45.182102,13.916487,Blekine,407.0
45.22565,13.914498,Mali Klanuš,385.0
45.19631,13.906704,Breg,403.0
45.168324,13.912535,Šajinovac,401.0
45.17209,13.920094,Hižina,412.0
45.174297,13.990799,Brest,394.0
45.17706,14.004964,Gadljak,395.0
45.155884,13.952008,Badnjevina,415.0
45.196407,14.035733,Popov vrh,368.0
45.155437,13.982947,Vrh briga,389.0
45.165733,13.986373,Parićev breg,380.0
45.181908,14.034999,Maršanski brig,388.0
45.161716,13.984764,Črni breg,389.0
45.162434,14.008331,Orićki breg,379.0
45.20842,14.036224,Grčki vrh,360.0
45.177757,14.143674,Zlatina,122.0
45.143658,14.133634,Skabčica,264.0
45.125183,14.202157,Vršak,328.0
45.12403,14.106242,Gorica,298.0
45.110184,14.103327,Šćedin,281.0
45.051575,14.010444,Ržanov vrh,275.0
45.101494,14.13668,Križni breg,336.0
45.067352,14.134421,Brestić,279.0
45.04419,14.083427,Brestovica,360.0
44.999023,14.080369,Visoki breg,121.0
45.043262,14.001557,Sv. Luter,281.0
45.01031,14.061644,Stražice,141.0
45.04652,14.063296,Veli vrh,201.0
45.052166,13.983597,Glavica,289.0
45.048824,14.1038475,Breg,430.0
45.056393,14.123778,Meljoda,352.0
45.12551,13.946869,Balandinov breg,389.0
45.045578,14.016087,Piplićev vrh,239.0
45.067356,14.046608,Veli vrh,232.0
45.062252,14.0497465,Jarebički vrh,212.0
45.10944,13.872604,Vojnikovo,326.0
45.1095,13.84764,Vrh,302.0
45.07067,13.953772,Križica,330.0
45.096996,13.954659,Škrimnjak,358.0
45.149605,13.971717,Žaorski vrh,400.0
45.06183,13.966044,Gorica,284.0
45.117367,13.913781,Šeljanovac,361.0
44.97951,14.0553875,Rtići,146.0
45.109306,13.860818,Pištine,324.0
45.112392,13.894227,Blagdanište,352.0
45.117268,13.94162,Kovačevac,369.0
45.12192,13.878748,Mikulanija,349.0
45.098396,13.850726,Sv. Matija,297.0
45.115993,13.925839,Breg,381.0
45.086143,13.961989,Rajkov vrh,354.0
45.12969,13.906364,Sv. Arman,376.0
45.104137,13.910229,Čikovac,348.0
44.93254,14.032389,Vrh Kavala,87.0
44.919636,14.036719,Arne,31.0
45.029087,13.830582,Veliki vrh,195.0
45.027294,13.89539,Cerovac,255.0
44.965725,14.044795,Glavica,136.0
45.057636,13.8252735,Selinski vrh,233.0
44.970078,14.058263,Kamenjak,126.0
45.04677,13.845013,Glavica,241.0
44.999954,13.768505,Mandriol,75.0
45.056576,13.834257,Barišin vrh,227.0
44.900417,13.86319,Valmarin,83.0
44.957012,13.868868,Mulin,175.0
45.007442,13.849452,Koblarica,173.0
45.054806,13.817857,Mali vrh,194.0
45.067505,13.818383,Dešlinac,230.0
44.88219,13.814622,Munida,52.0
45.061974,13.809514,Drinovac,209.0
45.06137,13.822944,Veliki vrh,246.0
45.020615,13.846475,Šliver,193.0
45.05729,13.8097,Črnjin vrh,224.0
45.06527,13.812534,Grabrovac,244.0
45.03776,13.812046,Pajuka,187.0
45.0488,13.802927,Volpi,195.0
45.06091,13.815287,Bilanski vrh,211.0
45.059788,13.828935,Vršac,233.0
45.04744,13.825293,Ševardovica,214.0
45.002396,14.013392,Kulin,193.0
44.855766,13.907889,Turtijan,75.0
45.004818,13.90762,Mali Vrčin,255.0
44.98569,13.939748,Grljevićka,219.0
44.865726,13.804082,Signal,75.0
44.825855,13.856288,Pećine,26.0
44.805016,13.9858,Jalić,24.0
44.964703,13.903667,Crni vrh,183.0
44.81378,13.869591,Kope,57.0
44.830074,13.92142,Mukalba,32.0
44.839222,13.911137,Pećine,51.0
44.779484,13.906069,Ivanšovica,30.0
45.47186,13.694073,Čuki,146.0
45.470737,13.643339,Krog,141.0
45.42534,13.873663,Volaričevo brdo,421.0
45.45613,13.878073,Vrh Strika,344.0
45.48428,13.921179,Zubinka,487.0
45.492672,13.904807,Vrh Klančica,419.0
45.446617,13.999519,Stražni brig,662.0
45.454914,13.997225,Graćišće,661.0
45.448795,13.969168,Hribce,518.0
45.45901,13.755345,Hrib,402.0
45.490746,13.720093,Moželje,302.0
