latitude,longitude,name,elevation
-14.81342,13.441446,Chela,2350.0
-14.799247,13.419644,Numpaca,2270.0
-14.737691,13.096493,Serra dos Gandarengos,2050.0
-14.701602,13.293703,Monte Tchawehiva,1250.0
-14.982866,13.084219,Morro Maluco,1955.0
-14.81745,13.405444,Luvonae,2315.0
-14.787051,13.455141,Maputo,2217.0
-14.781802,13.428827,Nompava,2320.0
