latitude,longitude,name,elevation
38.847134,-9.10295,Granja,143.0
39.290607,-9.030996,Todo o Mundo,260.0
39.30032,-9.197345,Colombeira,160.0
39.26613,-9.241981,Castelhanas,201.0
39.327625,-8.598941,Chões,96.0
39.373863,-8.651875,Atalaia,98.0
39.368416,-8.733639,Mesquita,168.0
39.31012,-8.8374195,Engarnal,152.0
39.38692,-8.926672,São Martinho,304.0
39.39186,-8.88501,Lavradio,196.0
39.35543,-9.037569,Carrasqueira,203.0
39.35654,-9.180814,Sobral,129.0
39.32519,-9.153734,Quinta Nova,222.0
39.327076,-9.061407,Glória,177.0
39.428295,-8.741469,Relvinhas,193.0
39.479618,-8.73333,Cheirinho,364.0
39.419216,-8.843129,Bairro,189.0
39.428234,-8.873501,Galinha,189.0
39.470474,-9.053099,Vigia,199.0
39.40399,-8.915158,Pena,316.0
39.46909,-8.8876705,Lua,529.0
39.437405,-8.918586,Candeeiros,487.0
39.45413,-8.979557,Cabeços Ralos,249.0
39.443436,-9.061118,Cruzes,172.0
39.455322,-8.887599,Cabeço do Pão de Milho,490.0
39.40453,-9.240219,Cabeço da Serra,108.0
38.5335,-8.938653,São Luís,392.0
38.54603,-8.969081,São Francisco,257.0
38.566166,-8.900261,Palmela,232.0
38.518486,-8.919979,Nico,163.0
38.507893,-8.955907,Cabeço do Freixo,192.0
38.65866,-9.232608,Alto da Raposeira,98.0
38.733974,-9.189639,Monsanto,220.0
38.748245,-9.361409,Manique,197.0
38.758865,-9.302948,Cotão,222.0
38.7656,-9.170226,Telheiras,133.0
38.83243,-9.229816,Sardinhas,331.0
38.823418,-9.204329,Montemor,357.0
38.812004,-9.198875,Bica,313.0
38.827656,-9.316222,Cortegaça,230.0
38.79087,-9.28555,Suimo,291.0
38.782047,-9.391335,Cruz Alta,528.0
38.849873,-9.304128,Condado,234.0
38.765224,-9.264375,Abraão,232.0
38.77432,-9.441468,Monge,490.0
38.93573,-9.045154,Sinais,318.0
38.932686,-9.083119,Mourão,358.0
38.89553,-9.143285,Picotinhos,313.0
38.891376,-9.178519,Torre da Besoeira,378.0
38.88031,-9.222263,Alto do Penedo Mouro,324.0
38.8616,-9.229275,Serra da Carva,331.0
38.894325,-9.090827,Serves,351.0
38.89559,-9.237574,Montemuro,428.0
38.898296,-9.194084,Montachique,409.0
38.88719,-9.163464,Fanhões,338.0
38.937885,-9.129028,Alrota,311.0
38.870018,-9.247214,Monfirre,400.0
38.907116,-9.292763,Cabeço da Jarmeleira,289.0
38.91371,-9.290015,Cabeço de Alcainça,318.0
38.920334,-9.264254,Cabeço do Cerro,401.0
38.93434,-9.2415905,Matoutinho,358.0
38.94129,-9.258165,Santa Maria,369.0
38.911644,-9.273808,Funchal,426.0
38.899933,-9.3297825,Cartaxos,230.0
38.915802,-9.242526,Atalaia,431.0
38.961872,-8.993428,Monte Gordo,205.0
38.964127,-9.051859,Linhó,262.0
38.998554,-8.978845,Castanheira,162.0
39.01163,-9.003524,Cadafais,130.0
38.994873,-9.040112,Quinta da Serra,169.0
39.00691,-9.191192,Patameira,252.0
38.972984,-9.103954,Carvalha,395.0
38.967186,-9.210703,Atalaia,314.0
39.000946,-9.075172,Senhora do Monte,174.0
38.98654,-9.150915,Alqueidão,442.0
39.02514,-9.135737,Montija,336.0
39.02028,-9.207655,Mariquitas,343.0
39.01746,-9.225242,Senhora do Socorro,395.0
38.946228,-9.294424,Sonivel,358.0
39.023262,-9.329733,Romeirão,192.0
39.01233,-9.316565,Romã,216.0
38.95279,-9.241251,Jerumelo,364.0
39.018475,-9.249793,Godel,201.0
38.977913,-9.2940645,Chipre,265.0
39.015305,-9.294167,Aboboreira,218.0
38.99849,-9.323727,Abelheira,191.0
39.09071,-9.037242,Santa Quitéria,279.0
39.072773,-9.094325,Sobreiros,213.0
39.036236,-9.204019,Ribaldeira,297.0
39.095497,-9.230687,Ordasqueira,139.0
39.070107,-9.224446,Maravilha,197.0
39.07353,-9.237957,Gaio,198.0
39.089024,-9.2359085,Cucos,163.0
39.054237,-9.199254,Caixaria,204.0
39.03448,-9.217741,Archeira,344.0
39.03743,-9.331387,Sarreira,174.0
39.039722,-9.375303,Seixosa,156.0
39.075836,-9.276557,Parafuja,171.0
39.052303,-9.351059,Loural,101.0
39.06706,-9.292073,Charnais,152.0
39.042576,-9.337147,Moinho do Calixto,144.0
39.063633,-9.265878,Serra da Vila,209.0
39.12027,-9.288441,Monzebro,132.0
39.14223,-8.586646,Almeirim,171.0
39.21035,-8.742386,Isenta,103.0
39.18419,-8.824039,Ferreiros,130.0
39.17336,-9.0485935,Montejunto,666.0
39.13496,-8.981228,Monte Redondo,212.0
39.1926,-9.028519,Espigão,460.0
39.204144,-8.990965,Cabeço da Raposa,189.0
39.18849,-9.167933,Outeiro da Cabeça,180.0
39.185417,-9.142175,Cabeça Gorda,165.0
39.170803,-9.34592,Valongo,110.0
39.138966,-9.336095,Marco Grande,135.0
39.1326,-9.269401,Bombarda,151.0
39.263626,-8.6747875,José Morto,115.0
39.235867,-8.684696,Santarém,110.0
39.234444,-8.722372,Manteigas,100.0
39.29062,-8.858042,Cabeça Gorda,130.0
39.23003,-8.968845,Zemaneiro,165.0
39.244263,-8.98955,Silheira,200.0
39.253815,-8.941917,Carrascal,139.0
39.24842,-8.893492,Arrifana,135.0
39.21633,-9.005338,Cabeço de Monfarinho,314.0
39.283745,-9.2101965,Reguengo Grande,177.0
39.237823,-9.198516,Tracalaia,168.0
39.294765,-9.1786785,Prouvela,142.0
39.453842,-9.201147,Bouro,162.0
39.495056,-8.67123,Santa Marta,413.0
39.495766,-8.628256,Almonda,242.0
39.4356,-8.7464,Azinhal,193.0
39.09945,-9.2643585,Forte de São Vicente,112.0
38.94972,-9.186086,Canas,285.0
39.055504,-9.111909,Cabeço do Rei,224.0
38.565533,-9.185729,Cabo da Malha,111.0
38.503735,-8.617834,Barrocal,134.0
38.926785,-9.187648,Rolia,255.0
39.457375,-9.013982,Castelo,230.0
39.084583,-9.012942,Bairro,266.0
39.027676,-9.10211,Cabeço,321.0
38.506348,-8.929525,Milregos,93.0
38.79199,-9.38954,Castelo dos Mouros,466.0
38.768528,-9.404083,Pedra Branca,359.0
39.12092,-9.010171,Serra de Ota,173.0
39.269215,-8.98676,Alvariz,185.0
39.35352,-8.962459,Bulheiras,234.0
38.51226,-8.924559,Alto da Cruz,126.0
38.76853,-9.460692,Peninha,487.0
39.094826,-9.261215,Castelo de Torres Vedras,74.0
38.965527,-9.259543,Bitureiro,269.0
39.348377,-8.765015,Cabeço da Linha,167.0
39.48445,-9.040771,Gaio,186.0
38.972103,-9.228604,São Mamede,278.0
39.36893,-9.254188,Arroteias,116.0
39.082584,-8.871209,Paredes Velhas,115.0
39.33003,-8.971509,Figueiros,209.0
39.2345,-9.014681,Zambujeiro,235.0
38.506187,-8.96376,Cabeço do Serrano,187.0
38.549297,-8.914999,Cabeço Gordo,229.0
39.07482,-9.121648,Corujeira,221.0
39.448376,-9.030231,Casal das Freiras,183.0
38.90622,-9.173603,Magadouro,276.0
39.06891,-9.014527,Vale de Junco,203.0
38.964798,-9.090086,Boieiro,378.0
39.024227,-9.033941,Amaral,290.0
39.084167,-9.205599,Barrigudo,205.0
38.962082,-9.189483,Terras,312.0
39.114227,-9.036931,Coteina,218.0
38.85362,-9.264851,Rebolo,326.0
39.147667,-9.098489,Beibote,282.0
38.551624,-8.954568,Serra do Louro,255.0
38.885105,-9.141216,Serra das Galegas,304.0
39.40182,-9.002075,Cabeço Boieiro,221.0
38.556393,-8.907614,Serra dos Gaiteiros,229.0
39.499767,-8.833456,Mendiga,542.0
39.18673,-9.051935,Penha do Meio Dia,573.0
39.09609,-9.203169,Monção,248.0
38.673077,-9.189495,Raposo,125.0
38.79648,-9.146129,Fetais,166.0
38.78787,-9.390391,Pena,500.0
38.837723,-9.400469,Pedras da Granja,207.0
38.76393,-9.436753,Pedra Amarela,408.0
38.92989,-9.215463,Galega,251.0
38.87998,-9.3497505,Faião,206.0
39.039814,-9.024759,Cabreira,271.0
39.150856,-9.133359,Moinho Velho,253.0
39.334698,-8.750433,Cabeça Gorda,166.0
39.414318,-8.779589,Abrã,239.0
39.37378,-8.992479,Natária,230.0
39.318398,-8.980874,Cruto,209.0
39.255314,-9.110199,Bacalhau,140.0
39.103558,-9.293438,Outeiro,100.0
39.10047,-9.077888,Relva,140.0
38.89139,-9.282027,Figueiras,310.0
38.78421,-9.420726,Monte Rodel,392.0
38.551178,-8.966855,Serra Longa,230.0
39.419266,-9.497527,Cerro da Velha,47.0
38.7076,-8.921863,Senhora da Atalaia,67.0
39.434742,-9.050829,Cabeça Alta,181.0
39.486984,-9.16628,Cabeço da Raposa,121.0
38.555443,-8.959305,Cabeço das Torres,205.0
