latitude,longitude,name,elevation
8.94249,126.27577,Cagwait Hill,270.0
9.429167,125.81944,Mount Legaspi,1170.0
9.301944,125.679726,Mount Mabaho,1860.0
9.096609,125.70526,Mount Hilonghilong,2012.0
8.715411,126.044495,Mount Diwata,720.0
9.466667,125.64278,Mount Kabatuan,975.0
9.138247,125.545364,Mount Pongkay,120.0
9.047705,125.55225,Mount Milan,130.0
