latitude,longitude,name,elevation
54.775013,167.65561,Аровая,506.4
54.512398,168.0778,Сахарная Головка,452.0
54.82621,167.52365,Воронья,631.0
54.632576,167.85019,Куропаткина,552.0
54.713287,167.69748,Столбовая,374.6
