latitude,longitude,name,elevation
60.609596,-165.21738,Ugchirnak Mountain,304.0
60.698853,-164.95877,Erchaktuk Mountain,453.0
60.684574,-164.84209,Kaluyut Mountain,296.0
60.63661,-165.13608,Killinupak Mountain,376.0
60.538925,-164.95291,Kasinuk Mountain,64.0
60.5204,-165.35876,Kitnik Mountain,348.0
