latitude,longitude,name,elevation
-5.779999,145.02959,Mount Wilhelm,4509.0
-6.0603685,144.61537,Mount Kabangama,4104.0
-5.9757376,145.48253,Mount Otto,3350.0
-6.0573425,145.26001,Mount Gesega,2693.0
-6.2259264,145.37431,Mount Makera,2148.0
-6.236229,145.2828,Mount Ungga,2308.0
-6.4049916,145.31482,Mount Michael,3615.0
-6.1017165,144.76006,Mount Kubor,3969.0
-5.8004975,144.85313,Mount Undan,3774.0
