latitude,longitude,name,elevation
57.22268,-154.47456,Mount Myrtle,427.0
56.90901,-154.2271,North Twin Peak,455.0
56.984375,-154.19054,Tunguiara Mountain,482.0
57.004948,-154.16975,Luchek Mountain,518.0
56.559017,-154.1847,Sitkinak Dome,500.0
57.319836,-153.99101,Mount Shuman,971.0
57.329666,-154.06795,Mount Strickland,822.0
56.865944,-154.26796,Tanner Head,138.0
57.009613,-154.0567,Happys Mountain,651.0
