latitude,longitude,name,elevation
44.25205,15.836844,Crnopac,1404.0
44.062477,16.38291,Dinara,1831.0
44.25247,16.135714,Kučina kosa,1441.0
43.790604,16.48493,Svilaja,1509.0
44.367317,15.504556,Vaganski vrh,1757.0
43.92463,16.169933,Čavnovka,1148.0
43.728386,15.796999,Vitković,79.0
43.723637,15.766055,Vela glava,120.0
43.636284,16.238447,Jedinica,245.2
43.963036,16.329935,Bat,1206.0
44.476086,16.415611,Oštrelj,1388.0
44.447353,16.45358,Travnati vrh,1476.0
44.45868,16.436316,Tisov vrh,1349.0
44.462704,16.421755,Krmarova kosa,1268.0
43.508648,16.419165,Telegrin,178.0
44.099113,16.322996,Badanj,1281.0
44.324944,15.55061,Vlaški grad,1383.0
44.32863,15.569713,Sveto Brdo,1751.0
44.43018,15.614377,Zir,850.0
43.593674,16.167273,Crni vrh,739.0
43.751797,15.969105,Orlovača,494.0
43.743443,15.996153,Krtolin,503.0
44.255737,16.110437,Poštak,1425.0
44.46411,15.8864565,Kremen,1591.0
43.57201,15.9274025,Gaj,170.0
43.96892,16.485825,Antića glavica,1539.0
43.654556,15.643886,Straža,120.0
43.66894,15.63632,Požernjak,98.0
43.70475,15.643962,Punta,72.0
44.330986,15.502812,Crni vrh,1110.0
43.976234,15.536282,Debeljak,198.0
43.506557,16.270756,Kobijak,155.0
43.559635,16.477354,Sveti Juraj,676.0
43.52027,16.440252,Turska kula,52.7
43.53041,16.268637,Sv.Ostak,149.0
43.700138,16.261688,Zmajevac,502.0
43.72994,16.497374,Plišivica,933.0
43.70257,16.46513,Borovača,644.0
43.67258,16.226221,Crni Umac,551.0
43.68797,16.266655,Jadrin umac,470.2
43.67665,16.319954,Kažela,521.0
43.72314,16.346844,Kragljevac,786.0
43.699047,16.478693,Otarnik,695.0
43.691345,16.30892,Pavlovo brdo,505.0
43.68713,16.284142,Plišivica,552.9
43.712597,16.218313,Rajičića strana,392.0
43.681885,16.263006,Vlasin umac,513.0
43.707333,16.292141,Gradina,491.0
43.709404,16.449543,Burića gradina,631.9
43.668938,16.438843,Divojčar,616.0
43.672615,16.470009,Runjevac,749.0
43.640743,16.481,Smiljevac,457.0
43.64337,16.308224,Crni vrh (Pucigovac),595.0
43.659348,16.316006,Kljenje,439.4
43.649002,16.354773,Kita,675.0
43.65058,16.336718,Ljubeć,574.2
43.661224,16.284128,Moseć,510.0
43.649834,16.442265,Orgus,585.0
43.658386,16.455374,Ošljar,633.0
43.656166,16.307423,Veliki Kozorog,463.6
43.646294,16.421837,Velika gradina,531.3
43.652542,16.221292,Trištenica,456.0
43.62555,16.226028,Ljubeč,502.7
43.64103,16.260693,Crljeni grmi,372.0
43.62982,16.332306,Veliki Kaduljevac,535.6
43.630314,16.289013,Tepljuv,482.5
43.63052,16.414549,Kunjak,522.0
43.634235,16.463884,Pometeno brdo,617.9
43.614037,16.47332,Vinac,613.6
43.616985,16.464428,Zborni umac,576.0
43.603752,16.414782,Jarebinjak,590.7
43.599213,16.485802,Medovac,555.9
43.57901,16.353287,Biranj,631.0
43.58686,16.290018,Crni krug,647.0
43.578117,16.215117,Labinštica,701.0
43.611336,16.203487,Orlović,548.0
43.597885,16.235144,Ošljak,595.0
43.57293,16.283216,Velika Trećanica,600.0
43.585587,16.385082,Vilar,510.0
43.570732,16.408964,Veli vrj,779.0
43.552727,16.214993,Debeljak,498.0
43.527557,16.20812,Vlaška,444.0
44.04921,16.490797,Veliki Bat,1853.0
43.85573,16.382381,Lisina,1301.0
44.032158,16.490297,Janćija glavica,1657.0
44.260086,15.784997,Ćelavac,1202.0
43.826584,16.42989,Golo brdo,1171.0
43.842613,16.399189,Ivova glava,1220.0
43.798805,16.457893,Jančag,1483.0
43.816376,16.432955,Jelinjak,1283.0
43.80838,16.419737,Turjača,1340.0
43.8311,16.421791,Velji vrh,1304.0
43.78752,16.49349,Vršina,1466.0
44.06135,16.483461,Mali Bat,1667.0
43.893223,15.536708,Velika Čelinka,111.0
43.7929,15.6378355,Čvrdak,112.0
44.319916,16.371098,Veliki cicibor,1066.0
43.588264,16.367077,Vilar,565.0
43.570934,16.485008,Umac,563.0
43.570152,16.494783,Orjak,608.0
43.579926,16.447199,Gradina,489.7
43.57625,16.464664,Umac,483.0
43.566883,16.484615,Tureta,613.4
43.586483,16.432043,Osmakovac,490.8
43.632374,16.493816,Bučaj,572.4
43.65744,16.492626,Bakića umac,491.8
43.562313,16.46565,Paska,582.0
43.56371,16.457905,Škrabutina,578.8
43.56422,16.446646,Žižina Tureta,582.2
43.568398,16.441628,Rasti umac,572.0
43.57666,16.42997,Markovac,524.0
43.58283,16.405607,Medveđak,494.6
43.575108,16.377918,Visoki vrh,566.8
43.577454,16.368557,Kaštelice,581.2
43.59176,16.359007,Oštra glava,415.0
43.59329,16.350468,Rodine glavice,332.8
43.580223,16.337467,Birnjac,562.3
43.583275,16.315351,Uljani umac,522.0
43.593506,16.335585,Kraljevac,392.0
43.60478,16.353659,Klobučina,408.0
43.593277,16.394438,Gradina,356.0
43.606945,16.401253,Pleće,492.0
43.60827,16.389654,Paklenica,526.1
43.609684,16.416601,Krpelj,496.0
43.60005,16.432705,Smakuša,552.5
43.633945,16.452461,Zečov brig,559.1
43.626755,16.430592,Kruna,540.2
43.63241,16.433681,Gundevalj,506.0
43.635235,16.40967,Gavranovo osoje,498.5
43.822685,16.190134,Umci,617.8
43.830597,16.176315,Dugovac,569.3
43.8377,16.161703,Gradina,465.4
43.84505,16.154943,Lisnica,420.3
43.809105,16.214832,Crni vrh,701.8
43.803005,16.240324,Medovača,598.9
43.772953,16.283045,Ošljar,583.7
43.791374,16.256481,Ošljar,585.8
43.770832,16.29828,Bikića gradina,488.7
43.746902,16.321325,Krpušnjak,794.9
43.70246,16.37557,Mutvica,665.8
43.692776,16.413013,Movran,839.0
43.665886,16.465288,Jasenovi umac,593.8
43.750698,16.27277,Gradina,509.4
43.81536,16.166641,Krš,373.6
43.6772,16.409174,Umac,592.7
43.68111,16.394133,Opasanac,591.5
43.67222,16.387676,Gradina,493.0
43.677433,16.358902,Gradina,536.3
43.67975,16.344538,Veliki umac,469.8
43.668743,16.33886,Parčeva strana,516.6
43.670403,16.361048,Kulina,488.0
43.68198,16.468246,Orlovača,622.0
43.681858,16.459385,Perina Orlovača,592.0
43.67675,16.456444,Gubav umac,608.0
43.68814,16.45196,Berina,561.0
43.688404,16.428957,Križina,761.0
43.679573,16.42621,Ozrnac,703.0
43.699467,16.3886,Mačkovac,688.0
43.69664,16.38036,Golo brdo,702.0
43.723442,16.318539,Ivaniševac,534.8
43.71642,16.294548,Oštruljak,462.9
43.742126,16.275324,Zelenikovac,466.0
43.744034,16.261848,Brig,425.7
43.73599,16.269917,Bliznički umac,406.0
43.74954,16.279465,Ljubački umac,496.0
43.761253,16.257406,Kruna,500.7
43.772533,16.250132,Stražbenica,611.0
43.7798,16.228525,Oštrak,559.7
43.790844,16.213976,Skejin umac,522.1
43.780514,16.199213,Bunarđin umac,374.8
43.775665,16.205307,Krvavac,370.0
43.798714,16.204212,Serdarov umac,511.4
43.81973,16.15842,Glavica,357.0
43.649525,16.346838,Zelenikovac,600.0
43.64117,16.382801,Gradina,576.2
43.65083,16.394646,Gradina,456.0
43.646854,16.41546,Mala gradina,498.0
43.683918,16.187193,Prisoje,402.1
43.690746,16.171318,Brušnjak,429.3
43.67672,16.27781,Površje,495.2
43.68232,16.29873,Branilovac,507.8
43.692886,16.328814,Kičin,449.0
43.65308,16.325981,Pašinovac,477.0
43.64033,16.32184,Kaduljevac,563.9
43.64412,16.29461,Široki vrh,538.0
43.63401,16.276886,Umac,337.4
43.648438,16.239374,Gradina,379.9
43.667965,16.23912,Stinjačka greda,499.7
43.658558,16.264591,Vaganjica,333.6
43.647163,16.276112,Glavica,328.2
43.60998,16.370592,Brig,549.1
43.61141,16.344847,Kapetanovića gradina,434.9
43.62856,16.346457,Kelamov umac,486.3
43.623543,16.367125,Gola glavica,465.0
43.628777,16.362288,Kita,480.6
43.626587,16.401384,Gola glavica,555.4
43.62242,16.40705,Diovića umac,533.0
43.68559,16.245985,Kukuljica,559.1
43.69031,16.229254,Kičelj,558.3
43.707577,16.22007,Vrvoča,377.0
43.66351,16.263992,Jedinica,338.0
43.65651,16.2809,Umac,425.0
43.692715,16.295212,Crni umac,513.0
43.6257,16.303602,Goli brig,429.0
43.623528,16.311735,Golo brdo,397.6
43.619053,16.325125,Šestina greda,398.8
43.60243,16.426773,Mali Jarebinjak,572.0
43.606125,16.304806,Gradina,302.0
43.634056,16.317793,Grabovac,522.0
43.62354,16.267105,Gradine,345.1
43.63,16.24644,Glavica,226.9
43.621395,16.234255,Mala kita,414.0
43.708534,16.468664,Oštruljica,602.0
43.71078,16.462183,Obišinjak,638.0
43.70574,16.473295,Talića gl.,641.0
43.70533,16.488117,Ćukova gl.,713.0
43.711285,16.499275,Suvova,691.0
43.735172,16.488537,Bat,811.0
43.733753,16.478289,Križ,781.5
43.713116,16.404137,Gradina,561.0
43.74969,16.396173,Prnjavor,577.3
43.719845,16.487709,Okrug,797.0
43.707996,16.386238,Runjevica,516.0
43.593513,16.273151,Široka,588.4
43.658382,16.380857,Gromila,493.5
43.68796,16.321562,Lovreć,584.0
43.598885,16.420284,Komarkovača,523.0
43.7511,16.208261,Plačak,391.0
43.66079,16.09575,Mravnik,502.7
43.69596,16.112707,Vrščić,387.0
43.58059,16.462849,Badljine,472.0
43.571476,16.437634,Strija,555.0
43.572514,16.424562,Okreta,642.0
43.57125,16.425117,Mali Kozjak,658.0
43.597584,16.439463,Kita,553.0
43.72037,16.49654,Krug,825.0
43.77106,16.487633,Slime,1235.0
43.7806,16.48879,Velika Kurja,1328.0
43.7812,16.47931,Mala Kurja,1285.0
43.78412,16.470331,Jolin umac,1291.0
43.79938,16.441277,Privija,1271.0
43.80622,16.44743,Kita,1414.0
43.773914,16.43885,Plitvine,917.4
43.72121,16.181381,Bogočin,472.0
43.69746,16.141598,Mrčelin umac,439.0
43.674274,16.17689,Brižine (Gradina),277.0
43.66492,16.176619,Kudrica,293.3
43.66461,16.13658,Rasovača,433.9
43.660015,16.123878,Crni vrh,485.0
43.66091,16.116072,Trovro,451.0
43.653446,16.1583,Umac,398.5
43.654102,16.185606,V. Vrljica,435.2
43.661446,16.192667,Umac,352.0
43.659805,16.197834,Gradina,342.0
43.78273,16.454643,Umac,1148.0
43.792454,16.396145,Široki umac,788.0
43.917686,16.39371,Ploče,645.9
43.576195,16.486645,Greda,522.0
43.634937,16.115347,Plišivica,474.0
43.61134,16.212145,Gradac,497.0
43.614536,16.17513,Vignjište,558.0
43.653015,16.142395,Kuk,367.0
43.64055,16.104803,Orluša,458.0
43.690598,16.198187,Gomila,432.0
43.698536,16.300852,Mandarića greda,468.0
43.688644,16.316278,Zelenikovac,560.0
43.698914,16.331299,Rubeljušin umac,482.0
43.618492,16.474222,Kuk,568.0
43.63057,16.497202,Bučaj,573.0
43.60881,16.376951,Gorilda,543.0
43.677963,16.333725,Žuljevac,478.6
43.68728,16.329268,Crni umac,496.0
43.693542,16.335625,Rubeljušin umac,470.0
43.787518,16.110115,Mideno brdo,465.0
43.751163,16.308228,Gradina,682.8
43.76999,16.26858,Umčac,567.0
43.591316,16.279554,Široka,624.0
43.597275,16.262642,Golo brdo,512.0
43.587368,16.257013,Goli brig,542.0
43.574833,16.27043,Velika gomila,569.0
43.580784,16.309462,Križić,515.0
43.572876,16.293434,Debela gl.,516.0
43.56444,16.269487,Kita,369.0
43.77724,16.374384,Veliki vrh,965.0
43.78394,16.39276,Rožanac,768.6
43.803997,16.380625,Vršine,813.0
43.808968,16.361526,Pištetska glavica,633.5
43.77516,16.378984,Mali vrh,902.0
43.79344,16.403423,Crni umac,883.0
43.64,16.30783,Raštegorac,563.0
43.63825,16.327759,Pašinovac,542.0
43.629387,16.33513,Veliki vrh,513.0
43.631504,16.338032,Mali Kaduljevac,473.0
43.628475,16.352928,Gradina,480.0
43.656826,16.371641,Gradina,511.0
43.692112,16.360962,Duliba,496.0
43.77836,16.285538,Crni umac,458.0
43.784435,16.280407,Lišnjak,408.0
43.785526,16.276438,Čelinka,466.0
43.792286,16.276802,Drinova kosa,444.0
43.794315,16.266891,Lovrinovića strana,493.2
43.79407,16.25291,Elezov umac,576.0
43.79592,16.248936,Mandin umac,586.0
43.788013,16.264679,Pavin umac,476.0
43.741417,16.295395,Plitačin umac,510.0
43.743702,16.287327,Kljenovac,495.0
43.722233,16.387009,Jelačića glavica,538.6
44.26256,15.839745,Bili kuk,1171.0
44.24294,15.951665,Čardak,1173.0
43.55328,16.163996,Jelinak,581.0
44.052944,16.405155,Jančija glavica,1585.0
43.74953,16.150204,Pećina,437.0
43.75902,16.16222,Zulin umac,370.0
43.75767,16.126467,Zvonik,391.0
44.23936,15.961586,Oklinak,1186.0
44.48007,15.98102,Škorić brdo,1061.0
43.909367,16.361654,Zolj,985.0
43.785576,15.76883,Okit,134.0
43.997128,16.33287,Krš,702.0
44.339592,15.563871,Babin Vrh,1744.0
44.354816,15.513996,Liburnija,1705.0
44.35608,15.5279045,Malovan,1709.0
44.34546,15.540418,Bili Vrh,1656.0
44.313744,15.576048,Debelo Brdo,1441.0
44.105633,16.269821,Plješivica,1124.0
44.108,16.284035,Borova glava,1082.0
44.093372,16.291376,Anića glavica,909.0
44.056606,16.282362,Crna glavica,785.0
44.063305,16.261986,Lanjevac,624.0
44.050957,16.299026,Crnogorski krš,800.0
43.91904,15.625186,Visoka,252.0
43.92561,15.615638,Glavica,251.0
44.206306,15.623081,Velika gradina,268.0
43.72559,16.461794,Ašija,740.0
44.2713,15.839621,Kita Gaćešina,1227.0
43.627968,15.923707,Bilo,137.0
44.201702,15.830899,Mandića glavica,416.0
44.325733,15.790477,Žutica vrh,909.0
44.332474,15.79894,Pećinski vrh,1039.0
44.308918,15.830506,Vrh bukovi,830.0
44.376957,15.700932,Volarica,762.0
44.37086,15.715733,Medvidovaća,832.0
44.362137,15.735622,Vrh Matovinovića,988.0
44.36388,15.51661,Šegestin,1714.0
44.359665,15.512744,Brundo,1716.0
44.316204,15.541112,Vršina,1240.0
44.30607,15.611036,Veliki Golić,1371.0
43.611145,16.097588,Boraja,675.0
44.18382,16.369352,Gradina,935.0
44.30127,16.178015,Osoje,878.0
44.32612,16.189198,Sijenac,893.0
44.278835,16.222649,Veliki vrh,1654.0
44.40504,15.943097,Veliki Urljaj,1295.0
44.408688,15.9534,Mali Urljaj,1266.0
44.333786,15.994533,Lisac,1335.0
44.348316,16.020777,Orozovac,1399.0
44.393414,15.996977,Visibaba,1278.0
44.40798,16.01482,Gutešin Vrh,1416.0
43.826466,15.57493,Veliki vrh,80.0
43.8119,15.586993,Raduč,125.0
44.21318,16.0156,Jelovac,1031.0
43.822433,15.9538965,Žurića brdo,195.0
44.262466,15.86135,Munižabin vrh,1098.0
43.905663,15.707961,Velika gradina,327.0
43.874443,15.700287,Gorivuk,267.0
43.869576,15.717182,Zibonoga,236.0
43.931866,15.677897,Čučkovica,194.0
43.92143,15.686562,Marovača,280.0
43.911278,15.700878,Vinac,321.0
43.94408,15.713025,Gradina,285.0
43.927418,15.706529,Pećinski Umac,213.0
43.910828,15.651546,Brdo,261.0
43.898815,15.66586,Debeljak,221.0
43.990307,15.517716,Petrim,253.0
44.000042,15.508448,Vinculja,134.0
44.139275,15.656601,Pržun,351.0
43.521976,15.970937,Kopara,69.0
43.51111,15.965668,Mali Movar,94.0
43.514885,15.957532,Oštra gl.,42.0
43.505558,15.966307,V. Movar,121.0
43.93342,15.600255,Zamina,194.0
43.948208,15.579381,Veliki Bak,220.0
43.9698,15.544567,Markovac,135.0
43.96241,15.562279,Veliki Umac,157.0
43.98569,15.5075035,Trojan,76.0
44.244957,15.72882,Kuk Ražovi,810.0
44.24762,15.750792,Panoga,1064.0
44.271194,15.677591,Ošćenica,1182.0
44.2718,15.639353,Alanac,1071.0
44.29991,15.578989,Čovik,1117.0
44.004818,15.5002,Muvača,120.0
44.307446,15.545676,Komić,1008.0
44.293087,15.570894,Oščenica,1023.0
44.246544,15.641512,Velika Bobija,584.0
44.241215,15.659478,Mala Bobija,511.0
44.3086,15.586849,Porobljenik,1346.0
44.286293,15.544543,Sopanj,789.0
43.962914,15.794719,Mačkov kamen,318.0
44.351418,15.507866,Babin kuk,1431.0
44.3294,15.560825,Sijaset,1556.0
44.247253,15.76346,Slatki vrh,957.0
44.240356,15.754759,Bijeli Kuci,975.0
43.91812,15.691309,Gola strana,289.0
43.506367,16.40313,Bambina glavica,58.8
43.96621,15.5526495,Glava Oparića,150.0
43.95815,15.563507,Mali Umac,150.0
44.215496,16.037687,Vršak,724.0
44.225807,16.050972,Vijojla,874.0
44.239845,16.13916,Bijeli vrh,1445.0
44.245068,16.11806,Mali Poštak,1385.0
44.22093,16.132908,Visibaba,1331.0
44.215717,16.142757,Opaljeni vršak,1254.0
44.211308,16.136862,Veliki kurozeb,1291.0
44.15041,16.043636,Debelo brdo,982.0
44.140064,16.022,Jagodnik,910.0
44.136787,16.044157,Osojačka glavica,957.0
44.144093,16.045412,Golić,1002.0
44.137226,16.050667,Kom,1002.0
43.898403,15.609711,Štandarac,303.0
44.263474,15.655631,Tulove grede,1120.0
43.645195,15.927374,Oštrica,94.0
43.873177,16.14471,Kalun,473.0
43.959373,16.150133,Mala Promina,680.0
44.051796,15.532061,Gradina,194.0
43.774654,15.933149,Debeljak,344.0
43.879227,16.127983,Plandište,420.0
43.933907,16.157583,Orlovac,1023.0
44.17503,15.871206,Trebačnik,350.0
44.202835,15.804406,Grojito,371.0
44.111538,15.831708,Veliki prosjek,657.0
44.10299,15.855127,Mali prosjek,592.0
44.070057,15.762486,Visibaba,545.0
44.10714,15.711891,Straža,643.0
44.133343,15.689163,Stražbenica,628.0
44.301235,15.515454,Kuk od Dubrave,735.0
43.95487,16.132074,Glavičica,482.0
43.956375,16.11492,Babina glava,426.0
43.943886,16.11818,Begilova glava,425.0
43.923794,16.194311,Kuk,552.0
43.91556,16.150639,Vijenac,644.0
43.880096,16.11371,Gradina,352.0
43.881454,16.12161,Brakusov umac,392.0
44.335022,15.537585,Badalj,1238.0
43.913826,15.97668,Zaskok,234.0
44.323418,15.595057,Malo bilo,1435.0
44.26563,15.825597,Orlov kamen,1214.0
44.26146,15.8282585,Mali Bat,1280.0
44.25693,15.8281355,Veliki Bat,1381.0
44.2561,15.830477,Mali Crnopac,1375.0
44.265594,15.892956,Presvrata,973.5
44.277084,15.86212,Paleščići,794.0
44.278294,15.841875,Malinjak,1031.0
44.288597,15.547309,Glava od krastača,788.0
43.905098,16.201416,Gradina,559.0
44.30582,15.502808,Glava od Jasenara,776.0
44.287575,15.530063,Pleće,707.0
44.349777,15.557235,Zeleni vrh,1423.0
44.19324,16.399496,Veliki Obljaj,1198.0
44.3202,15.557273,Mali Vlaškograd,1174.0
44.310867,15.557231,Čavinka,955.0
44.29956,15.549206,Gradina,833.0
44.299633,15.533207,Runjavica,714.0
44.295864,15.531956,Trnovača,708.0
44.293484,15.537316,Velika oštra glavica,775.0
44.329666,15.527433,Jablanuša,1000.0
44.223694,15.615343,Pariževačka glavica,151.0
44.21325,15.644323,Vrh punta,135.0
44.218925,15.62276,Zevelinački punat,141.0
44.207966,15.59416,Bojnik,201.0
43.954853,15.600709,Mijovac,214.0
43.95753,15.597427,Velika glava,198.0
43.96039,15.593651,Mala Glava,170.0
43.94738,15.609079,Veliki Umac,168.0
43.944492,15.61483,Mali Umac,165.0
43.93723,15.60026,Golo brdo,211.0
43.941433,15.591699,Mali Debeljak,187.0
43.944046,15.585905,Veliki Debeljak,205.0
43.92943,15.618456,Zmijevača,264.0
44.253456,15.843729,Pločati kuk,1254.0
44.243347,15.872341,Vidovića glavica,764.0
44.254135,15.874866,Modrin vrh,836.0
44.2614,15.881566,Dorin vrh,872.0
44.266827,15.880899,Janjčak,939.0
44.255394,15.906823,Durđev vrh,948.0
44.265305,15.872179,Pilar,981.0
44.26832,15.874748,Perlinski vrh,963.0
44.25316,15.804407,Vršić,875.0
44.245213,15.804472,Obli kuk,864.0
44.243492,15.816724,Popova kapa,765.0
44.247456,15.823054,Korito,987.0
44.246643,15.827839,Kavrga,1100.0
44.243076,15.8325815,Duman,1027.0
44.23993,15.808777,Klekovac,898.0
44.237373,15.796411,Lipovac,909.0
44.239716,15.792133,Samogred,953.0
44.23592,15.78457,Mila,860.0
44.23716,15.770035,Kuk Ćukulin,887.0
44.233543,15.75001,Lakin vrh,857.0
44.22921,15.749052,Veliki vrh,701.0
44.23017,15.71935,Tabakovac,381.0
44.23732,15.7142725,Porat,463.0
44.242477,15.715894,Zagoni,644.0
44.24542,15.691271,Veliki vrh,721.0
44.243725,15.684114,Čabrinka,666.0
44.249065,15.714136,Šarinka,742.0
44.263874,15.672065,Golić,1064.0
44.264297,15.700239,Visibaba,976.0
44.267723,15.690497,Strašilovac,1004.0
44.243298,15.601636,Kita,262.0
44.245132,15.592712,Puča,242.0
44.24901,15.581024,Stražbenica,237.0
44.236423,15.551318,Dragačevac,199.0
44.261906,15.544894,Gromila,141.0
44.261288,15.57487,Dokozin umac,415.0
44.261208,15.585772,Svinjska glavica,465.0
44.27224,15.606342,Lipov vrh,1004.0
44.127792,15.691404,Čardačina,651.0
44.126125,15.670446,Šušina glavica,517.0
44.0682,16.457392,Medeno brdo,1333.0
44.07943,16.40231,Javorov vrh,1452.0
44.08343,16.385443,Crni vrh,1440.0
44.16446,16.28663,Ševina glava,771.0
44.172092,16.265795,Podgrab,485.0
44.063152,16.441427,Borje,1182.0
44.068516,16.424078,Pršut,1248.0
44.068176,16.301802,Vršina,1003.8
44.07235,15.509301,Nadinska Gradina,265.0
44.06882,15.515839,Vijenac,236.0
44.074917,15.506711,Križova glavica,237.0
44.05959,15.523887,Čaušovica,184.0
44.015026,15.521776,Štrkovača,157.0
44.329098,16.306711,Racin Vrh,1159.0
44.312977,16.28701,Stražbenica,1184.0
44.225803,16.324488,Velika Borovača,909.0
44.231926,16.320618,Mala Borovača,881.0
44.24402,15.704933,Crni vrh,696.0
44.25038,15.682007,Lipovača,868.0
44.028236,15.5604315,Velika gradina,168.0
43.992363,15.515763,Kuk,235.0
44.202263,15.83645,Gradina,436.0
44.203583,15.853531,Krnješka glavica,408.0
44.189617,15.820025,Babin grad,149.0
44.402607,16.233109,Vrh,1107.0
44.19346,15.789263,Gazin kuk,72.0
44.20173,16.330788,Vidovića Glavica,934.0
44.47238,16.006493,Jasenov vrh,1278.0
43.853783,15.645388,Benča,76.0
43.856766,15.627722,Babin škoj,53.0
44.296097,15.75588,Crni vrh,934.0
44.29057,15.770853,Bijela greda,854.0
44.286854,15.777404,Zavikar,905.0
44.33458,15.826885,Glavica-Samarđijina,691.0
44.356087,15.831327,Glavica Pištića,655.0
44.016216,15.533903,Smiljevac,163.0
44.069157,16.177776,Pjevčeva glavica,392.0
44.429497,15.709301,Vršak Dujin,815.1
44.44426,15.684185,Gostuša,931.1
44.255016,15.733133,Golovro,976.0
44.274426,15.701398,Milsko bilo,1030.0
44.28428,15.671346,Plana,1119.0
44.278114,15.670446,Stružnica,1117.0
44.24188,15.76349,Šiljci,947.0
43.92143,16.290955,Grabovača,518.0
43.915443,16.341734,Kalun,1101.0
43.91919,16.300802,Kneževića kuk,496.0
43.912613,16.302471,Velika gradina,532.0
43.87262,16.26269,Bijela glavica,450.0
43.8652,16.272955,Umac,452.0
43.85864,16.147516,Umčić,348.0
43.853077,16.147778,Meteriz,344.0
44.251072,15.757836,Velika Duliba,871.0
44.243137,15.674016,Razvržje,610.0
44.27851,15.649699,Redaš,1002.0
44.285145,15.636436,Ruja,1139.0
44.25787,15.672121,Tulo Maričića,950.0
44.266483,15.637826,Kuci Marunića,1060.0
44.24868,15.746176,Mala Panoga,1059.0
44.247185,15.743596,Vilenski vrh,988.0
43.73448,16.094858,Umac,469.0
43.662537,15.650061,Vrh,112.0
43.64764,15.674975,Kapić,134.0
43.636986,15.711671,Zvizdulja,91.0
43.661953,15.663342,Muna,105.0
43.725254,15.75572,Debelo brdo,98.0
43.683205,15.785169,Obonjan,56.0
43.665882,15.613979,Vela glavica,102.0
43.69354,15.754763,Bok,101.0
43.690575,15.758754,Pegor,98.0
43.685036,15.7710495,Galebinjak,98.0
43.709827,15.687322,Mali Uljenak,106.0
43.706676,15.690948,Veli Uljenak,121.0
43.63056,15.710539,Kabal,61.0
43.684692,15.717426,Vela glavica,129.0
43.69577,15.699939,Prvi vrh,126.0
43.698597,15.693351,Smrekova,108.0
43.701855,15.703286,Jedinjača,108.0
43.759964,15.728254,Zaglava,49.0
43.85874,15.5000305,Gradina,62.0
43.689766,15.514378,Južna glava,117.0
43.692078,15.507415,Orljak,106.0
43.683125,15.684961,Kakan,110.0
43.68511,15.700926,Smokvica,71.0
43.677784,15.715238,Lemeš,73.0
43.68933,15.720409,Mrtovac,68.0
43.69642,15.654813,Rasovac,95.0
43.982033,15.543753,Zvirinac,178.0
43.982525,15.532809,Mali Lukovnjak,179.0
43.98069,15.529226,Barakovača,211.0
43.984596,15.528239,Veliki Lukovnjak,201.0
43.68716,15.671253,Oštrica,88.0
43.69214,15.661168,Glavičica,60.0
43.641212,15.699985,Gušterine,82.0
43.63621,15.698376,Draževica,71.0
43.637703,15.67327,Kamena glavica,65.0
43.65469,15.673399,Jurkovica,72.0
43.81124,15.625505,V. vrh,78.0
43.86267,15.535169,Vela glava,95.0
43.829895,15.568943,Crnikovac,61.0
43.506428,16.088844,Orijenšćak,212.0
43.503624,16.055885,Batno,214.0
43.523468,16.000927,Gornji gaj,180.0
43.503002,15.990696,Donji gaj,92.0
43.536716,16.032475,Veliki Orljak,238.0
43.560932,16.016901,Lenik,381.0
43.556328,16.105179,Oblik,407.0
43.557526,16.194754,Dabgora,524.0
43.603645,16.017836,Stražar,394.0
43.556732,16.075953,Bljušćevica,423.0
43.564182,15.9650545,Biljulja,237.0
43.55992,16.100115,Jasenovik,376.0
43.585556,16.178339,Sirištak,705.0
43.63754,16.020967,Orlice,507.0
43.61575,15.943189,Greben,287.0
43.61315,15.986271,V. Drvenik,360.0
43.741608,15.909367,Luguša,214.0
43.719894,15.929934,Oblić,235.0
43.72382,15.8719015,Glavica,36.0
43.679314,15.928571,Bili brig,80.0
43.73654,15.915863,Kamenar,256.0
43.714172,15.889271,Sveti Križ,65.0
43.637726,15.948226,Borije,55.0
43.564827,16.032953,Stojkovica,361.0
43.566925,16.040483,Dračenjak,347.0
43.60368,16.112753,Borajica,618.0
43.59796,16.074602,Umac,434.0
43.59285,16.092648,Bunar,448.0
43.592686,16.085379,Plišivica,473.0
43.591095,16.076855,Želenikovac,439.0
43.524517,16.077446,Plića,211.0
43.5531,16.23429,Trnošćak,473.0
43.54598,16.245447,Vilajica,454.0
43.532017,16.085793,Dubašćak,275.0
43.706444,16.07647,Velika glava,542.0
43.564514,16.096811,Otar,339.0
43.704178,16.085482,Vršak,511.0
43.74771,15.899207,Slizel,180.0
43.74369,16.077713,Nakića gromila,478.0
43.69498,16.122688,Lučića umac,438.0
43.750668,15.879069,Smričnjak,108.0
43.757004,15.893226,Gatarićka,221.0
43.942116,16.150461,Umac,812.0
43.763935,15.8679,Kekovača,115.0
43.776844,15.875753,Bodlovača,166.0
43.80453,15.840462,Dragačinska glavica,143.0
43.841858,15.797647,Čardak,191.0
43.788704,15.837023,V. Vranik,142.0
43.7802,15.821578,Rasovač,132.3
43.804276,15.886273,Školj,46.0
43.79997,15.889621,Oštrica,72.0
43.79966,15.899363,Greda,101.6
43.81126,15.986781,Glavica,199.0
43.896656,16.17635,Čelinka,774.0
43.852974,16.244654,Umac,384.0
43.64358,15.971807,Debeli bok,242.5
43.989166,16.280128,Pakovo brdo,642.0
43.863953,16.373512,Bajina gradina,1238.0
43.837566,16.345043,Veliki vrh,896.0
43.943188,16.35407,Zečja glavica,1091.0
43.947098,16.352398,Crna glava,1106.0
44.03369,16.203278,Montova glavica,255.0
43.911137,16.259851,Vijenac,569.0
43.950798,16.124044,Šušelj,499.0
43.948025,16.192022,Rudeč,434.0
44.038437,16.189587,Spas,337.0
44.034363,16.212906,Kunčevića glavica,265.0
44.136143,16.218904,Kurelj,906.0
44.242523,16.182856,Crni vrh,1239.0
44.058693,16.231102,Velika Vijola,354.0
44.09109,16.140799,Međijak,740.0
44.19691,16.146399,Bobija,1251.0
44.117153,16.085072,Gradina,352.0
44.082634,16.014338,Veliki Oštrik,365.0
44.08171,16.017427,Mali Oštrik,351.0
44.156578,16.216158,Orlovac,1201.0
44.052937,16.033306,Radučka glavica,359.0
44.04903,15.977489,Veliko sljeme,320.0
44.121784,15.971063,Kočo,493.0
44.211044,15.977827,Crni vrh,1087.0
44.193737,15.968149,Sedlo,1058.0
44.118187,15.699716,Jurišinka,674.0
44.120922,15.676584,Careva glavica,518.0
44.113174,15.68948,Golić,565.0
44.109467,15.559268,Čolino brdo,334.0
44.147305,15.673558,Marina kosa,566.0
44.115166,15.545504,Vrtlina,295.0
44.118015,15.543154,Pijevčovo brdo,299.0
44.168587,15.694764,Kosmač,447.0
44.095535,15.684775,Vršina,449.0
44.158432,15.651532,Splitvina,530.0
44.159466,15.661789,Vršina,566.0
44.08535,15.692768,Kum,416.0
44.136177,15.716243,Bajnovača,554.0
44.13827,15.724075,Zelengrad,553.0
44.142212,15.742014,Debela kosa,495.0
44.131405,15.734675,Gradina,518.0
43.990402,15.877439,Ljuti krš,320.0
44.102535,15.6979885,Greda Ivaniševa,542.0
44.168694,15.666804,Krunjača,411.0
44.148018,15.697167,Mikulčanka,544.0
44.14982,15.706609,Rušina glavica,514.0
44.144524,15.709355,Mali Greljevci,515.0
44.14149,15.704956,Crni vrh,553.0
44.142815,15.716179,Greljevac,530.0
44.15892,15.713647,Jasenovača,417.0
44.03126,15.822802,Piljina kosa,375.0
44.12158,15.716929,Rašeljka,572.0
44.093826,15.712595,Dragaševa glavica,547.0
44.083733,15.742051,Kunovac,641.0
44.12213,15.808678,Urljaj,563.0
44.05506,15.804627,Štandarac,490.0
43.998524,15.856968,Debelo brdo,363.0
44.12425,15.757431,Medić glavica,545.0
44.11747,15.766294,Erstina glavica,519.0
44.11468,15.770949,Ječimštova glavica,495.0
44.112892,15.762753,Gendića glavica,513.0
44.108967,15.773031,Štanjgarde,485.0
44.105053,15.812642,Magareća glavica,458.0
44.113262,15.785348,Gljevača,452.0
44.11021,15.791665,Veliki Zelenkovac,471.0
44.08884,15.856523,Drčina glavica,463.0
44.07042,15.828177,Omčikus-glavica,368.0
44.110615,15.824379,Vrščić,499.0
44.081028,15.869295,Ražovište,517.0
43.58061,16.319307,Orljak,526.0
44.3382,16.419905,Gradina,775.0
44.278015,16.451843,Suhobor,1242.0
44.29879,16.448925,Mala Visoka,1132.0
44.305756,16.448793,Velika Visoka,1148.0
44.31544,16.424807,Šubić,963.0
44.31876,16.411955,Markov kamen,927.0
44.301292,16.419025,Stuparska kosa,951.0
44.307613,16.412834,Ravna kosa,889.0
44.344444,16.428154,Runjevica,671.0
44.2756,15.514823,Glava od Šušanja,176.6
44.053555,15.692756,Otavac,414.0
44.041332,15.698367,Šušina glavica,377.0
44.017048,15.713986,Velika Mejanica,414.0
44.021786,15.721218,Mala Mejanica,315.0
44.010582,15.729007,Plješevica,334.0
44.028744,15.731925,Jarebinjak,354.0
44.0355,15.7159395,Kosinjak,338.0
43.997955,15.79338,Jaruv,380.0
43.97359,15.795906,Gologuz,425.0
44.022045,15.829688,Kosa,376.0
43.961742,15.804819,Orlovača,405.0
43.957546,15.816085,Čelina,376.0
43.99451,15.528766,Veliki Ružić,199.0
43.997173,15.524979,Mali Ružić,172.0
43.998966,15.518799,Mala Muvača,128.0
44.000416,15.513829,Velika Muvača,131.0
43.9919,15.53294,Velika Čelinka,179.0
43.98856,15.536663,Srednja Čelinka,190.0
43.98737,15.53898,Mala Čelinka,180.0
43.924667,15.622188,Kamenjak,211.0
43.93203,15.614532,Mala Magaretina,241.0
44.14148,15.787329,Peć,552.0
44.14284,15.791105,Stari vrh,551.0
44.041893,15.761494,Umac,388.0
44.037373,15.771986,Vrščić,358.0
43.89886,15.714823,Mala gradina,277.0
44.062157,15.749048,Popina,468.0
44.154648,15.787329,Mala Kreta,338.0
44.149075,15.7879505,Velika Kreta,444.0
43.933765,15.604551,Velika Magaretina,220.0
44.12809,15.763323,Vinculja,478.0
44.118465,15.773794,Pilipovića glavica,494.0
44.132668,15.760812,Mršinka,484.0
44.135498,15.756263,Dukića glavica,447.0
44.13487,15.763924,Ćelavica,472.0
44.141106,15.756027,Vruljska glavica,441.0
44.141197,15.778129,Runjavac,494.0
44.13553,15.784673,Bunarina,532.0
44.147484,15.762898,Zelenik,431.0
44.130695,15.778815,Gradina,459.0
44.13291,15.773837,Glavičica,454.0
44.138435,15.704196,Šimunova glavica,561.0
44.132732,15.701664,Pržuni,588.0
44.154984,15.68526,Košćak,554.0
44.154293,15.697062,Uvezac,549.0
44.151352,15.683243,Marinovića glavica,517.0
44.157093,15.672514,Trnovača,521.0
44.15861,15.677883,Lukovača,523.0
44.170086,15.708477,Lomivrat,354.0
44.16813,15.710129,Travnjak,326.0
43.905777,15.805195,Durbin,180.0
43.888676,15.83324,Kremenica,203.0
43.92593,15.841598,Bribirska glavica,297.0
43.973347,15.7706585,Gradina,222.0
43.919704,15.859751,Vrpnja glavica,250.0
43.909996,15.875608,Crkveni umac,244.0
43.90449,15.874878,Mikulićki umac,253.0
43.91233,15.831061,Kosa,215.0
43.9798,15.717294,Gladuša,238.0
43.88643,15.616762,Osridak,181.0
43.89628,15.62873,Mutvice,239.0
43.926613,15.70733,Veliki Umac,210.0
43.92415,15.710205,Mali Umac,181.0
43.92574,15.680795,Ćulina,239.0
43.919346,15.631426,Glavica,214.0
43.918682,15.636468,Bašićeva glavica,215.0
43.883976,15.625262,Prisoje,204.0
43.884247,15.634939,Brdo,258.0
43.878,15.642053,Bakrač,284.0
43.88192,15.645052,Debeljak,284.0
43.875294,15.645207,Orljak,254.0
43.867905,15.671885,Umac,219.0
43.964203,15.687202,Stražbenica,253.0
43.956806,15.696172,Karanova glavica,256.0
43.940166,15.722114,Gromile,221.0
43.93258,15.73192,Smrikovac,184.0
43.81119,15.702354,Vučje uši,63.0
43.928883,15.569521,Plat,84.0
43.934677,15.570872,Kosovac,108.0
43.92746,15.585298,Babina Gromila,111.0
43.905296,15.605197,Crni vrh - Veliki,293.0
43.85375,15.696893,Štadin,192.0
43.851418,15.656212,Ljubovnik,121.0
43.848373,15.66664,Turutnjak,107.0
43.842957,15.679858,Mali Rnjevac,142.0
43.845222,15.674661,Veliki Rnjevac,141.0
43.83945,15.7190695,Plat,213.0
43.829514,15.698363,Vrani vrh,110.0
43.852325,15.679512,Drašnjak,125.0
43.853233,15.634395,Crnjac,62.0
43.85861,15.738564,Mali Crni vrh,200.0
43.852585,15.752012,Završće,202.0
43.82883,15.785594,Velika Rogušica,168.0
43.832893,15.781871,Smokvica,168.0
43.810444,15.683793,Makirina,113.0
43.788097,15.685351,Popov vrh,106.0
43.787773,15.678206,Višnja,69.0
43.77284,15.710199,Telengrad,191.0
43.78057,15.735509,Stražni vrh,191.0
43.768684,15.748201,Križina,183.0
43.798164,15.668309,Gračina,126.0
43.798725,15.65427,Petrića glava,64.0
43.81462,15.639062,Smrdeča,47.0
43.810703,15.649555,Krč,66.0
43.80581,15.638772,Crni krug,91.0
43.804012,15.660096,Tarace,62.0
43.794006,15.673153,Laz,110.0
43.776394,15.704234,Trišćenica,170.0
43.78479,15.690399,Vrtac,108.0
43.795914,15.711063,Veliko čelo,144.0
43.79196,15.717372,Malo čelo,133.0
43.830303,15.729313,Gradina,274.0
43.825844,15.737596,Golo brdo,231.0
43.823273,15.727553,Veliki Debeljak,158.0
43.822254,15.743754,Sopanj,221.0
43.847576,15.723251,Oštro,171.0
43.85095,15.713113,Plišivica,176.0
43.905376,15.648028,Gradina,227.0
43.90997,15.644037,Visoka,227.0
43.83093,15.823046,Plana,113.0
43.841873,15.767534,Debeljak,190.0
43.80611,15.767425,Kulaš,157.0
43.8089,15.765831,Kuline,166.0
43.813675,15.8109865,Velika kosa,129.9
43.80444,15.792452,Velika Mrdakovica,142.0
43.79873,15.794969,Mala Mrdakovica,118.0
43.784348,15.847135,Tradanj,122.0
43.862072,15.952797,Gradina,205.0
43.870487,15.947133,Mali Debeljak,196.0
43.87525,15.942798,Veliki Debeljak,233.0
43.882618,15.936946,Obišnjak,228.0
43.90971,15.923891,Kosa,232.0
43.89537,15.934349,Velika gradina,204.0
43.891186,15.946639,Jurića gradina,204.0
43.890987,15.938421,Mala gradina,165.0
43.978344,15.875893,Zečevo,326.0
43.984978,15.863297,Kuk,324.0
43.98807,16.025726,Kosa,244.0
43.99394,16.011892,Gradina,243.0
43.72245,16.140446,Crni vrh,468.0
43.78235,15.788329,Leč,89.0
43.742683,15.86317,Tusta,87.0
43.78434,15.8116,Križeva glavica,105.0
43.777317,15.810511,Kosmač,107.0
43.804325,15.7363205,Bušnjak,112.0
43.80067,15.741578,Kozara,133.0
43.787563,15.731214,Ripina,165.0
43.801975,15.775669,Šabin,102.0
43.767815,15.717288,Požar,164.0
43.80059,15.761368,Okitac,97.0
43.791935,15.776211,Mali gaj,103.0
43.772743,15.833365,Orljak,102.0
43.767254,15.822348,Stražić,84.0
43.71961,15.879822,Kita,39.0
43.694805,15.826312,Križić,94.0
43.69934,15.843427,Mandola,91.0
43.702732,15.897883,Kalambrežov umac,55.0
43.694775,15.852254,Platac,93.0
43.683746,15.859845,Kružić,144.0
43.67725,15.856599,Pržnica,140.0
43.687702,15.841702,Klepac,167.0
43.79831,15.850956,Računička Glavica,119.0
43.85846,15.774277,Gradina,166.0
43.81344,15.838076,Pometnik,104.0
43.829014,15.773853,Gorjak,154.0
43.818306,15.775672,Grljenkova glavica,122.0
43.878815,15.739445,Ćurkuša,186.0
43.888885,15.726582,Glavica,196.0
43.88681,15.729883,Palikovača,195.0
43.874702,15.752015,Pešića glavica,154.0
43.829212,15.70353,Pušno,77.0
43.837982,15.635493,Tuštica,109.0
43.876625,15.549995,Kurela Velika,112.0
43.82929,15.753098,Malinica,102.0
43.88173,15.556422,Ujačka glava,65.0
43.886593,15.529986,Zaglav,39.0
43.880367,15.541745,Kurela Mala,111.0
43.850338,15.604251,Splićac,43.0
43.867092,15.596698,Pločine,57.0
43.851543,15.591999,Obišenjak,43.0
43.861202,15.560692,Velika Zečica,37.0
43.85987,15.566786,Mala Zečica,16.0
43.876198,15.55647,Obišenjak,61.0
43.879128,15.57406,Mramor,46.0
43.872692,15.585562,Plana,70.0
43.867775,15.65929,Kozarica,189.0
43.87209,15.660685,Zrilić,183.0
43.883427,15.650364,Umac,212.0
43.880123,15.656254,Jazvinka,224.0
43.88598,15.643733,Plišivica,229.0
43.868195,15.6540165,Umčić,170.0
43.990772,15.553864,Ljubčen,205.0
44.00615,15.546482,Velika Debeljača,199.0
44.003178,15.551749,Dvovrh,182.0
43.999435,15.554496,Grbovača,171.0
44.000206,15.541214,Ćosina gradina,158.0
44.118336,15.535771,Špijaljka,283.0
44.10171,15.563393,Debelo brdo,341.0
44.08512,15.539307,Rastova glavica,211.0
44.08324,15.53553,Gola glavica,203.0
44.11273,15.6243305,Milenkovo brdo,116.0
44.079212,15.612523,Gradić,289.0
44.220825,15.562052,Kita,132.0
44.22021,15.593954,Kosa,201.0
44.22432,15.595933,Gromila,197.0
44.239372,15.545213,Patkin kuk,169.0
44.257553,15.600528,Visoka glavica,457.0
44.269997,15.569371,Visoka glavica,509.0
44.17348,15.673613,Glavica Marića,382.0
44.27433,15.624883,Bukovo pleće,1070.0
44.234406,15.636319,Visulja,243.0
44.18842,15.643335,Jurina glavica,260.0
44.185665,15.648142,Kadulja,271.0
44.185772,15.655782,Velika glavica,281.0
44.17306,15.677839,Čordak,386.0
44.19088,15.632435,Miljanića glavica,238.0
44.193108,15.62323,Sljeme,212.0
44.130913,15.810393,Crna glavica,504.0
44.123444,15.736386,Rokića glavica,514.0
44.11912,15.789073,Visoka glavica,457.0
44.424953,15.595629,Gajište,606.6
44.4134,15.584965,Bukova glavica,702.0
44.424095,15.567016,Lisina,690.3
44.42117,15.553829,Vrh pločavi,643.0
44.416126,15.551254,Vrletuša,668.9
44.412846,15.563701,Terekuša,683.0
44.4087,15.552199,Magaretin,676.0
44.400078,15.542135,Mala Paljevica,690.0
44.405727,15.529529,Tomčaja,642.0
44.00317,16.451365,Barišića vrh,732.0
44.01887,16.47334,Mali Kurozeb,1227.0
44.137093,16.276943,Čelinka,671.0
44.126472,16.265673,Ruj,798.0
44.150658,16.2853,Javorova glava,833.0
43.980427,15.516774,Gradina,111.0
44.039917,16.387114,Ošljak,1589.3
43.91366,15.585604,Zverinac,197.0
43.91208,15.592909,Čelinka,238.0
43.90796,15.59931,Porike,283.0
43.90474,15.607547,Crni vrh - Mali,293.0
43.89452,15.604092,Orljak,252.0
43.877743,15.628721,Veliki umac,96.0
44.05401,16.462519,Vitrena glavica,1132.0
44.04348,16.482464,Veliki Kurozeb,1571.0
43.895462,15.533515,Ćušija velika,107.0
44.019176,16.331928,Vučja glavica,564.0
44.129864,16.318495,Bat,1406.0
44.13097,16.344007,Koviljača,1104.0
44.11881,16.352205,Vučja poljana,1304.0
44.080063,16.377525,Suvi vrh,1486.0
44.090836,16.38465,Sveti Andrija,1294.0
44.096245,16.389027,Mala kosa,1356.0
44.0944,16.397459,Grabova kosa,1370.0
44.08526,16.419325,Sveti Juraj,1246.0
44.07991,16.420269,Oštri vrh,1199.0
44.093918,16.477045,Bjelobor,1401.0
44.071938,16.49314,Špikina glavica,1578.0
44.07661,16.499298,Malicitij,1637.0
44.102936,16.466381,Borova glava,1266.0
44.10837,16.451813,Božanovića glavica,957.0
44.10288,16.433617,Vijenac,927.0
44.075718,16.443464,Vrh Šale,1333.0
44.138115,16.411064,Muća glava,878.0
44.128597,16.430761,Rastova glava,1008.0
44.11441,16.442799,Lovrića glava,942.0
44.1168,16.476423,Cilj,1247.0
44.1101,16.48874,Repaš,1343.0
44.118095,16.488075,Vučja glavica,1289.0
44.134342,16.49475,Poljarov kuk,907.0
44.12665,16.452896,Hajdučka glava,1002.0
44.22286,16.171339,Zavolje,1112.0
44.214325,16.154549,Konjska glava,1336.0
44.20459,16.181831,Dvokića brdo,1044.0
44.19702,16.195993,Veliki gologlav,1197.0
44.20202,16.193697,Mali gologlav,1074.0
44.223614,16.258049,Repušnjak,763.0
44.237545,16.271309,Goli bat,1523.0
44.234093,16.274014,Mali bat,1415.0
44.207314,16.346754,Vidovića brdo,914.0
44.194206,16.321993,Grič,931.0
44.20085,16.310362,Cigelj,1073.0
44.212696,16.30457,Ciganski brijeg,1062.0
44.20659,16.281008,Ćulum,1120.0
44.20851,16.258307,Krnetuša,1088.0
44.204727,16.271095,Biljeg,1123.0
44.177773,16.325897,Sunčanica,1136.0
44.171448,16.337078,Špija,1228.0
44.183926,16.322292,Živkovića ogradak,1071.0
44.175495,16.31637,Mačija greda,1074.0
44.187325,16.31294,Zekinica,1059.0
44.187344,16.289206,Ogradci,1124.0
44.181465,16.286888,Kuk,1130.0
44.14246,16.278015,Smoljana glava,694.0
44.15576,16.337593,Srneći kuk,1333.0
43.992985,15.765917,Pudarica,293.0
43.98227,15.755811,Umčić,258.0
44.195927,16.209167,Kobila,1055.0
44.1941,16.218117,Gologlav,1041.0
44.18378,15.824522,Gornja Sjenica,234.0
44.17291,15.855073,Gradina,238.0
44.18475,15.844306,Babića glavica,244.0
44.18615,15.854906,Kordin kuk,270.0
44.190903,15.892077,Alan,156.0
44.03845,15.50266,Kamenta,86.0
44.284958,16.094929,Kurozeb,1075.0
43.511406,16.25891,Balan,93.2
44.383408,15.673204,Cvituša,660.0
43.595623,16.198875,Plišivica,509.0
43.71204,15.993919,Kukalj,225.7
43.698765,16.02641,Stražbenica,220.4
44.267303,15.738843,Vrkino brdo,886.0
44.272263,15.735981,Razvršje,938.0
44.2728,15.752479,Stražište,1008.0
44.2716,15.769212,Četinarica,1179.0
44.27385,15.78492,Jelinov vršak,1050.0
44.27188,15.79406,Vrbnički vrh,1000.0
44.381546,16.0487,Stražbenica,1252.0
44.011932,15.5257,Kruglaš,139.0
44.00968,15.5287895,Oštruljica,116.0
44.007397,15.527245,Peljeguša,103.0
44.02474,15.513738,Mutvica,132.0
44.019276,15.519552,Gradina,136.0
44.02143,15.515958,Doganja,137.0
44.005875,15.550328,Mala Debeljača,185.0
43.941833,15.555673,Mulo,76.0
44.480858,15.987374,Sladakovac,1069.0
43.953354,15.703433,Prpuška,249.0
44.015717,15.630767,Perušićka kosa,220.0
44.02778,15.601225,Grubića glavica,211.0
44.04619,15.73044,Londža,370.0
44.076256,15.540685,Gospina glavica,201.0
43.622997,15.942233,Šjaurovica,206.0
43.619225,15.936826,Skorince,236.0
43.6255,15.949185,Višala,250.0
43.623947,15.971973,Veli Jelinjak,289.0
43.62412,15.980127,Mali Jelinjak,176.0
43.621693,15.986436,Ciser,254.0
43.596733,16.031868,Jasenovik,349.0
43.596405,16.022234,Radeš,299.0
43.610058,16.041647,Ženskovica,306.0
43.618702,16.00083,Stup,258.0
43.616528,16.008936,Krajnja glava,251.0
43.614037,16.015812,Mala Raduča,228.0
43.61281,16.023838,Velika Raduča,231.0
43.610493,16.02905,Ograđenik,293.0
43.613953,15.979785,Mali Drvenik,290.0
43.61587,15.964113,Okrugljak,241.0
43.61348,15.958513,Ozrnja,237.0
43.598843,16.01438,Glavica,309.0
43.606457,16.014143,Orlović,381.0
43.607296,16.00936,Grbavac,335.0
43.610157,16.002472,Stablinac,336.0
43.612812,15.992236,Kuljača,309.0
43.60259,15.985872,Zatoglav,286.0
43.594242,15.989905,Široki brijeg,252.0
43.61364,15.97316,Jagleš,287.0
43.60543,15.973748,Konjuška,260.0
43.604042,15.940746,Vela glava,211.0
43.598286,16.005527,Mali Gnoinac,277.0
43.60189,16.00467,Veliki Gnoinac,292.0
43.605167,16.077866,Mali Zelenikovac,413.0
43.62783,15.997458,Velika gorica,109.0
43.624832,16.009647,Glavica,107.0
43.622795,16.018059,Rakitnik,148.0
43.574547,16.122568,Gornji kartolini,491.0
43.615074,16.049393,Vučjak,283.0
43.60035,16.067867,Orlovac,381.0
43.58949,16.099302,Gradina,441.0
43.607002,16.062288,Plavin umac,332.0
43.609035,16.068918,Burin umac,372.0
43.567093,16.001724,Vadalj,346.0
43.56072,15.992625,Slimnica,295.0
43.55714,16.000156,Jarebinjak,266.0
43.5843,15.955898,Gola glava,163.0
43.60414,15.964921,Grba,217.0
43.55476,16.045204,Široka glava,316.0
43.556236,16.060783,Gradina,365.0
43.51218,16.071297,Vilar,187.0
43.51218,16.06546,Rebac,192.0
43.56025,16.068636,Klenovica,380.0
43.514767,16.032202,Modrička glavica,199.0
43.50641,16.076147,Zečevo,166.0
43.505203,16.098333,Piskaljica,210.4
43.535557,16.060488,Mirišćak,266.0
43.517544,16.095953,Čelinja,86.0
43.51491,16.114191,Dobroćevo,51.0
43.52122,16.123138,Drid,176.0
43.522686,16.109674,Bilo,195.0
43.54279,16.04463,Mali Radulj,247.0
43.543922,16.05493,Veliki Radulj,272.0
43.526474,16.117817,Ošljak,159.0
43.54705,16.029245,Mali Orljak,271.0
43.645885,16.017048,Velika Škadrica,426.0
43.64672,16.008924,Mala Škadrica,316.0
43.64339,15.979577,Gradina,253.0
43.640778,15.988283,Japaga,262.0
43.701508,16.019745,Polinica,220.0
43.69267,15.977045,Grušine,122.0
43.654263,15.967421,Puklina-požar,157.0
43.656815,15.957427,Košutnica,125.0
43.642975,15.993368,Smiljevača,292.0
43.702076,15.960409,Ljubljana,221.0
43.70094,15.975872,Magličinac,179.0
43.687733,15.987352,Popelj,187.0
43.659847,16.004738,Petrinovica,221.0
43.691257,15.984249,Gorilica,169.0
43.693848,15.983203,Sklop,167.0
43.69829,15.979534,Bikarac,186.0
43.712463,15.969282,Vađinac,145.0
43.57645,16.022738,Jarnik,292.0
43.58786,16.041578,Kruševac,286.0
43.58158,16.008291,Čuka,262.0
43.615616,16.075754,Veliki Zelenikovac,563.0
43.618458,16.080496,Veliki vrh,645.0
43.614574,16.086784,Česmine,650.0
43.611202,16.090967,Kurlje,641.0
43.611034,16.109163,Grad,642.0
43.602306,16.138739,Bulina greda,618.0
43.596344,16.157364,Rumenčica,717.0
43.585716,16.148722,Gradina,487.0
43.5568,16.087631,Čepelj,322.0
43.555355,16.172367,Ćurkovac,538.0
43.558292,16.123379,Tišta,421.0
43.557003,16.142885,Šupljak,503.0
43.549942,16.092737,Muranšćak,341.0
43.548313,16.098114,Čelinja,298.0
43.548195,16.112452,Čepelj,256.0
43.522606,16.161203,Međa glava,175.0
43.527164,16.130777,Kobiljak,143.0
43.519753,16.153591,Kičer,169.0
43.569454,16.243484,Jaretar,348.0
43.550373,16.13531,Žuvinac,395.0
43.55835,16.213722,Kulina,475.0
43.575397,16.24202,Kaštelica,461.0
43.546524,16.17374,Tević,473.0
43.586464,16.210514,Ornjak,654.0
43.643192,16.244307,Umac,321.0
43.632256,16.201326,Brdašce,327.0
43.67611,16.09628,Srdašce,298.0
43.633396,16.131052,Gornja gomila,457.0
43.627563,16.140295,Buljino brdo,482.0
43.678215,16.086544,Gomilica,239.0
43.61128,16.179375,Sirišnjak,553.0
43.67669,16.083078,Umac,222.0
43.61884,16.15884,Banov umac,455.0
43.61336,16.169762,Galina glavica,539.0
43.593735,16.245386,Trapina greda,510.0
43.624325,16.146727,Zlatarica,498.0
43.532104,16.187675,Jelinak,420.0
43.615654,16.188019,Blizanac,528.0
43.53534,16.152807,Oblik,298.0
43.61919,16.068533,Vitrenik,520.0
43.61959,16.059284,Škenderovac,520.0
43.623505,16.05327,Kucelj,447.0
43.628254,16.037569,Krševanjak,408.0
43.634483,16.043945,Gradina,403.0
43.65452,16.013733,Velika Bajina glava,244.0
43.6586,16.031187,Ogorilica,225.0
43.65749,16.018196,Mala Bajina glava,226.0
43.672108,15.953943,Grbine,52.0
43.74934,16.139317,Ćukov umac,406.0
43.752705,16.132708,Odobrda,349.0
43.752457,16.101202,Glavica,308.0
43.807663,16.190954,Elezova gomila,467.0
43.795006,16.236477,Nadvis,668.0
43.73577,16.330976,Popišanac,773.0
43.714035,16.352123,Kljenovac,706.0
43.70967,16.440403,Plazina glava,597.0
43.781643,16.31603,Trusina glavica,413.0
43.802773,16.300947,Balina glavica,364.0
43.777107,16.321009,Čajina glavica,431.0
43.802753,16.308699,Magaretuša,306.0
43.794567,16.302048,Gabelin brig,369.0
43.776672,16.3159,Krstina,393.0
43.752575,16.348537,Drvar,513.0
43.818607,16.453182,Gradina,1143.0
43.810345,16.49709,Gradina,802.0
43.88013,16.429499,Špija,679.0
43.813347,16.471706,Greda,1109.0
43.913193,16.413952,Bulinova glavica,394.0
43.91525,16.450302,Oštra glavica,489.0
43.963707,16.395456,Runjevica,513.0
43.936836,16.425041,Kosorska gradina,467.0
43.93735,16.411587,Lelasova glavica,448.0
43.95322,16.397667,Kotluška glavica,471.0
43.93902,16.321733,Čelinka,849.0
43.9299,16.320145,Štikovska krmenjača,805.0
43.944054,16.297657,Gola glavica,674.0
43.948425,16.31918,Krmenjača,892.0
43.950325,16.24168,Dokića glavica,257.0
43.942013,16.23603,Veliki Kukar,299.0
43.940067,16.300661,Baljića glavica,674.0
43.927174,16.32934,Kolarova glavica,834.0
43.93682,16.28723,Šarovački vrh,598.0
43.94636,16.237753,Mali Kukar,279.0
43.948627,16.303686,Šmekova glavica,721.0
43.954212,16.23957,Buvačeva glavica,263.0
43.898983,16.353388,Kliština,834.0
43.953598,16.225887,Lubovačka glavica,300.0
43.910202,16.30373,Mala gradina,533.0
43.944767,16.19202,Oštra glavica,428.0
43.907345,16.35504,Kuk,985.0
43.9341,16.353666,Sjenica,997.0
43.954033,16.20857,Plavšina glavica,311.0
43.942352,16.217373,Rnjića glavica,273.0
43.942894,16.222202,Sokolovača,275.0
43.939415,16.225554,Sječak,289.0
43.963238,16.226566,Osoje,283.0
43.963955,16.212902,Krstanovića glavica,253.0
43.971977,16.227896,Čulum,301.0
43.98335,16.211239,Ljeskova glavica,265.0
43.97228,16.209581,Marinčića glavica,264.0
43.904163,16.246258,Stijene,541.0
43.9571,16.244574,Šušanj,270.0
43.9495,16.155594,Bjeljkuša,740.0
43.92526,16.136202,Grečica,497.0
43.922413,16.151072,Gradina,711.0
43.864254,16.194878,Cecela,303.0
43.87831,16.139137,Matića umac,427.0
43.87333,16.126589,Greta glava,337.0
43.981606,16.215885,Begovića glavica,263.0
43.984665,16.223873,Milića glavica,307.0
43.99147,16.266712,Kovačuša,473.0
43.95566,16.18401,Injcova glavica,400.0
43.97739,16.217445,Matkovića glavica,269.0
43.870087,16.128107,Čukovac,368.0
44.0361,16.24886,Smrekova glavica,472.0
43.993397,16.210262,Kupres,285.0
44.03042,16.2967,Borovo brdo,527.0
43.9791,16.327906,Tutnjevina,709.0
43.97598,16.302671,Glavica,640.0
43.97077,16.278456,Kozjačak,526.0
44.11939,16.187857,Pitomac,635.0
43.680096,16.499678,Glavica,499.0
43.68127,16.387602,Kuk,556.0
43.679703,16.380093,Spužev umac,538.0
43.698067,16.31712,Umac,441.0
43.697186,16.308407,Barišinovac,452.0
43.692787,16.30004,Kapina,483.0
43.73682,16.197123,Zeleni umac,384.0
43.724323,16.201832,Đukića gradina,375.0
43.64165,16.155066,Jarebinjak,301.0
43.65323,16.188969,Mala Vrljica,417.0
43.64618,16.117847,Bilin,259.0
43.652576,16.079031,Grao,351.0
43.652657,16.178892,Orlja greda,409.0
44.334843,16.027153,Opaljenik,1260.0
43.941265,15.8335285,Veliki Plančinik,274.0
44.285267,15.582486,Gornje razvršje,1013.0
44.281967,15.5723915,Veliki kuk,777.0
44.279083,15.58392,Orlov kuk,892.0
44.283306,15.552662,Debeli kuk,728.0
44.27771,15.53807,Oštra glava,373.0
44.26986,15.548242,Visoka glavica,253.0
44.349644,15.516896,Lastve,1464.0
43.869534,15.830824,Zelena glavica,190.9
43.895283,15.616384,Baldina glavica,260.0
43.95958,15.5794935,Pjesak,131.0
43.545776,16.273094,Kneževa gomila,114.9
43.539516,16.279852,Plano,110.5
43.53681,16.269085,Plošnjak,202.6
43.536644,16.25545,Kite,309.9
43.531513,16.24981,Brnastrovica,217.4
43.74133,15.944518,Umac,138.1
43.89445,15.608579,Kamenjak,286.0
44.445606,15.70969,Jelovi vrh,1232.9
44.24668,15.741132,Kota 934,934.0
44.2485,15.741699,Kota 978,978.0
44.246643,15.779465,Prolog,1008.0
44.233795,15.763754,Vijenac,854.0
43.92353,15.832811,Ćoraška glavica,183.8
43.91422,15.956279,Nožić,221.2
43.79826,15.927135,Murić,144.1
43.77668,15.90916,Smrikovača,85.1
44.220203,15.943746,Visibaba,811.0
44.221355,15.990978,Paripovac,1059.0
44.22228,15.966264,Antin vrh,924.0
44.224922,15.957453,Jeriština,770.0
44.209538,15.935782,Burnjak,770.0
44.20741,15.927197,Gradina,595.0
44.219013,15.922508,Razbojna,610.0
44.2308,15.925231,Jareća glavica,895.0
44.243774,15.918742,Visočica,981.0
44.2367,15.918236,Ruja,945.0
44.23304,15.920479,Vučji vrh,910.0
44.421432,16.439817,Borova Glavica,1170.0
44.2423,15.850638,Vrh,1130.0
44.237568,15.852049,Kuk,956.0
44.23814,15.900565,Karlovački vrh,768.0
44.271675,15.878582,Kita,903.0
44.25629,15.888285,Stremušni vrh,932.0
44.456688,15.679384,Gakuša,729.0
44.419758,15.694895,Krkenjača,853.1
44.4193,15.702215,Kosa Šarića,789.0
44.416077,15.708501,Budačak,910.4
44.41829,15.718661,Gorčica,839.0
44.422176,15.683175,Keljac,724.0
44.427273,15.675858,Šarića glava,712.4
44.427345,15.665291,Gradina,726.9
44.418304,15.673466,Sokoluša,658.0
44.39991,15.708426,Visočica,755.0
44.40625,15.7119465,Vučkovica,726.0
44.40401,15.7315645,Sedalce,728.0
44.39852,15.723338,Tromerka,773.7
44.39656,15.731133,Bobelji,600.0
44.432384,15.719625,Ivanov vrh,909.0
44.42705,15.723702,Čardak,974.9
44.425503,15.714004,Kučac,801.0
44.4225,15.732435,Okrugla,967.1
44.420414,15.741169,Kapljuv,1003.3
44.41341,15.743679,Crni vrh,967.5
44.413105,15.753228,Lumbarda,1027.0
44.40728,15.759365,Vrh jelovi,1051.5
44.405487,15.768527,Šipak,1079.0
44.43742,15.660204,Debljača,819.6
44.454765,15.702306,Šiljasti vrh,1074.0
44.4471,15.699713,Čavlić,985.0
44.43813,15.711964,Kuk od Malog doca,986.0
44.496655,15.794709,Babina glava,1094.8
44.497204,15.784538,Razvala,1043.0
44.48851,15.787671,Draženski vršić,951.3
44.49719,15.750055,Veliko brdo,729.1
44.452763,15.760729,Samograd,858.0
44.30434,15.596453,Debeli krug,1336.0
44.313984,15.59845,Velike vršine,1350.0
44.31185,15.603131,Male vršine,1354.0
44.375732,15.51458,Bukovi vrh,1484.0
44.37582,15.560975,Međed,918.0
44.363728,15.582113,Crni vrh,791.7
44.355835,15.601866,Buzdovan,721.5
44.392742,15.564491,Dobrića glavica,776.3
44.381947,15.571472,Rteševa glavica,808.1
44.312183,15.619665,Bliznaci,1239.0
44.31083,15.623176,Bliznaci,1254.0
44.321217,15.544966,Jerkovac,1164.0
44.415066,15.68128,Pipliča,642.0
44.36831,15.711355,Vršić,783.0
44.367233,15.742357,Vrh Šarića,894.0
44.36355,15.755965,Hrastova kosa,928.0
44.359566,15.766338,Ćelavac,1062.0
44.35762,15.778307,Vrh jelovi,1176.2
44.37545,15.684335,Patrovača,664.6
44.369385,15.696434,Guševica,672.1
44.44135,15.726915,Komača,1177.4
44.435474,15.741426,M. Komić,1026.2
44.437008,15.756325,Mirkača,1130.7
44.424408,15.762546,Opačić vrh,1132.6
44.442177,15.779972,Vrletuša,1032.6
44.41766,15.788978,Suvovrh (Sovar),997.4
44.406635,15.776126,Risovac,1110.7
44.390102,15.8171625,Došenov podić,855.4
44.398857,15.808283,Šepin vršak,889.8
44.37695,15.831054,Lipova glava,704.6
44.356384,15.806352,Gradina,1050.3
44.436325,15.697716,Kuk,974.8
44.437565,15.690875,Vrščić,902.0
44.264866,15.617254,Bobija,849.0
44.275635,15.598,Brnjino pleće,1023.0
43.506676,16.296583,Ravno,152.1
43.84195,15.789173,Goretna glavica,106.9
43.84623,15.790355,M. Tucanj,145.2
43.83816,15.803416,Veli vrh,179.0
43.840862,15.795233,V. Tucanj,164.3
43.832005,15.804196,Runjavica,113.3
43.82324,15.88595,Umac,34.8
43.810177,15.906876,Goli umac,60.2
43.737854,16.087124,Bubrig,461.0
43.766575,16.02309,Ljubokik,271.0
43.757244,16.003418,Plišivica,283.1
43.71979,15.977944,Poda,139.9
43.698654,16.103775,Parizovac,482.0
43.688572,16.101679,Banov umac,273.0
44.49672,16.107119,Debeljača,772.0
43.804993,15.846721,Križovača,80.0
43.8101,15.842873,Čukovača,119.0
44.226257,15.850585,Šiljatica,576.0
44.223366,15.861442,Osječena glavica,536.0
43.803013,15.848997,Alvižova Glavica,80.0
43.79678,15.853756,Tristina,110.0
43.794353,15.856914,Kraljev Gaj,100.0
43.782562,15.865023,Debeljak,147.5
43.77201,15.857296,Triska,132.0
43.773666,15.85002,Bubak,109.4
43.773037,15.867473,Križ,100.0
43.77975,15.851797,Pleći,100.0
43.765537,15.883803,Rivina,260.0
44.231174,15.6474285,Velika glavica,196.0
44.235603,15.623103,Visoka glavica,241.7
44.39907,15.928949,Vršak,959.0
44.401726,15.904335,Zbornjača,782.0
44.410477,15.914864,Grumila,783.0
44.415855,15.958788,Vršeljak Manić,1223.0
44.422047,15.90866,Savino brdo,766.0
44.42676,15.885359,Antino brdo,755.2
44.43589,15.923112,Previja,841.0
44.43952,15.9043,Šolobanica,1145.0
44.44568,15.903203,Glavica,1053.0
44.47419,15.900599,Opaljeni vršci,1315.0
44.190052,16.01445,Čelinja,705.0
44.200783,16.017023,Velika Vrbica,1041.0
44.19169,16.035717,Mala Vrbica,770.0
44.208923,16.00765,Kupusište,1068.0
44.21005,16.0245,Crni vrh,939.0
44.20835,16.029465,Samogred,888.0
44.222416,16.032593,Kurozeb,787.0
44.225365,16.029617,Brijeg,807.0
44.23099,16.026197,Borovača,767.0
44.22869,16.03794,Riđuša,763.0
44.15887,16.08376,Kita,625.0
44.40397,16.086355,Jasik,569.0
44.393314,16.043184,Vršić,1189.0
44.340336,16.104803,Urljaj,902.0
44.35401,16.182844,Kasarna,670.0
44.103645,16.378311,Orlovac,1485.0
44.47484,15.970411,Prpino brdo,976.0
44.292057,15.628418,Mali Golić,1196.0
44.29615,15.637833,Matekovac,1120.0
44.292545,15.640289,Vršine,1158.0
44.291203,15.616721,Božića vršina,1229.0
44.28152,15.600936,Jelovac,1097.0
43.53899,16.453033,Brižine,24.0
43.563698,16.42415,Sveti Juraj,308.0
44.357834,15.511367,Jolin i Marijin kuk,1707.0
44.18525,15.719529,Kosa Brkaševa,234.0
44.159058,15.76476,Vrščić,318.0
44.164684,15.759803,Božin vrščić,311.0
44.167088,15.771574,Gradinica,353.0
44.166214,15.780167,Latice,311.0
44.163654,15.7876,Velika gradina,339.0
44.16198,15.793857,Stražbenica,320.0
44.15636,15.796985,Glavica,287.0
44.149597,15.801135,Gradina,260.0
44.145096,15.804707,Gradinica,241.0
44.154045,15.772213,Mačkov vrščić,356.0
44.158653,15.750551,Kalinića kosa,370.0
44.161774,15.729344,Janjkeš,341.0
44.16369,15.712477,Runjevac,334.0
44.177742,15.758206,Malo Greblje,295.0
44.17579,15.763828,Veliko Greblje,334.0
44.172398,15.770063,Brdaljak,321.0
44.169067,15.797631,Vrščić,343.0
44.16908,15.807671,Šukarina glavica,264.0
44.16797,15.824307,Umac,173.0
44.257633,15.693401,Bužanjkin vrh,897.0
44.233177,15.663349,Vrh Torina,267.0
44.228832,15.684056,Gola glavica,306.0
44.233547,15.689957,Čatrnja,349.0
44.238464,15.68176,Umac,468.0
44.24154,15.691352,Čelaševac,583.0
44.235363,15.576689,Jasenička glava,174.1
44.241634,16.046429,Debelo brdo,902.0
43.813114,15.855042,Velika glavica,39.1
43.81625,15.849634,Mala glavica,119.0
43.81808,15.845855,Crnoga glavica,30.0
43.80434,15.83255,Ravna glavica,110.0
43.823193,15.807441,Rust,132.0
43.817963,15.797396,Brkinac,118.0
43.82296,15.791885,Mala Rogušica,139.9
43.823933,15.815499,Lisac,100.0
43.818584,15.783075,Velika Grabovica,93.0
44.38387,15.534088,Jelovi vrh,1227.0
43.924442,15.590489,Kosa,107.0
43.91213,15.601616,Ostruljača,235.0
43.9104,15.608442,Goli brig,204.0
43.641956,15.679153,Mali vrh,71.0
43.649555,15.664162,Borovica,116.0
43.64092,15.683386,Veli vrh,91.0
43.670776,15.628718,Tatinja,51.0
43.633038,15.719038,Smrikovac,81.0
44.22522,16.090443,Inkuša,752.0
44.23285,16.129642,Oklinak,1329.0
44.487644,15.928642,Javornik,1292.0
44.485527,15.831871,Vrščić,1315.0
44.484913,15.821434,Veliko Rteševo,1390.0
44.47591,15.815516,Mali Rteševo,1218.0
44.4971,15.917922,Kurozeb,1232.0
44.47311,15.915489,Bijeli vrh,1385.0
44.46645,15.905998,Vršak,1314.0
44.46278,15.873341,Kovaruša,1470.0
43.996433,16.39607,Sviraćeva glavica,455.0
44.07048,16.398895,Polačka glavica,1514.0
43.98439,16.421656,Milašev krščić,453.0
44.07137,16.370087,Bukvin vrh,1530.0
43.97839,16.400084,Baroviška glavica,462.0
44.073006,16.364742,Andića vrh,1439.0
43.791344,15.643584,Brošćica,73.0
43.774586,15.628849,Murtar,51.0
43.778778,15.625558,Koromašnica,64.0
43.791813,15.630624,Kosmač,49.0
43.77136,15.638321,Kamenar,60.0
43.772778,15.642502,Tripica,71.0
43.770206,15.646347,Visoka,89.0
43.802364,15.621588,Kokoć,80.0
43.76748,15.656801,Široka,78.0
43.79401,15.61929,Jasenovac,119.0
43.819912,15.579026,Veli Vršak,56.0
43.779076,15.649495,Maća,59.0
43.768097,15.664479,Rat,50.0
43.799473,15.628482,Bisaga,31.0
43.798706,15.616299,Glavatac,123.0
43.80475,15.618093,Prva gora,44.0
43.809753,15.5983715,Hripe,64.0
43.80181,15.602799,Brdo,119.0
43.815903,15.601608,Brstine,60.0
43.83069,15.59509,Gradina,63.0
43.82271,15.577161,Mali Vršak,47.0
43.802197,16.436153,Oštri umac,1245.0
44.31097,15.536608,Okruglica,967.0
44.336433,15.566743,Vrh Ivana Gojtana,1726.0
44.32842,15.585199,Veliko bilo,1501.0
44.28607,15.659801,Suvi vrh,1122.0
44.307552,15.779376,Lujina glavica,578.0
44.31526,15.762787,Bukova kosa,692.0
44.32322,15.809503,Plase,821.0
44.309383,15.8388405,Batover,711.0
44.314167,15.824304,Ugljenarica,804.0
44.323677,15.800576,Risovac,866.0
44.295788,15.801762,Brdo Bajino,556.0
44.298992,15.788678,Krčić,559.0
44.331524,15.78902,Vršeljak,898.0
44.318333,15.819569,Žučevica,868.0
44.32829,15.814115,Golover,980.0
44.335205,15.779677,Glavica Trpolovačka,817.0
44.466957,15.688365,Kameniti vrh,802.0
44.472103,15.693384,Veli vrh,865.0
44.46841,15.690515,Kozji vrh,813.0
44.47439,15.697356,Vršeljak,831.0
44.468624,15.709574,Tavani,682.0
44.485313,15.716714,Kurjačak,762.0
44.477882,15.69009,Crljenčin vrh,871.0
44.48132,15.693446,Mali Požarić,805.0
44.47151,15.683941,Vrh Jelovi,898.0
44.474102,15.6792755,Draganića Vršak,855.0
44.466232,15.661465,Lipač,791.0
44.468098,15.668551,Zmajovača,797.0
44.477516,15.669747,Vršak Čuturilski,784.0
44.487244,15.630539,Đaković vrh,833.0
44.475506,15.659904,Trivića brdo,687.0
44.483932,15.642514,Mušinov vršak,827.0
44.47977,15.646538,Veliki Ogedak,798.0
44.478683,15.676675,Varetovec,911.0
44.484486,15.676899,Samogred (Basinovac),959.0
44.48033,15.637647,Đurin vrh,637.0
44.482822,15.653623,Visibaba,772.0
44.4765,15.6398945,Poljana,826.0
44.468517,15.646804,Pecinski vrh,762.0
44.493324,15.665405,Radaković vrščić,771.0
44.48804,15.667552,Prešljez,849.0
44.486835,15.688985,Cerovača,804.0
44.49513,15.703465,Visoki vrščić,793.0
44.482407,15.669807,Stubalj,818.0
44.499035,15.698509,Skoraća,860.0
44.486748,15.650954,Vijojla,836.0
44.497856,15.637176,Metlica,936.0
44.49662,15.630685,Maleševica,866.0
44.49963,15.652522,Vrh Košući,872.0
44.307785,15.710016,Gredina,675.0
44.331535,15.657829,Oštra glavica,584.0
44.30186,15.6873045,Klanac,636.0
44.333637,15.666117,Velika Vršina,637.0
44.335728,15.6515465,Panos,597.0
44.335747,15.65869,Plan,614.0
44.259365,15.729535,Škrapa,945.0
44.32592,15.686132,Vrh Jelovi,662.0
44.311794,15.678562,Veliki Malovan,587.0
44.31788,15.686206,Bukova glavica,613.0
44.29312,15.725685,Ruja,834.0
44.32247,15.65772,Oranica,607.0
44.333736,15.678114,Ponorski vrh,645.0
44.300243,15.678502,Vršak,674.0
44.33033,15.67978,Vučjak,624.0
44.323246,15.692058,Vršeljak,651.0
44.31645,15.70135,Japundžić vrh,725.0
44.311855,15.669114,Grabov vrh,664.0
44.288567,15.714256,Špijaljika,813.0
44.294495,15.74075,Pleće,906.0
44.29311,15.713112,Ravna strana,779.0
44.268215,15.749024,Javornik,967.0
44.25204,15.793797,Zagaljen,1020.0
44.2796,15.748553,Zečja glavica,981.0
44.28643,15.758906,Vučja glavica,928.0
44.209656,15.866458,Kurmina glavica,431.0
44.2312,15.865484,Mali Umac,677.0
44.281452,15.784628,Grič (Ogrečić),821.0
44.21632,15.843837,Križ,460.0
44.206947,15.86684,Mijića glavica,407.0
44.226303,15.833806,Mjedena glavica,590.0
44.213737,15.848606,Vran kuk,454.0
44.212723,15.841891,Zečja glavica,444.0
44.20128,15.868965,Karlova glavica,377.0
44.283863,15.770616,Debela kosa,944.0
44.222546,15.891233,Kite,468.0
44.21855,15.831842,Gradina,458.0
44.22086,15.827617,Pleča,460.0
44.212746,15.856931,Tojina glavica,453.0
44.224968,15.825576,Velika glavica,486.0
44.213646,15.878911,Pračka glavica,444.0
44.216698,15.856086,Vučja glavica,487.0
44.22757,15.874022,Tumina glavica,562.0
44.23179,15.871473,Veliki Umac,668.0
44.21799,15.732078,Simića kosa,200.0
44.2111,15.729834,Marovac,101.0
44.21836,15.718591,Vukova glavica,211.0
44.431126,15.789537,Kojino brdo,683.0
44.43311,15.8031845,Jasenovo brdo,703.0
44.222256,15.703496,Strana Maričića,252.0
44.22859,15.729483,Vršiž,424.0
44.215263,15.74742,Kojića vrščić,122.0
44.23359,15.699823,Velika Glavica,382.0
44.209564,15.759308,Špija,120.0
44.190247,15.761783,Đakovića glavica,62.0
44.2179,15.787126,Dračovi vrščić,281.0
44.22106,15.695257,Bravarica,261.0
44.198887,15.767778,Runjavi vrščić,57.0
44.211727,15.774995,Janjin vrščić,137.0
44.18123,15.745875,Golo brdo,227.0
44.418808,15.839251,Veliki vrh,967.0
44.2768,15.723845,Žuljinski Golić,893.0
44.275227,15.713882,Milska glavičica,957.0
44.463303,15.89875,Mali Kremen,1304.0
44.47618,15.867222,Vilina kosa,1364.0
44.43976,15.968644,Ciganka (Kuk),1142.0
44.419525,16.007349,Divjakov vrh,1291.0
44.41998,16.018106,Serajlin vrh,1269.0
44.44978,15.871379,Oštri vrh,1162.0
44.455273,15.8993,Vijojla,1283.0
44.454372,15.877442,Ljutske kosti,1252.0
44.412872,16.025232,Tučji vrh,1240.0
44.47421,15.875455,Zvijezda,1414.0
44.424023,16.001799,Maleševića vrh,1320.0
44.45157,15.9052,Vršak,1234.0
44.44289,15.921274,Milića glavica,849.0
44.44831,15.922669,Prokina glavica,860.0
44.43381,15.988901,Milićev vrh,1289.0
44.43289,15.974347,Obli kuk,1154.0
44.419537,16.029057,Jasikovac,1163.0
44.420082,16.042034,Čavlin vrh,1147.0
44.408085,16.042238,Brdo Žunino,1157.0
44.410313,16.056742,Kuk Simatov,1077.0
44.429703,16.027945,Paverov vrh,1269.0
44.426163,16.012308,Vršić,1255.0
44.42657,16.02969,Alajbegovo brdo,1238.0
44.389217,16.040802,Vršić,1189.0
44.379436,16.030754,Čirić,951.0
44.352406,16.01045,Pogledala,1328.0
44.387974,16.029493,Osovnjača,1159.0
44.398067,16.037357,Čardačić,1149.0
44.37356,16.060928,Mala Stražbenica,1183.0
44.361683,16.0351,Kuk,754.0
44.349205,16.046808,Crni vrh,1011.0
44.389023,15.902736,Kojadinovo brdo,747.0
44.398865,15.902084,Konjsko brdo,762.0
44.384693,15.928032,Gradina,849.0
44.37765,15.942755,Grumila,1005.0
44.41604,15.90135,Crljenčevo brdo,780.0
44.406677,15.903119,Orljevo brdo,783.0
44.383144,15.913324,Suvarkovo brdo,835.0
44.355087,15.982242,Lađena greda,1208.0
44.386726,15.912123,Pečinovo brdo,810.0
44.40143,15.973872,Plećaševo brdo,1041.0
44.404995,15.972152,Kopčić,1032.0
44.376766,15.893085,Runjava glavica,738.0
44.364403,15.909146,Malo brdo,745.0
44.388065,15.916455,Gradina,802.0
44.372883,15.945654,Baljkuša,947.0
44.385017,15.887287,Mutića glavica,703.0
44.368176,15.919003,Smrekovača,858.0
44.389557,15.894555,Veliko brdo,744.0
44.39099,15.969243,Jančerica,1001.0
44.413563,15.940513,Vršak Krivošijin,1179.0
44.36646,15.912172,Veliko brdo,818.0
44.366592,15.927142,Lisćak,837.0
44.37028,15.899629,Golo brdo,777.0
44.370533,15.9326105,Vršić,844.0
44.359863,15.972516,Lađeni kuk,1125.0
44.372204,15.915016,Brda,662.0
44.348507,15.982112,Veliko Sedlo,1209.0
44.351635,15.983008,Malo Sedlo,1192.0
44.328064,16.016235,Tavani,1144.0
44.33869,16.00883,Brdo Džanino,1122.0
44.322563,16.02812,Šepin brdo,1047.0
44.328255,16.010187,Razbojne,1147.0
44.467155,16.04252,Glavičica,844.0
44.32864,16.044407,Tremušnjaci,1181.0
44.4562,16.033436,Kićina glavica,825.0
44.445026,16.00279,Majstorovića kosa,1273.0
44.358566,15.999524,Bukovi vrh,1313.0
44.33051,16.039011,Ćuvarkuća,1209.0
44.469223,15.9997,Vršeljak Bajića,1191.0
44.4316,16.059458,Vršak Parapanića,857.0
44.343834,16.026115,Golover,1325.0
44.462307,16.053402,Grič,1007.0
44.366932,15.989354,Vršac Hajdučki,1189.0
44.35522,15.993867,Tavan Zdjelarov,1218.0
44.40495,16.104387,Lendek,552.0
44.371197,15.989217,Vršac goli,1117.0
44.33612,16.056795,Tisovi vrh,1112.0
44.343243,16.045414,Ogradak,1033.0
44.38577,16.007566,Mala Visibaba,1216.0
44.463615,16.01192,Vršak Dvokića,1226.0
44.455017,16.016323,Vršeljak,1129.0
44.452335,16.025421,Mali Lisac,1069.0
44.447983,16.061495,Babićev vrh,985.0
44.44843,15.978681,Vršina,1092.0
44.36328,15.990406,Vrh Perezin,1178.0
44.396194,16.095535,Vršić,683.0
44.464752,16.030745,Veliki Lisac,1109.0
44.452904,16.034176,Danilova glavica,905.0
44.408936,16.099312,Tujin vrh,567.0
44.452682,16.058931,Veliki vrh,1057.0
44.43939,16.070993,Zaklopački Lisac,974.0
44.4343,15.99566,Stojanov brijeg,1271.0
44.434875,16.055655,Obljajac,881.0
44.45704,16.002047,Zavišića Vršina,1259.0
44.41555,16.083769,Jovanića vršić,504.0
44.43991,15.983268,Prpino brdo,1194.0
44.44697,16.096008,Lipovača,781.0
44.443657,16.014744,Stražište,1213.0
44.429672,16.088243,Velika glavica,657.0
44.44548,16.133219,Kotarsko brdo,536.0
44.421497,16.133938,Vrh Tuka,541.0
44.418556,16.099808,Stražbenica,680.0
44.42521,16.087378,Mala glavica,660.0
44.42504,16.119644,Mali Međeđak,639.0
44.43791,16.105433,Glavice,660.0
44.427246,16.117361,Veliki Međeđak,632.0
44.43524,16.099451,Obla glavica,843.0
44.451996,16.113781,Razvale,695.0
44.444477,16.11157,Kita,693.0
44.45273,16.1032,Krš Dukića,649.0
44.462044,16.126953,Gradina,580.0
44.36335,16.072815,Orlova greda,1048.0
44.384735,16.11048,Bujića kuk,655.0
44.393166,16.124464,Crkvina,395.0
44.397762,16.147043,Mala glavica,542.0
44.37419,16.09953,Vršak,716.0
44.400597,16.143173,Velika glavica,567.0
44.378647,16.105637,Bujića glava,671.0
44.37304,16.068243,Mala Čemernica,1129.0
44.36729,16.080856,Pleća,1051.0
44.389202,16.092545,Dukića Vrščić,681.0
44.370796,16.105598,Pogledalo,753.0
44.377853,16.089628,Vrh Bujić,842.0
44.39025,16.088133,Buzdunov Vrščić,844.0
44.246307,15.849001,Bak,1182.0
44.248825,15.855782,Ćelavac,1117.0
44.25305,15.853615,Sedlo,1214.0
44.3489,15.791994,Vrh Ostojića,1115.0
43.517715,16.044312,Komušnjak,173.0
44.3406,15.825918,Glavica Čankovića,676.0
43.53317,15.98899,Zatoglav,156.0
44.344112,15.801239,Bobiša,1061.0
44.344864,15.807291,Vrh Radakovića,1031.0
44.34125,15.790357,Vršak Gleđin,964.0
44.336586,15.809219,Ploča,1008.0
44.354927,15.766311,Kosa Varavacka,1024.0
44.37756,15.743586,Vršak Klepića,733.0
44.349686,15.756534,Brstanuša,912.0
44.352085,15.786468,Pištinka,1072.0
44.35166,15.742142,Gradina,752.0
44.340977,15.776542,Glavica Mataline,855.0
44.343796,15.761435,Glavica Runjava,856.0
44.375423,15.759819,Debeli brig,675.0
44.37516,15.773195,Pešutov vrh,873.0
44.37657,15.748124,Ljutača,752.0
44.39161,15.757299,Golićak,849.0
44.412495,15.780811,Obljajac,1032.0
44.39048,15.768058,Velika Lisina,954.0
44.369095,15.804184,Vrh Popovića,923.0
44.381863,15.790763,Donje Ždrilo,996.0
44.38851,15.75319,Jurićev vrh,851.0
44.349365,15.806108,Vrh Čalića,1010.0
44.399357,15.779911,Vrh Račića,1051.0
44.38426,15.798387,Kolište,1093.0
44.433628,15.639219,Tuljak,722.0
44.372322,15.800475,Vrh Žutin,997.0
44.3843,15.787841,Gornje Ždrilo,1032.0
44.382633,15.780818,Vrh Mrdalja,934.0
44.39669,15.768394,Božin Vršak,1026.0
44.382427,15.750325,Matin Vršak,749.0
44.39792,15.645585,Brig Jelića,598.0
44.38749,15.762109,Bobeljov Vršak,877.0
44.399433,15.762873,Ćorak,1015.0
44.404007,15.645434,Kuk Mandušin,598.0
44.428757,15.654898,Kopiljača,669.0
44.38568,15.723628,Bošnjakuša,658.0
44.431168,15.6661415,Vrščić,689.0
44.366066,15.667748,Gajine,601.0
44.364056,15.672457,Žmelovača,610.0
44.43219,15.646686,Kikova greda,772.0
44.41671,15.769817,Mali Obljajac,957.0
44.40007,15.833404,Klicino brdo,715.0
44.408043,15.754186,Vrh Matokin,1021.0
44.406765,15.818637,Obešenik,709.0
44.433365,15.671002,Glavičica,633.0
44.408073,15.8007145,Deretin Vršak,799.0
44.45113,15.662174,Jaspovača,654.0
44.458443,15.667492,Međedača,719.0
44.454468,15.71008,Kuk,1133.0
44.411594,15.8123665,Krtinič Vršak,744.0
44.438198,15.716177,Piljin Vršak,992.0
44.45933,15.683633,Kalabini Vršci,702.0
44.426605,15.750095,Bakinovac,987.0
44.41868,15.81988,Obradović Vršak,749.0
44.48908,16.011042,Točkova greda,1147.0
44.49947,15.9465065,Šljeme,1084.0
44.494457,15.988633,Ilića kosa,1207.0
44.37271,15.617491,Mišakinja,652.0
44.484417,15.994426,Lubardenik,1159.0
44.37225,15.61106,Gaj Bobin,677.0
44.359463,15.647774,Gradina Rukavinska,637.0
44.48437,15.735396,Bosinka,752.0
44.48884,15.742687,Ljeskovac,775.0
44.41526,15.8032465,Pasjak,764.0
44.41818,15.799152,Gradina,734.0
44.457924,15.760257,Oštra greda,791.0
44.47656,15.73074,Veliki Rasnik,735.0
44.47582,15.7341385,Mali Rasnik,719.0
44.4939,15.771621,Kosovčov vrh,926.0
44.497257,15.741033,Baćino brdo,765.0
44.469532,15.726695,Prnjinka,680.0
44.471706,15.736818,Kopač,717.0
44.472248,15.754013,Jančije brdo,703.0
44.45332,15.813682,Mala Petrašica,920.0
44.467308,15.771555,Kurozeb,750.0
44.466927,15.791494,Grabovita glavica,796.0
44.428543,15.845688,Kurepov Vršak,768.0
44.460117,15.803589,Kajtazovka,799.0
44.423664,15.866392,Simurdića glavica,745.0
44.415382,15.848468,Stolac,925.0
44.43762,15.862084,Šanac,755.0
44.442936,15.828745,Gradina,777.0
44.479973,15.790515,Varoški vrščić,896.0
44.474556,15.784675,Glavičica,797.0
44.363518,15.852721,Radajica,741.0
44.442062,15.8007,Jurin vrh,905.0
44.371197,15.823889,Oštra glavica,670.0
44.420086,15.877278,Ovčuv,765.0
44.425346,15.836227,Ljutočak,885.0
44.44677,15.809806,Velika Petrašica,958.0
44.442932,15.846859,Stanića glavica,765.0
44.385033,15.855411,Vodena glava,932.0
44.359592,15.856229,Burzina glavica,712.0
44.432785,15.838136,Vršak,774.0
44.40993,15.858804,Lukinov vrh,922.0
44.39341,15.850716,Gola glavica,809.0
44.43123,15.85745,Kanarevica,753.0
44.383842,15.833593,Vršak,699.0
44.37332,15.867507,Vrh Blanušin,771.0
44.366318,15.846508,Reljuša,721.0
44.409122,15.885844,Opčuv,970.0
44.39771,15.86579,Kamenjuša,831.0
44.401905,15.847942,Glok,734.0
44.37439,15.828975,Bijelo Brdo,678.0
44.3691,15.856148,Slatko brdo,715.0
44.38032,15.869354,Vršić,785.0
44.36289,15.8632765,Gola glavica,710.0
44.368263,15.859784,Obljajac,730.0
44.38066,15.87563,Golo brdo,746.0
44.358414,15.850158,Čelina,662.0
44.370106,15.867382,Stražbenica,768.0
44.39067,15.7999935,Jasenar,1176.0
44.35434,15.857,Obljajac,670.0
44.38014,15.85888,Bender,784.0
44.362835,15.836797,Glavica Bukačina,658.0
44.359695,15.824939,Brdo Nikolino,634.0
44.363106,15.820163,Velika glavica,645.0
44.343033,15.702313,Šarac,697.0
44.3194,15.729562,Glavica Skenderova,790.0
44.338818,15.66983,Glavčina,614.0
44.35035,15.64532,Mateganica,590.0
44.355938,15.685904,Kukalj,594.0
44.334694,15.698592,Kosa,745.0
44.282944,15.800959,Šiljak,844.0
44.351013,15.623656,Krunuša,650.0
44.350643,15.667526,Gradina,600.0
44.33847,15.6948,Tavani,722.0
44.29637,15.796355,Brdo Duparovo,558.0
44.314816,15.7371435,Jatarska kosa,760.0
44.32312,15.721086,Liskovi kuk,819.0
44.327938,15.618361,Crni vrh,1098.0
44.341175,15.636165,Mali Visuć,643.0
44.30099,15.803705,Mandžića brdo,554.0
44.331944,15.737031,Brižine,636.0
44.338757,15.639221,Gola,625.0
44.339996,15.689054,Starenik,654.0
44.331234,15.599252,Bilo Kući,1106.0
44.340416,15.677883,Gradina Vrkljanska,607.0
44.340733,15.627815,Veliki Visuć,672.0
44.33932,15.631389,Špijalika,652.0
44.36405,15.627968,Stinovača,686.0
44.366962,15.633186,Vrh Icanovića,676.0
44.35692,15.637929,Glavica Brkina,647.0
44.3592,15.616568,Brdo Visuć,704.0
44.35104,15.588589,Trnovača,745.0
44.30322,15.651536,Markovac,975.0
44.352913,15.584149,Visibaba,753.0
44.421463,15.540433,Rastik,613.0
44.378117,15.619506,Lipać,667.0
44.379135,15.594488,Brusnač,665.0
44.38871,15.590656,Drenova glavica,649.0
44.383625,15.588273,Gradina,685.0
44.400223,15.563887,Okić,684.0
44.396164,15.551354,Glavica Teslića,781.0
44.411613,15.54096,Mičajka,618.0
44.406013,15.539691,Roševka,657.0
44.41715,15.539377,Krekuša,616.0
44.447136,15.564838,Lugarevo brdo,597.0
44.41392,15.501238,Jajara,691.0
44.44499,15.599739,Oštro brdo,607.0
44.45482,15.569658,Plečine,595.0
44.435158,15.541574,Bagunica,703.0
44.424053,15.576446,Vrščići,619.0
44.460915,15.576217,Mačkov Gospić,598.0
44.473232,15.56159,Kneževića brdo,594.0
44.43176,15.55724,Gradina,649.0
44.4797,15.573599,Milkanovo brdo,598.0
44.475395,15.5752535,Kovačevića brdo,598.0
44.45582,15.549123,Visoko brdo,592.0
44.446487,15.576697,Oštro brdo,596.0
44.4663,15.568913,Galešino brdo,593.0
44.439335,15.5340185,Drljaja,651.0
44.449482,15.500718,Velaguša,612.0
44.444706,15.520142,Medak,693.0
44.446533,15.5083065,Parapet,632.0
44.495686,15.586983,Jerkovača,674.0
44.48291,15.594667,Karaula,636.0
44.4948,15.590789,Zabinjača,663.0
44.488396,15.583016,Dabinjača,623.0
44.497337,15.566774,Kuduzovo brdo,624.0
44.49325,15.574525,Gradina,631.0
44.490715,15.590459,Crkvina,622.0
44.496838,15.557814,Malinića brdo,596.0
44.49741,15.605707,Vršeljak,689.0
44.487362,15.522131,Rodajica,593.0
44.48248,15.539097,Babino brdo,593.0
44.49204,15.725889,Gradina,800.0
44.49116,15.732547,Pilića brdo,811.0
44.487213,15.7124405,Švračica,755.0
44.271164,15.535872,Križ Stanića,225.0
44.461628,16.086504,Vršeljak,687.0
44.476086,16.061106,Mamić glavica,570.0
44.48651,16.073006,Kalatna glavica,564.0
44.4703,16.106407,Panos,773.0
44.4714,16.111965,Varćakovac,671.0
44.463776,16.079884,Gradina,745.0
44.485073,16.124004,Vojvodino brdo,664.0
44.486607,16.116354,Vojvodino brdo,689.0
44.493114,16.117558,Kerića brdo,658.0
44.483517,16.102432,Gradina,634.0
44.47493,16.082182,Gologuz,672.0
44.481228,16.042004,Gradina,728.0
44.47339,15.937788,Vrščić,1164.0
44.49859,16.020254,Mandina glavica,821.0
44.482365,15.932872,Kosica,1214.0
44.482388,16.029114,Mandića glavica,855.0
44.48922,15.96893,Čardačina,982.0
44.494694,15.9954815,Bebanov vrh,1181.0
44.479702,16.031311,Drćino brdo,866.0
44.474934,15.89185,Vršeljci,1241.0
44.469246,15.934393,Kuk,1165.0
44.47923,15.846835,Vršina,1379.0
44.476433,15.848,Špica,1378.0
44.283737,15.531685,Kuk,575.0
44.281265,15.527566,Plat,480.0
44.477505,15.860712,Sparnjak,1345.0
44.49888,15.850087,Šulin Vrščić,1231.0
44.496292,15.843278,Mali Vrščić,1225.0
44.466843,15.874349,Zeljin Ogradak,1454.0
44.49187,15.850907,Vranjača,1256.0
43.623222,16.067495,Police,514.0
43.596256,15.948478,Orljača,196.0
43.78725,15.91615,Velika Oštrica,141.0
43.758335,15.936632,Kuk,178.0
43.682564,15.997227,Gradina,106.0
43.783966,15.920835,Mala Oštrica,144.0
44.255314,15.564582,Jadrešinovica,173.0
44.249115,15.589106,Pločatica,230.0
44.243343,15.615686,Starčevića glava,288.0
44.25439,15.611414,Ledenik,587.0
44.251095,15.594107,Gradina,275.0
44.25864,15.55621,Misarska glavica,157.0
44.2666,15.559892,Kitnasta glavica,286.0
44.252117,15.601079,Oštra glavica,338.0
44.25715,15.591064,Čelinka,407.0
44.238842,15.615949,Hrnjakovac,264.0
44.26152,15.533336,Gradina,48.0
44.29043,15.521876,Kuk od Perinih dolaca,656.0
44.315765,15.5276165,Veliki Kom,1000.0
43.766243,15.98727,Gradina,235.3
44.360634,16.349545,Džapin brijeg,742.0
44.290466,16.451275,Radinovac,1139.0
44.263596,16.44222,Silježarski vrh,1433.0
44.26484,16.48977,Duler,1023.0
44.24291,16.478355,Veliki strmac,1256.0
44.240772,16.414068,Veliki bat,1654.0
44.251564,16.405506,Goli vrh,1601.0
44.202637,16.488462,Šljivik,1269.0
44.18699,16.486835,Veliki vrh,1433.0
44.35131,16.2953,Velika metla,1267.0
44.337357,16.33873,Vukobratov vrščić,924.0
44.280426,16.273552,Donji vrščić,1331.0
44.295334,16.342033,Osječenica,1266.0
44.312927,16.39711,Vrletna,974.0
44.28623,16.397074,Modri kuk,539.0
44.271694,16.395035,Crni vrh,1522.0
44.25052,16.262554,Jasenovi vrh,1535.0
44.262627,16.249552,Ječmište,1526.0
44.247322,16.236977,Rodiće plećina,1007.0
44.269466,16.351862,Ćaćin vrh,1258.0
44.25356,16.381409,Crijemušnjak,1541.0
44.207405,16.363342,Stankovača,1011.0
44.228535,16.23848,Medena kosa,744.0
44.231808,16.346025,Veliki krš,900.0
44.46999,16.204533,Velika glavica,799.0
44.49465,16.177475,Gaj,751.0
44.464016,16.172218,Veliki vrh,900.0
44.47113,16.278303,Suhi vrh,1425.0
44.48559,16.289892,Velika zeljarica,1622.0
44.46607,16.37495,Vrančev vrh,1294.0
44.46545,16.405968,Vršeljak,1166.0
44.492863,16.351135,Novakovića vrh,1106.0
44.244953,16.397417,Lisina,1656.0
44.390648,16.46016,Koritnjača,1487.0
44.16694,16.455631,Obljajac,1009.0
44.16381,16.321907,Kalanjevac,1161.0
44.15527,16.367933,Likuša,976.0
44.11193,16.36362,Crni vrh,1478.0
44.12631,16.377954,Crni vrh,1364.0
44.147896,16.38643,Veliki podovi,861.0
44.14745,16.412888,Borova glavica,933.0
44.177155,16.495646,Špija,1457.0
44.193867,16.480272,Mali vrh,1375.0
43.69085,16.057621,Mali Oštrac,254.0
43.685204,16.07983,Goli umac,251.0
43.69223,16.08792,Ošljak,324.0
